[{"name":"臺北榮民總醫院蘇澳分院附設社區式長照機構","code":"2U1700001","type":"2","city":"10002","town":"10002030","addr":"宜蘭縣蘇澳鎮蘇濱路一段301號","lng":121.849182,"lat":24.613455,"abc":"B","service":"日間照顧服務(BB)","zones":["10002010","10002020","10002030","10002040","10002050","10002060","10002070","10002080","10002090","10002100","10002110","10002120"],"phone":"03-9905106#2175","owner":"熊夢平","start":"20200101","end":"20261231"},{"name":"財團法人宜蘭縣私立力麗社會福利慈善事業基金會附設宜蘭縣私立力麗社區式服務類長期照顧服務機構","code":"2S1700002","type":"2","city":"10002","town":"10002090","addr":"宜蘭縣五結鄉中正路三段21號1樓","lng":121.770958,"lat":24.7082,"abc":"B","service":"日間照顧服務(BB)","zones":["10002010","10002020","10002030","10002040","10002050","10002060","10002070","10002080","10002090","10002100","10002110","10002120"],"phone":"03-9650736#106","owner":"郭銓慶","start":"20200101","end":"20261231"},{"name":"台灣老康泰銀髮服務股份有限公司附設宜蘭縣私立老康泰社區長照機構","code":"2V1700001","type":"2","city":"10002","town":"10002020","addr":"宜蘭縣羅東鎮純精路三段266號1樓","lng":121.766525,"lat":24.684574,"abc":"B","service":"日間照顧服務(BB)","zones":["10002010","10002020","10002030","10002040","10002050","10002060","10002070","10002080","10002090","10002100","10002110","10002120"],"phone":"03-9560956","owner":"邱翊烜","start":"20200101","end":"20261231"},{"name":"宜蘭縣私立廣親老人長期照顧中心(養護型)","code":"A11700017","type":"A1","city":"10002","town":"10002010","addr":"宜蘭縣宜蘭市泰山路256、258、260、262號","lng":121.737289,"lat":24.751076,"abc":"B","service":"喘息服務","zones":["10002010","10002020","10002030","10002040","10002050","10002060","10002070","10002080","10002090","10002100","10002110","10002120"],"phone":"03-9329955","owner":"王朝明","start":"20260101","end":"20270331","beds":48,"residents":46},{"name":"宜蘭縣私立慈恩老人長期照顧中心(養護型)","code":"A11700018","type":"A1","city":"10002","town":"10002010","addr":"宜蘭縣宜蘭市津梅路71號","lng":121.752731,"lat":24.767359,"abc":"B","service":"喘息服務","zones":["10002010","10002020","10002030","10002040","10002050","10002060","10002070","10002080","10002090","10002100","10002110","10002120"],"phone":"03-9280860","owner":"李玲梅","start":"20260101","end":"20270331","beds":42,"residents":34},{"name":"宜蘭縣私立祥德老人長期照顧中心(養護型)","code":"A11700020","type":"A1","city":"10002","town":"10002010","addr":"宜蘭縣宜蘭市東村里陽明三路160巷2號、6號","lng":121.765274,"lat":24.751335,"abc":"B","service":"喘息服務","zones":["10002010","10002020","10002030","10002040","10002050","10002060","10002070","10002080","10002090","10002100","10002110","10002120"],"phone":"03-9387733","owner":"陳可竣","start":"20220101","end":"20240430","beds":37,"residents":21},{"name":"財團法人宜蘭縣私立佳恩老人長期照顧中心(養護型)","code":"A11700024","type":"A1","city":"10002","town":"10002010","addr":"宜蘭縣宜蘭市舊城北路177號","lng":121.751793,"lat":24.760456,"abc":"B","service":"喘息服務","zones":["10002010","10002020","10002030","10002040","10002050","10002060","10002070","10002080","10002090","10002100","10002110","10002120"],"phone":"03-9354176","owner":"許東豐","start":"20230101","end":"20240430","beds":88,"residents":20},{"name":"台灣老康泰銀髮服務股份有限公司附設宜蘭縣私立老康泰社區長照機構","code":"2V1700001","type":"2","city":"10002","town":"10002020","addr":"宜蘭縣羅東鎮純精路三段266號1樓","lng":121.766525,"lat":24.684574,"abc":"B","service":"喘息服務","zones":["10002010","10002020","10002030","10002040","10002050","10002060","10002070","10002080","10002090","10002100","10002110","10002120"],"phone":"03-9560956","owner":"邱翊烜","start":"20190101","end":"20251231"},{"name":"財團法人天主教靈醫修女會附設宜蘭縣私立瑪利亞老人長期照顧中心(養護型)","code":"A11700001","type":"A1","city":"10002","town":"10002020","addr":"宜蘭縣羅東鎮漢民里北成路一段17號","lng":121.762299,"lat":24.674501,"abc":"B","service":"日間照顧服務(BB)","zones":["10002010","10002020","10002030","10002040","10002050","10002060","10002070","10002080","10002090","10002100","10002110","10002120"],"phone":"03-9512060","owner":"阮秋垂","start":"20200101","end":"20261231","beds":106,"residents":105},{"name":"財團法人天主教靈醫會附設宜蘭縣私立聖嘉民老人長期照顧中心(養護型)","code":"A11700006","type":"A1","city":"10002","town":"10002100","addr":"宜蘭縣三星鄉大隱村三星路二段103號","lng":121.70562,"lat":24.666786,"abc":"B","service":"日間照顧服務(BB)","zones":["10002010","10002020","10002030","10002040","10002050","10002060","10002070","10002080","10002090","10002100","10002110","10002120"],"phone":"03-9898806#105","owner":"黃浩然","start":"20220101","end":"20261231","beds":122,"residents":114},{"name":"財團法人宜蘭縣私立蘭陽仁愛之家","code":"A11700042","type":"A1","city":"10002","town":"10002050","addr":"宜蘭縣礁溪鄉龍潭村龍泉路31號","lng":121.743263,"lat":24.783531,"abc":"B","service":"營養餐飲服務","zones":["10002050"],"phone":"03-9283880","owner":"吳素真","start":"20200101","end":"20201231","beds":60,"residents":26},{"name":"國立陽明交通大學附設醫院護理之家","code":"A31700005","type":"A3","city":"10002","town":"10002010","addr":"宜蘭縣宜蘭市新民路152號","lng":121.754158,"lat":24.757772,"abc":"B","service":"喘息服務","zones":["10002010","10002020","10002030","10002040","10002050","10002060","10002070","10002080","10002090","10002100","10002110","10002120"],"phone":"03-9325192 #72561","owner":"林秋鈴","start":"20250101","end":"20270331","beds":99,"residents":99},{"name":"宜蘭縣蘇澳鎮新城社區發展協會","code":"BF1700001","type":"BF","city":"10002","town":"10002030","addr":"宜蘭縣蘇澳鎮新城里慶安路9號","lng":121.827347,"lat":24.620523,"abc":"B","service":"營養餐飲服務","zones":["10002030"],"phone":"0939-789928","owner":"吳錦惠","start":"20190101","end":"20191231"},{"name":"宜蘭縣福氣生活照顧關懷協會","code":"BF1700002","type":"BF","city":"10002","town":"10002030","addr":"宜蘭縣蘇澳鎮慶安路13之3號","lng":121.827377,"lat":24.620634,"abc":"B","service":"營養餐飲服務","zones":[],"phone":"0939-789928","owner":"吳錦惠","start":"20200101","end":"20201231"},{"name":"宜蘭縣崗給原住民永續發展協會","code":"BF1700094","type":"BF","city":"10002","town":"10002110","addr":"宜蘭縣大同鄉寒溪村寒溪巷47號","lng":121.688026,"lat":24.610081,"abc":"B","service":"營養餐飲服務","zones":["10002080","10002110"],"phone":"03-9517450","owner":"吳春美","start":"20200101","end":"20261231"},{"name":"宜蘭縣冬山鄉柯林社區發展協會","code":"BF1700095","type":"BF","city":"10002","town":"10002080","addr":"宜蘭縣冬山鄉光華路209號","lng":121.729866,"lat":24.676527,"abc":"B","service":"營養餐飲服務","zones":["10002080"],"phone":"9510991","owner":"陳文生","start":"20200101","end":"20211231"},{"name":"宜蘭縣冬山鄉珍珠社區發展協會","code":"BF1700097","type":"BF","city":"10002","town":"10002080","addr":"宜蘭縣冬山鄉幸福二路73號","lng":121.784615,"lat":24.651976,"abc":"B","service":"營養餐飲服務","zones":["10002080"],"phone":"03-9600721","owner":"","start":"","end":""},{"name":"社團法人宜蘭縣社區照顧促進會","code":"BE1700004","type":"BE","city":"10002","town":"10002060","addr":"宜蘭縣壯圍鄉中央路二段265號","lng":121.799118,"lat":24.685324,"abc":"B","service":"營養餐飲服務","zones":["10002090"],"phone":"03-9381265","owner":"林文明","start":"20200101","end":"20201231"},{"name":"財團法人台灣基督長老教會宜蘭教會","code":"BD1700004","type":"BD","city":"10002","town":"10002010","addr":"宜蘭縣宜蘭市新民路108號","lng":121.755516,"lat":24.757223,"abc":"C","service":"巷弄長照站","zones":["10002010"],"phone":"03-9351851#31","owner":"楊啟仁","start":"20190101","end":"20201231"},{"name":"財團法人中華基督教協同會(羅東教會)","code":"BD1700010","type":"BD","city":"10002","town":"10002020","addr":"宜蘭縣羅東鎮維揚里維揚路40號","lng":121.762283,"lat":24.672415,"abc":"C","service":"巷弄長照站","zones":["10002020"],"phone":"03-9513029","owner":"劉偉民","start":"20190101","end":"20201231"},{"name":"財團法人伊甸社會福利基金會宜蘭分事務所(頭城武營站)","code":"BD1700011","type":"BD","city":"10002","town":"10002040","addr":"宜蘭縣頭城鎮武營里武營路16-8號","lng":121.824776,"lat":24.861786,"abc":"C","service":"巷弄長照站","zones":["10002030"],"phone":"03-9771238","owner":"成亮","start":"20190101","end":"20191231"},{"name":"宜蘭縣頭城鎮港口社區發展協會","code":"BF1700010","type":"BF","city":"10002","town":"10002040","addr":"宜蘭縣頭城鎮港口里港口路60-3號","lng":121.840317,"lat":24.876238,"abc":"C","service":"巷弄長照站","zones":["10002040"],"phone":"0982-120568","owner":"李世田","start":"20190101","end":"20201231"},{"name":"宜蘭縣頭城鎮大坑社區發展協會","code":"BF1700011","type":"BF","city":"10002","town":"10002040","addr":"宜蘭縣頭城鎮大坑里協天路602號","lng":121.831192,"lat":24.856474,"abc":"C","service":"巷弄長照站","zones":["10002040"],"phone":"03-9777663","owner":"陳棟華","start":"20190101","end":"20201231"},{"name":"宜蘭縣頭城鎮龜山島社區發展協會","code":"BF1700012","type":"BF","city":"10002","town":"10002040","addr":"宜蘭縣頭城鎮龜山里龜山路221號","lng":121.900169,"lat":24.942537,"abc":"C","service":"巷弄長照站","zones":["10002040"],"phone":"03-9781306","owner":"蔣金明","start":"20190101","end":"20201231"},{"name":"宜蘭縣頭城鎮新建社區發展協會","code":"BF1700013","type":"BF","city":"10002","town":"10002040","addr":"宜蘭縣頭城鎮新建里新興路234-1號","lng":121.819695,"lat":24.853962,"abc":"C","service":"巷弄長照站","zones":["10002040"],"phone":"0937-159535","owner":"王新驊","start":"20190101","end":"20201231"},{"name":"宜蘭縣冬山鄉東城社區發展協會","code":"BF1700014","type":"BF","city":"10002","town":"10002080","addr":"宜蘭縣冬山鄉補城村東城路280號","lng":121.806343,"lat":24.629707,"abc":"C","service":"巷弄長照站","zones":["10002080"],"phone":"0933-103973","owner":"黃萬金","start":"20190101","end":"20201231"},{"name":"宜蘭縣冬山鄉武淵社區發展協會","code":"BF1700015","type":"BF","city":"10002","town":"10002080","addr":"宜蘭縣冬山鄉武淵村富農路2段325號","lng":121.793915,"lat":24.635622,"abc":"C","service":"巷弄長照站","zones":["10002080"],"phone":"03-9508704","owner":"陳俐玲","start":"20210928","end":"20230331"},{"name":"宜蘭縣冬山鄉順安社區發展協會","code":"BF1700016","type":"BF","city":"10002","town":"10002080","addr":"宜蘭縣冬山鄉順安村義成路2段378巷87號","lng":121.763885,"lat":24.654137,"abc":"C","service":"巷弄長照站","zones":["10002080"],"phone":"0922-240500","owner":"林正欽","start":"20190101","end":"20201231"},{"name":"宜蘭縣員山鄉結頭份社區發展協會","code":"BF1700017","type":"BF","city":"10002","town":"10002070","addr":"宜蘭縣員山鄉頭分村永同路2段186-1號","lng":121.722717,"lat":24.76162,"abc":"C","service":"巷弄長照站","zones":["10002070"],"phone":"03-9220683","owner":"廖碧勤","start":"20190101","end":"20201231"},{"name":"宜蘭縣員山鄉湖東社區發展協會","code":"BF1700018","type":"BF","city":"10002","town":"10002070","addr":"宜蘭縣員山鄉湖東村茄苳路68-2號","lng":121.708878,"lat":24.746033,"abc":"C","service":"巷弄長照站","zones":["10002070"],"phone":"0928-639848","owner":"陳朝松","start":"20190301","end":"20201231"},{"name":"宜蘭縣礁溪鄉玉田社區發展協會","code":"BF1700019","type":"BF","city":"10002","town":"10002050","addr":"宜蘭縣礁溪鄉白雲村玉龍路一段479巷6號","lng":121.785622,"lat":24.797913,"abc":"C","service":"巷弄長照站","zones":["10002050"],"phone":"0932-163928","owner":"黃正為","start":"20190101","end":"20201231"},{"name":"宜蘭縣礁溪鄉玉光社區發展協會","code":"BF1700020","type":"BF","city":"10002","town":"10002050","addr":"宜蘭縣礁溪鄉玉光村瑪僯路76號","lng":121.774017,"lat":24.793102,"abc":"C","service":"巷弄長照站","zones":["10002050"],"phone":"0922-022106","owner":"吳進德","start":"20190101","end":"20201231"},{"name":"宜蘭縣礁溪鄉德陽社區發展協會","code":"BF1700021","type":"BF","city":"10002","town":"10002050","addr":"宜蘭縣礁溪鄉德陽村成功路32-3號","lng":121.768082,"lat":24.828205,"abc":"C","service":"巷弄長照站","zones":["10002050"],"phone":"0910-299901","owner":"杜國生","start":"20190101","end":"20201231"},{"name":"宜蘭縣蘇澳鎮蘇西社區發展協會","code":"BF1700022","type":"BF","city":"10002","town":"10002030","addr":"宜蘭縣蘇澳鎮蘇西里志成路62號","lng":121.84108,"lat":24.593889,"abc":"C","service":"巷弄長照站","zones":["10002030"],"phone":"03-9961912","owner":"王清珠","start":"20190101","end":"20201231"},{"name":"宜蘭縣蘇澳鎮蘇北社區發展協會","code":"BF1700023","type":"BF","city":"10002","town":"10002030","addr":"宜蘭縣蘇澳鎮蘇北里新生路8號","lng":121.850555,"lat":24.596804,"abc":"C","service":"巷弄長照站","zones":["10002030"],"phone":"03-9967785","owner":"邱献欽","start":"20190101","end":"20201231"},{"name":"宜蘭縣蘇澳鎮長安社區發展協會","code":"BF1700024","type":"BF","city":"10002","town":"10002030","addr":"宜蘭縣蘇澳鎮長安里勝利路1-1號","lng":121.854065,"lat":24.592838,"abc":"C","service":"巷弄長照站","zones":["10002030"],"phone":"03-9967487","owner":"陳俐莉","start":"20190101","end":"20201231"},{"name":"宜蘭縣蘇澳鎮聖湖社區發展協會","code":"BF1700025","type":"BF","city":"10002","town":"10002030","addr":"宜蘭縣蘇澳鎮聖湖里全祿街10號","lng":121.834496,"lat":24.594629,"abc":"C","service":"巷弄長照站","zones":["10002030"],"phone":"03-9951755","owner":"宋湘雲","start":"20190101","end":"20201231"},{"name":"宜蘭縣三星鄉老人福利協會","code":"BF1700026","type":"BF","city":"10002","town":"10002100","addr":"宜蘭縣三星鄉義德村義興路51號","lng":121.651039,"lat":24.667734,"abc":"C","service":"巷弄長照站","zones":["10002100"],"phone":"0932-360800","owner":"謝正統","start":"20190101","end":"20201231"},{"name":"宜蘭縣三星鄉尾塹社區發展協會","code":"BF1700027","type":"BF","city":"10002","town":"10002100","addr":"宜蘭縣三星鄉尾塹村上將路1段249巷30號","lng":121.745209,"lat":24.700996,"abc":"C","service":"巷弄長照站","zones":["10002100"],"phone":"0952-928646","owner":"楊登茂","start":"20190101","end":"20191231"},{"name":"宜蘭縣壯圍鄉順和社區發展協會","code":"BF1700009","type":"BF","city":"10002","town":"10002060","addr":"宜蘭縣壯圍鄉忠孝村順和路48-8號","lng":121.802254,"lat":24.763163,"abc":"C","service":"巷弄長照站","zones":["10002060"],"phone":"03-9301014","owner":"李阿富","start":"20190101","end":"20201231"},{"name":"宜蘭縣壯圍鄉後埤社區發展協會","code":"BF1700028","type":"BF","city":"10002","town":"10002060","addr":"宜蘭縣壯圍鄉復興村壯濱路二段267號","lng":121.816124,"lat":24.745947,"abc":"C","service":"巷弄長照站","zones":["10002060"],"phone":"03-9382678","owner":"蔡美英","start":"20190101","end":"20191231"},{"name":"宜蘭縣壯圍鄉壯六社區發展協會","code":"BF1700029","type":"BF","city":"10002","town":"10002060","addr":"宜蘭縣壯圍鄉忠孝村壯六路47號","lng":121.801537,"lat":24.750694,"abc":"C","service":"巷弄長照站","zones":["10002060"],"phone":"03-9304321","owner":"張秀屘","start":"20190101","end":"20191231"},{"name":"宜蘭縣冬山鄉香和社區發展協會","code":"BF1700004","type":"BF","city":"10002","town":"10002080","addr":"宜蘭縣冬山鄉香和村香南路33號","lng":121.79763,"lat":24.628738,"abc":"C","service":"巷弄長照站","zones":["10002080"],"phone":"0932-165301","owner":"黃壬申","start":"20190101","end":"20201231"},{"name":"宜蘭縣宜蘭市思源社區發展協會","code":"BF1700005","type":"BF","city":"10002","town":"10002010","addr":"宜蘭縣宜蘭市泰山路復國巷6號","lng":121.740715,"lat":24.74872,"abc":"C","service":"巷弄長照站","zones":["10002010"],"phone":"03-9354708","owner":"郭燈和","start":"20190101","end":"20201231"},{"name":"宜蘭縣員山鄉惠好社區發展協會","code":"BF1700007","type":"BF","city":"10002","town":"10002070","addr":"宜蘭縣員山鄉惠好村賢德路2段66巷50號","lng":121.728317,"lat":24.73122,"abc":"C","service":"巷弄長照站","zones":["10002070"],"phone":"0910-923889","owner":"張金來","start":"20190101","end":"20201231"},{"name":"宜蘭縣員山鄉尚德社區發展協會","code":"BF1700031","type":"BF","city":"10002","town":"10002070","addr":"宜蘭縣員山鄉尚德村三鬮路33巷13號","lng":121.72213,"lat":24.737617,"abc":"C","service":"巷弄長照站","zones":["10002070"],"phone":"0912-010239","owner":"黃境堂","start":"20190301","end":"20201231"},{"name":"宜蘭縣員山鄉內城社區發展協會","code":"BF1700032","type":"BF","city":"10002","town":"10002070","addr":"宜蘭縣員山鄉內城村榮光路321號","lng":121.688637,"lat":24.720888,"abc":"C","service":"巷弄長照站","zones":["10002070"],"phone":"0920-363597","owner":"林坤鎮","start":"20190101","end":"20201231"},{"name":"宜蘭縣蘇澳鎮永榮社區發展協會","code":"BF1700033","type":"BF","city":"10002","town":"10002030","addr":"宜蘭縣蘇澳鎮永榮里和平路51號","lng":121.836098,"lat":24.621067,"abc":"C","service":"巷弄長照站","zones":["10002030"],"phone":"03-9906581","owner":"陳旺德","start":"20190101","end":"20201231"},{"name":"宜蘭縣蘇澳鎮新城社區發展協會","code":"BF1700001","type":"BF","city":"10002","town":"10002030","addr":"宜蘭縣蘇澳鎮新城里慶安路9號","lng":121.827347,"lat":24.620523,"abc":"C","service":"巷弄長照站","zones":["10002030"],"phone":"0939-789928","owner":"吳錦惠","start":"20190101","end":"20201231"},{"name":"宜蘭縣長青關懷照顧協會(五結成興站)","code":"BF1700051","type":"BF","city":"10002","town":"10002090","addr":"宜蘭縣五結鄉成興村利成路一段185號","lng":121.825447,"lat":24.652546,"abc":"C","service":"巷弄長照站","zones":["10002030"],"phone":"03-9680367","owner":"黃嘉斌","start":"20200101","end":"20201231"},{"name":"宜蘭縣五結鄉協和社區發展協會","code":"BF1700035","type":"BF","city":"10002","town":"10002090","addr":"宜蘭縣五結鄉協和村五結路2段199號","lng":121.804459,"lat":24.688354,"abc":"C","service":"巷弄長照站","zones":["10002090"],"phone":"0920-423567","owner":"林國燦","start":"20190101","end":"20201231"},{"name":"宜蘭縣蘇澳鎮朝陽社區發展協會","code":"BF1700036","type":"BF","city":"10002","town":"10002030","addr":"宜蘭縣蘇澳鎮朝陽里朝陽路40號","lng":121.813545,"lat":24.461029,"abc":"C","service":"巷弄長照站","zones":["10002030"],"phone":"03-9981981","owner":"蘇朝麟","start":"20190101","end":"20201231"},{"name":"宜蘭縣冬山鄉永美社區發展協會","code":"BF1700037","type":"BF","city":"10002","town":"10002080","addr":"宜蘭縣冬山鄉永美村永興路1段189號","lng":121.777626,"lat":24.654722,"abc":"C","service":"巷弄長照站","zones":["10002080"],"phone":"03-9584461","owner":"何長順","start":"20190101","end":"20201231"},{"name":"宜蘭縣長青關懷照顧協會(冬山鹿埔站)","code":"BF1700052","type":"BF","city":"10002","town":"10002080","addr":"宜蘭縣冬山鄉武淵村鹿埔路490號","lng":121.750679,"lat":24.655798,"abc":"C","service":"巷弄長照站","zones":["10002080"],"phone":"03-9680367","owner":"黃嘉斌","start":"20190101","end":"20201231"},{"name":"宜蘭縣冬山鄉丸山社區發展協會","code":"BF1700039","type":"BF","city":"10002","town":"10002080","addr":"宜蘭縣冬山鄉丸山村港尾路98號","lng":121.766281,"lat":24.64262,"abc":"C","service":"巷弄長照站","zones":["10002080"],"phone":"0928-268880","owner":"蕭順龍","start":"20190101","end":"20201231"},{"name":"宜蘭縣冬山鄉南興社區發展協會","code":"BF1700040","type":"BF","city":"10002","town":"10002080","addr":"宜蘭縣冬山鄉南興村冬山路98-2號","lng":121.793892,"lat":24.63339,"abc":"C","service":"巷弄長照站","zones":["10002080"],"phone":"0918-430105","owner":"游東榮","start":"20200101","end":"20201231"},{"name":"宜蘭縣頭城鎮福成社區發展協會","code":"BF1700053","type":"BF","city":"10002","town":"10002040","addr":"宜蘭縣頭城鎮福成里宜三路2段378號","lng":121.797096,"lat":24.850878,"abc":"C","service":"巷弄長照站","zones":["10002040"],"phone":"0932-264174","owner":"楊清安","start":"20190101","end":"20191231"},{"name":"宜蘭縣五結鄉二結社區發展協會","code":"BF1700042","type":"BF","city":"10002","town":"10002090","addr":"宜蘭縣五結鄉二結村中正路3段151號","lng":121.771217,"lat":24.706614,"abc":"C","service":"巷弄長照站","zones":["10002090"],"phone":"03-9641001","owner":"簡汝育","start":"20190101","end":"20191231"},{"name":"宜蘭縣羅東鎮樹林社區發展協會","code":"BF1700043","type":"BF","city":"10002","town":"10002020","addr":"宜蘭縣羅東鎮樹林里文林路130號","lng":121.761391,"lat":24.683331,"abc":"C","service":"巷弄長照站","zones":[],"phone":"03-9540605","owner":"黃再興","start":"20190101","end":"20191231"},{"name":"宜蘭縣羅東鎮羅莊社區發展協會","code":"BF1700044","type":"BF","city":"10002","town":"10002020","addr":"宜蘭縣羅東鎮羅莊里羅莊街357號","lng":121.779671,"lat":24.671562,"abc":"C","service":"巷弄長照站","zones":["10002020"],"phone":"03-9568509","owner":"林仁地","start":"20190101","end":"20191231"},{"name":"宜蘭縣宜蘭市七張社區發展協會","code":"BF1700045","type":"BF","city":"10002","town":"10002010","addr":"宜蘭縣宜蘭市七張里七張路537號","lng":121.769569,"lat":24.764193,"abc":"C","service":"巷弄長照站","zones":["10002010"],"phone":"0921-372056","owner":"林俊欽","start":"20190101","end":"20191231"},{"name":"宜蘭縣宜蘭市延平社區發展協會","code":"BF1700046","type":"BF","city":"10002","town":"10002010","addr":"宜蘭縣宜蘭市成功里環市東路890號","lng":121.771393,"lat":24.758833,"abc":"C","service":"巷弄長照站","zones":["10002010"],"phone":"0913-823798","owner":"莊麗津","start":"20190101","end":"20191231"},{"name":"宜蘭縣五結鄉大吉社區發展協會","code":"BF1700047","type":"BF","city":"10002","town":"10002090","addr":"宜蘭縣五結鄉大吉村大吉五路181巷10號","lng":121.800934,"lat":24.699656,"abc":"C","service":"巷弄長照站","zones":["10002090"],"phone":"0920-492673","owner":"林建祥","start":"20190101","end":"20201231"},{"name":"宜蘭縣五結鄉大眾社區發展協會","code":"BF1700049","type":"BF","city":"10002","town":"10002090","addr":"宜蘭縣五結鄉錦眾村大眾三路360巷16號","lng":121.820221,"lat":24.696371,"abc":"C","service":"巷弄長照站","zones":["10002090"],"phone":"03-9603636","owner":"林健生","start":"20190101","end":"20191231"},{"name":"宜蘭縣五結鄉三興社區發展協會","code":"BF1700050","type":"BF","city":"10002","town":"10002090","addr":"宜蘭縣五結鄉三興村三結五路188號","lng":121.785439,"lat":24.704939,"abc":"C","service":"巷弄長照站","zones":["10002090"],"phone":"03-9508550","owner":"林秋慶","start":"20190101","end":"20201231"},{"name":"宜蘭縣壯圍鄉古亭社區發展協會","code":"BF1700054","type":"BF","city":"10002","town":"10002060","addr":"宜蘭縣壯圍鄉古亭村古亭路48之16號","lng":121.800346,"lat":24.771963,"abc":"C","service":"巷弄長照站","zones":["10002060"],"phone":"03-9305028","owner":"劉坤科","start":"20190101","end":"20191231"},{"name":"宜蘭縣失智症照顧服務協會","code":"BF1700055","type":"BF","city":"10002","town":"10002010","addr":"宜蘭縣宜蘭市西門里同慶街95號","lng":121.75074,"lat":24.761673,"abc":"C","service":"巷弄長照站","zones":["10002010"],"phone":"03-933-0581","owner":"簡志龍","start":"20190101","end":"20221231"},{"name":"宜蘭縣宜蘭市進士社區發展協會","code":"BF1700056","type":"BF","city":"10002","town":"10002010","addr":"宜蘭縣宜蘭市進士里進士進士路53-1號","lng":121.746346,"lat":24.741438,"abc":"C","service":"巷弄長照站","zones":["10002010"],"phone":"03-9312049","owner":"江愉鈞","start":"20190101","end":"20191231"},{"name":"宜蘭縣宜蘭市新東社區發展協會","code":"BF1700057","type":"BF","city":"10002","town":"10002010","addr":"宜蘭縣宜蘭市新東里陽明三路37號","lng":121.76532,"lat":24.750023,"abc":"C","service":"巷弄長照站","zones":["10002010"],"phone":"0910-935005","owner":"潘富明","start":"20190101","end":"20191231"},{"name":"宜蘭縣羅東鎮信義社區發展協會","code":"BF1700058","type":"BF","city":"10002","town":"10002020","addr":"宜蘭縣羅東鎮信義里中華路189號","lng":121.76889,"lat":24.684029,"abc":"C","service":"巷弄長照站","zones":[],"phone":"03-3540938","owner":"黃義雄","start":"20190101","end":"20191231"},{"name":"宜蘭縣羅東鎮大新社區發展協會","code":"BF1700059","type":"BF","city":"10002","town":"10002020","addr":"宜蘭縣羅東鎮大新里中正路128號2樓","lng":121.77153,"lat":24.675989,"abc":"C","service":"巷弄長照站","zones":["10002020"],"phone":"0933-244712","owner":"林東茂","start":"20190101","end":"20191231"},{"name":"宜蘭縣羅東鎮漢民社區發展協會","code":"BF1700060","type":"BF","city":"10002","town":"10002020","addr":"宜蘭縣羅東鎮漢民里純精路一段219號","lng":121.766396,"lat":24.668716,"abc":"C","service":"巷弄長照站","zones":["10002020"],"phone":"0910-659387","owner":"蔡德昌","start":"20190101","end":"20191231"},{"name":"宜蘭縣羅東鎮南昌社區發展協會","code":"BF1700061","type":"BF","city":"10002","town":"10002020","addr":"宜蘭縣羅東鎮南昌里站前南路1號","lng":121.772484,"lat":24.669003,"abc":"C","service":"巷弄長照站","zones":[],"phone":"0912-336941","owner":"林丞溱","start":"20190101","end":"20191231"},{"name":"宜蘭縣三星鄉大隱社區發展協會","code":"BF1700062","type":"BF","city":"10002","town":"10002100","addr":"宜蘭縣三星鄉大隱村三星路1段533巷50號","lng":121.709541,"lat":24.669853,"abc":"C","service":"巷弄長照站","zones":["10002100"],"phone":"0920-940425","owner":"游茂山","start":"20190101","end":"20191231"},{"name":"礁溪鄉時潮社區發展協會","code":"BF1700063","type":"BF","city":"10002","town":"10002050","addr":"宜蘭縣礁溪鄉時潮村塭底路54-1號","lng":121.809723,"lat":24.804733,"abc":"C","service":"巷弄長照站","zones":["10002050"],"phone":"0935-385918","owner":"楊長村","start":"20190101","end":"20201231"},{"name":"宜蘭縣礁溪鄉林美社區發展協會","code":"BF1700064","type":"BF","city":"10002","town":"10002050","addr":"宜蘭縣礁溪鄉林美村林尾路66-1號","lng":121.754684,"lat":24.81665,"abc":"C","service":"巷弄長照站","zones":["10002050"],"phone":"03-9889041","owner":"沈鴻裕","start":"20190101","end":"20191231"},{"name":"五結鄉孝威社區發展協會","code":"BF1700065","type":"BF","city":"10002","town":"10002090","addr":"宜蘭縣五結鄉孝威村孝威路326號","lng":121.811462,"lat":24.696371,"abc":"C","service":"巷弄長照站","zones":["10002090"],"phone":"0912-298-529","owner":"曾秋萍","start":"20190101","end":"20191231"},{"name":"宜蘭縣冬山鄉大興社區發展協會","code":"BF1700066","type":"BF","city":"10002","town":"10002080","addr":"宜蘭縣冬山鄉大興村福興東路88號","lng":121.810234,"lat":24.629374,"abc":"C","service":"巷弄長照站","zones":["10002080"],"phone":"0925-102560","owner":"邱長欽","start":"20190101","end":"20191231"},{"name":"宜蘭縣冬山鄉冬瓜山社區發展協會","code":"BF1700067","type":"BF","city":"10002","town":"10002080","addr":"宜蘭縣冬山鄉冬山村中正路20號","lng":121.791306,"lat":24.635937,"abc":"C","service":"巷弄長照站","zones":["10002080"],"phone":"0958541866","owner":"黃秋菊","start":"20190101","end":"20201231"},{"name":"宜蘭縣冬山鄉清溝社區發展協會","code":"BF1700068","type":"BF","city":"10002","town":"10002080","addr":"宜蘭縣冬山鄉清溝村光明路51號","lng":121.766045,"lat":24.666346,"abc":"C","service":"巷弄長照站","zones":["10002080"],"phone":"0932165188","owner":"李木田","start":"20190101","end":"20201231"},{"name":"宜蘭縣冬山鄉群英社區發展協會","code":"BF1700069","type":"BF","city":"10002","town":"10002080","addr":"宜蘭縣冬山鄉群英村冬山路5段51號","lng":121.772293,"lat":24.666744,"abc":"C","service":"巷弄長照站","zones":["10002080"],"phone":"0919314569","owner":"黃泰齡","start":"20190101","end":"20191231"},{"name":"宜蘭縣蘇澳鎮龍德社區發展協會","code":"BF1700070","type":"BF","city":"10002","town":"10002030","addr":"宜蘭縣蘇澳鎮龍德里福德路177巷27號","lng":121.830467,"lat":24.641201,"abc":"C","service":"巷弄長照站","zones":["10002030"],"phone":"0921088175","owner":"張文欽","start":"20190101","end":"20201231"},{"name":"宜蘭縣長青關懷照顧協會(蘇澳隘丁站)","code":"BF1700071","type":"BF","city":"10002","town":"10002030","addr":"宜蘭縣蘇澳鎮隘丁里隘丁路36號","lng":121.835899,"lat":24.617804,"abc":"C","service":"巷弄長照站","zones":["10002030"],"phone":"0922-087672","owner":"黃嘉斌","start":"20190101","end":"20201231"},{"name":"宜蘭縣蘇澳鎮隘丁社區發展協會","code":"BF1700072","type":"BF","city":"10002","town":"10002030","addr":"宜蘭縣蘇澳鎮隘丁里城中路40號","lng":121.837112,"lat":24.615768,"abc":"C","service":"巷弄長照站","zones":["10002030"],"phone":"0932361279","owner":"李福全","start":"20190101","end":"20201231"},{"name":"宜蘭縣頭城鎮武營社區發展協會","code":"BF1700073","type":"BF","city":"10002","town":"10002040","addr":"宜蘭縣頭城鎮武營里開蘭路224號","lng":121.825928,"lat":24.861082,"abc":"C","service":"巷弄長照站","zones":["10002040"],"phone":"0937-159509","owner":"楊金火","start":"20190101","end":"20191231"},{"name":"宜蘭縣壯圍鄉功勞社區發展協會","code":"BF1700074","type":"BF","city":"10002","town":"10002060","addr":"宜蘭縣壯圍鄉功勞村美功路一段80巷21號","lng":121.783371,"lat":24.770647,"abc":"C","service":"巷弄長照站","zones":["10002060"],"phone":"03-930-1385","owner":"林金虎","start":"20190101","end":"20191231"},{"name":"宜蘭縣羅東鎮東安社區發展協會","code":"BF1700075","type":"BF","city":"10002","town":"10002020","addr":"宜蘭縣羅東鎮東安里天祥路171號","lng":121.776276,"lat":24.674166,"abc":"C","service":"巷弄長照站","zones":[],"phone":"03-954-7353","owner":"李錫欽","start":"20190101","end":"20191231"},{"name":"蘇澳鎮南寧社區發展協會","code":"BF1700076","type":"BF","city":"10002","town":"10002030","addr":"宜蘭縣蘇澳鎮南寧里南新路11號","lng":121.869423,"lat":24.581327,"abc":"C","service":"巷弄長照站","zones":["10002030"],"phone":"0932-266333","owner":"林文彬","start":"20190101","end":"20201231"},{"name":"財團法人伊甸社會福利基金會宜蘭分事務所(大同茂安站)","code":"BD1700012","type":"BD","city":"10002","town":"10002110","addr":"宜蘭縣大同鄉茂安村泰雅路5段70號","lng":121.451569,"lat":24.531767,"abc":"C","service":"巷弄長照站","zones":["10002110"],"phone":"03-9809388","owner":"成亮","start":"20190101","end":"20201231"},{"name":"財團法人台灣基督長老教會泰雅爾中會比雅楠教會(南山文化健康站)","code":"BD1700015","type":"BD","city":"10002","town":"10002110","addr":"宜蘭縣大同鄉南山村泰雅路7段235號","lng":121.378967,"lat":24.438271,"abc":"C","service":"巷弄長照站","zones":["10002110"],"phone":"03-9809928","owner":"余潔靈","start":"20190101","end":"20211231"},{"name":"財團法人天主教靈醫會(南澳武塔站)","code":"BD1700017","type":"BD","city":"10002","town":"10002120","addr":"宜蘭縣南澳鄉武塔村新溪路溫泉巷2-1號","lng":121.777443,"lat":24.444206,"abc":"C","service":"巷弄長照站","zones":["10002120"],"phone":"03-9981059","owner":"呂若瑟","start":"20190101","end":"20201231"},{"name":"宜蘭縣門諾漾文化推展協會(樂水文化健康站)","code":"BF1700085","type":"BF","city":"10002","town":"10002110","addr":"宜蘭縣大同鄉樂水村碼崙路59號","lng":121.530548,"lat":24.599493,"abc":"C","service":"巷弄長照站","zones":["10002110"],"phone":"03-9801559","owner":"張朝松","start":"20190224","end":"20211231"},{"name":"宜蘭縣大同鄉松羅社區發展協會(松羅文化健康站)","code":"BF1700086","type":"BF","city":"10002","town":"10002110","addr":"宜蘭縣大同鄉松羅村南巷81-10號","lng":121.578995,"lat":24.656118,"abc":"C","service":"巷弄長照站","zones":["10002110"],"phone":"03-9801295","owner":"王漢明","start":"20190101","end":"20211231"},{"name":"宜蘭縣金岳社區發展協會(金岳文化健康站)","code":"BF1700087","type":"BF","city":"10002","town":"10002120","addr":"宜蘭縣南澳鄉金岳村金岳路12號","lng":121.776344,"lat":24.47093,"abc":"C","service":"巷弄長照站","zones":["10002120"],"phone":"03-9981262","owner":"陳芃伶","start":"20190101","end":"20211231"},{"name":"宜蘭縣艮樣原住民部落永續發展協會(金洋文化健康站)","code":"BF1700088","type":"BF","city":"10002","town":"10002120","addr":"宜蘭縣南澳鄉金洋村金洋路9號","lng":121.749901,"lat":24.425966,"abc":"C","service":"巷弄長照站","zones":["10002120"],"phone":"03-9982771","owner":"劉嘉雯","start":"20190101","end":"20211231"},{"name":"宜蘭縣大同鄉英士社區發展協會(英士文化健康站)","code":"BF1700089","type":"BF","city":"10002","town":"10002110","addr":"宜蘭縣大同鄉英士村梵梵6鄰90之5號","lng":121.525185,"lat":24.612837,"abc":"C","service":"巷弄長照站","zones":["10002110"],"phone":"03-9801311","owner":"黃天金","start":"20190101","end":"20211231"},{"name":"宜蘭縣楓溪原住民永續促進協會(澳花文化健康站)","code":"BF1700092","type":"BF","city":"10002","town":"10002120","addr":"宜蘭縣南澳鄉澳花村中央路18-2號","lng":121.740433,"lat":24.330631,"abc":"C","service":"巷弄長照站","zones":["10002120"],"phone":"03-9985168","owner":"吳國政","start":"20190101","end":"20211231"},{"name":"宜蘭縣門諾漾文化推展協會","code":"BF1700102","type":"BF","city":"10002","town":"10002110","addr":"宜蘭縣大同鄉樂水村東壘路21號","lng":121.53093,"lat":24.604382,"abc":"B","service":"營養餐飲服務","zones":["10002110"],"phone":"","owner":"張朝松","start":"20200101","end":"20201231"},{"name":"有限責任宜蘭縣無過生活社區合作社","code":"BF1700103","type":"BF","city":"10002","town":"10002070","addr":"宜蘭縣員山鄉金山東路295巷42弄8號","lng":121.720406,"lat":24.738155,"abc":"B","service":"營養餐飲服務","zones":["10002020","10002080","10002100"],"phone":"9230589","owner":"熊國筌","start":"20200101","end":"20201231"},{"name":"天主教靈醫會醫療財團法人附設私立聖母樂活社區長照機構","code":"2S1700007","type":"2","city":"10002","town":"10002020","addr":"宜蘭縣羅東鎮中正南路160號","lng":121.770714,"lat":24.671434,"abc":"B","service":"日間照顧服務(BB)","zones":["10002010","10002020","10002030","10002040","10002050","10002060","10002070","10002080","10002090","10002100","10002110","10002120"],"phone":"9544106-8120、8121","owner":"黃浩然","start":"20200101","end":"20261231"},{"name":"宜蘭縣冬山鄉衛生所社區長照機構日照中心","code":"2G1700001","type":"2","city":"10002","town":"10002080","addr":"宜蘭縣冬山鄉冬山村中正路16號3樓","lng":121.791519,"lat":24.636148,"abc":"B","service":"日間照顧服務(BB)","zones":["10002010","10002020","10002030","10002040","10002050","10002060","10002070","10002080","10002090","10002100","10002110","10002120"],"phone":"9595645","owner":"馮靜芬","start":"20200101","end":"20261231"},{"name":"天主教靈醫會醫療財團法人附設私立聖母樂智社區長照機構","code":"2S1700006","type":"2","city":"10002","town":"10002020","addr":"宜蘭縣羅東鎮成功里中正南路160號","lng":121.770714,"lat":24.671434,"abc":"B","service":"日間照顧服務(BB)","zones":["10002010","10002020","10002030","10002040","10002050","10002060","10002070","10002080","10002090","10002100","10002110","10002120"],"phone":"9544106-8754","owner":"黃浩然","start":"20200101","end":"20261231"},{"name":"財團法人天主教白永恩神父社會福利基金會附設宜蘭縣私立聖方濟老人長期照顧中心(養護型)","code":"A11700036","type":"A1","city":"10002","town":"10002040","addr":"宜蘭縣頭城鎮開蘭東路1之1號2~5樓","lng":121.823204,"lat":24.854071,"abc":"B","service":"營養餐飲服務","zones":["10002040"],"phone":"03-9771132","owner":"王承前","start":"20200101","end":"20201231","beds":40,"residents":36},{"name":"財團法人台灣基督長老教會泰雅爾中會寒溪教會","code":"BD1700014","type":"BD","city":"10002","town":"10002110","addr":"宜蘭縣大同鄉寒溪村寒溪巷55-5號","lng":121.688713,"lat":24.610344,"abc":"C","service":"巷弄長照站","zones":["10002110"],"phone":"03-9517460","owner":"張梅丹","start":"20190101","end":"20201231"},{"name":"天主教靈醫會醫療財團法人羅東聖母醫院宜蘭縣大同鄉四季文化健康站","code":"BD1700013","type":"BD","city":"10002","town":"10002110","addr":"宜蘭縣大同鄉四季村和勳巷20號","lng":121.426849,"lat":24.486746,"abc":"C","service":"巷弄長照站","zones":["10002110"],"phone":"03-9544106#5237","owner":"蔡美玲","start":"20190101","end":"20211231"},{"name":"財團法人台灣基督長老教會泰雅爾中會碧候教會(碧候文化健康站)","code":"BD1700016","type":"BD","city":"10002","town":"10002120","addr":"宜蘭縣南澳鄉碧候村陽明巷53-1號","lng":121.78717,"lat":24.474268,"abc":"C","service":"巷弄長照站","zones":["10002120"],"phone":"03-9982497","owner":"王平安","start":"20190101","end":"20211231"},{"name":"天主教靈醫會醫療財團法人羅東聖母醫院","code":"B21700020","type":"B2","city":"10002","town":"10002020","addr":"宜蘭縣羅東鎮中正南路160號","lng":121.770714,"lat":24.671434,"abc":"B","service":"營養餐飲服務","zones":["10002020","10002080","10002100"],"phone":"03-9544106","owner":"馬漢光","start":"20200101","end":"20211231"},{"name":"吳震世診所","code":"B21700043","type":"B2","city":"10002","town":"10002050","addr":"宜蘭縣礁溪鄉大忠村中山路一段99號","lng":121.769943,"lat":24.819195,"abc":"B","service":"居家失能個案家庭醫師照護服務","zones":["10002050"],"phone":"03-9871268","owner":"吳震世","start":"20190901","end":"20261231"},{"name":"A級單位-維揚診所","code":"B21700019","type":"B2","city":"10002","town":"10002020","addr":"宜蘭縣羅東鎮羅東中山路4段11巷6號","lng":121.76313,"lat":24.673903,"abc":"B","service":"居家失能個案家庭醫師照護服務","zones":["10002020","10002030","10002080","10002090","10002100","10002110","10002120"],"phone":"03-9510299","owner":"陳英詔","start":"20210101","end":"20261231"},{"name":"聖路加診所","code":"B21700033","type":"B2","city":"10002","town":"10002100","addr":"宜蘭縣三星鄉義德村2鄰三星路五段49號","lng":121.651535,"lat":24.665888,"abc":"B","service":"居家失能個案家庭醫師照護服務","zones":["10002080","10002100","10002110"],"phone":"03-9895028","owner":"陳文萃","start":"20191107","end":"20261231"},{"name":"心安診所","code":"B21700047","type":"B2","city":"10002","town":"10002070","addr":"宜蘭縣員山鄉員山路一段302號","lng":121.724037,"lat":24.743799,"abc":"B","service":"居家失能個案家庭醫師照護服務","zones":["10002010","10002040","10002050","10002060","10002070","10002090","10002100","10002110"],"phone":"03-9232878","owner":"簡志弘","start":"20191107","end":"20261231"},{"name":"王維昌診所","code":"B21700030","type":"B2","city":"10002","town":"10002020","addr":"宜蘭縣羅東鎮公正路167-3號","lng":121.768204,"lat":24.678926,"abc":"B","service":"居家失能個案家庭醫師照護服務","zones":["10002020","10002080","10002090"],"phone":"039566512","owner":"王維昌","start":"20210101","end":"20261231"},{"name":"愛德仁診所","code":"B21700032","type":"B2","city":"10002","town":"10002060","addr":"宜蘭縣壯圍鄉吉祥村壯五路68之5號1樓","lng":121.790108,"lat":24.744682,"abc":"B","service":"居家失能個案家庭醫師照護服務","zones":["10002060"],"phone":"03-9372614","owner":"劉建廷","start":"20210101","end":"20261231"},{"name":"開蘭安心診所","code":"B21700048","type":"B2","city":"10002","town":"10002010","addr":"宜蘭縣宜蘭市神農路一段97號","lng":121.750061,"lat":24.749294,"abc":"B","service":"居家失能個案家庭醫師照護服務","zones":["10002010"],"phone":"03-9311230","owner":"陳玫君","start":"20200304","end":"20261231"},{"name":"宜蘭員山醫療財團法人普門診所","code":"B21700022","type":"B2","city":"10002","town":"10002010","addr":"宜蘭縣宜蘭市文化里神農路1段87號","lng":121.749969,"lat":24.748899,"abc":"B","service":"居家失能個案家庭醫師照護服務","zones":["10002010"],"phone":"03-9327777","owner":"蘇俊雄","start":"20200304","end":"20261231"},{"name":"簡世霖復健科診所","code":"B21700024","type":"B2","city":"10002","town":"10002020","addr":"宜蘭縣羅東鎮大新里倉前路77-7號","lng":121.774139,"lat":24.680265,"abc":"B","service":"居家失能個案家庭醫師照護服務","zones":["10002020"],"phone":"03-9566619","owner":"簡世霖","start":"20200304","end":"20261231"},{"name":"財團法人宜蘭縣私立懷哲復康之家","code":"A21700001","type":"A2","city":"10002","town":"10002100","addr":"宜蘭縣三星鄉大隱村大隱五路295號","lng":121.71225,"lat":24.659002,"abc":"B","service":"喘息服務","zones":["10002010","10002020","10002030","10002040","10002050","10002060","10002070","10002080","10002090","10002100","10002110","10002120"],"phone":"03-9897135","owner":"陳游介","start":"20190901","end":"20211231","residents":171},{"name":"A級單位-財團法人弘道老人福利基金會","code":"BD1700030","type":"BD","city":"10002","town":"10002090","addr":"宜蘭縣五結鄉中正路二段7巷5號","lng":121.769073,"lat":24.693491,"abc":"A","service":"個案管理服務","zones":["10002040","10002090"],"phone":"03-9055003","owner":"王乃弘","start":"20220101","end":"20270331"},{"name":"宜蘭縣私立合家歡社區長照機構","code":"2X1700003","type":"2","city":"10002","town":"10002020","addr":"宜蘭縣羅東鎮漢民里忠孝路50號","lng":121.764915,"lat":24.676125,"abc":"B","service":"團體家屋服務","zones":["10002010"],"phone":"9561688","owner":"林春秀","start":"20200101","end":"20240331"},{"name":"吳震世診所","code":"B21700043","type":"B2","city":"10002","town":"10002050","addr":"宜蘭縣礁溪鄉大忠村中山路一段99號","lng":121.769943,"lat":24.819195,"abc":"B","service":"營養餐飲服務","zones":["10002050"],"phone":"03-9871268","owner":"吳震世","start":"20200325","end":"20201231"},{"name":"財團法人宜蘭縣私立佳恩老人長期照顧中心(養護型)","code":"A11700024","type":"A1","city":"10002","town":"10002010","addr":"宜蘭縣宜蘭市舊城北路177號","lng":121.751793,"lat":24.760456,"abc":"B","service":"營養餐飲服務","zones":["10002010","10002070"],"phone":"03-9354176","owner":"許東豐","start":"20200101","end":"20201231","beds":88,"residents":20},{"name":"生通股份有限公司","code":"BF1700093","type":"BA","city":"10002","town":"10002010","addr":"宜蘭縣宜蘭市大坡路一段237號","lng":121.749893,"lat":24.77269,"abc":"B","service":"社區式交通接送服務(BD03)","zones":["10002010","10002020","10002030","10002040","10002050","10002060","10002070","10002080","10002090","10002100"],"phone":"03-9305950","owner":"陳金棍","start":"20200101","end":"20270331"},{"name":"財團法人宜蘭縣私立力麗社會福利慈善事業基金會附設宜蘭縣私立力麗社區式服務類長期照顧服務機構","code":"2S1700002","type":"2","city":"10002","town":"10002090","addr":"宜蘭縣五結鄉中正路三段21號1樓","lng":121.770958,"lat":24.7082,"abc":"B","service":"喘息服務","zones":["10002010","10002020","10002030","10002040","10002050","10002060","10002070","10002080","10002090","10002100","10002110","10002120"],"phone":"03-9650736#106","owner":"郭銓慶","start":"20220101","end":"20251231"},{"name":"社團法人宜蘭縣社區照顧促進會附設宜蘭縣私立居家式服務類長期照顧服務機構","code":"1R1700001","type":"1","city":"10002","town":"10002060","addr":"宜蘭縣壯圍鄉中央路二段232號","lng":121.786163,"lat":24.745111,"abc":"B","service":"喘息服務","zones":["10002010","10002050","10002060"],"phone":"03-9381371#38","owner":"林文明","start":"20220101","end":"20230331"},{"name":"信義計程汽車有限公司","code":"BA1700003","type":"BA","city":"10002","town":"10002050","addr":"宜蘭縣礁溪鄉礁溪路一段173號1樓","lng":121.761528,"lat":24.788391,"abc":"B","service":"交通接送服務","zones":["10015010","10015020","10015040","10015050","10015060","10015110"],"phone":"0227635888","owner":"李浩銅","start":"20210601","end":"20221231"},{"name":"宜蘭縣崗給原住民永續發展協會(羅東鎮都會型文化健康站)","code":"BF1700109","type":"BF","city":"10002","town":"10002020","addr":"宜蘭縣羅東鎮國華里光華街15號","lng":121.759171,"lat":24.67757,"abc":"C","service":"巷弄長照站","zones":["10002020"],"phone":"0938-056536","owner":"宋聖君","start":"20190101","end":"20211231"},{"name":"財團法人伊甸社會福利基金會","code":"BD1700022","type":"BD","city":"10002","town":"10002010","addr":"宜蘭縣宜蘭市東港路二段60號2樓","lng":121.769676,"lat":24.751205,"abc":"B","service":"營養餐飲服務","zones":["10002030","10002040","10002050","10002060","10002110"],"phone":"03-9333575","owner":"陳宇昭","start":"20200526","end":"20210331"},{"name":"宜蘭縣司達吉斯部落產業永續發展協會","code":"BF1700110","type":"BF","city":"10002","town":"10002110","addr":"宜蘭縣大同鄉寒溪村寒溪巷55-5號","lng":121.688713,"lat":24.610344,"abc":"B","service":"營養餐飲服務","zones":["10002110"],"phone":"03-9517460","owner":"李美雲","start":"20200522","end":"20210331"},{"name":"社團法人宜蘭縣和馨家庭照顧者關懷協會附設私立社區長照機構","code":"2N1700004","type":"2","city":"10002","town":"10002020","addr":"宜蘭縣羅東鎮純精路三段266號3F","lng":121.766525,"lat":24.684574,"abc":"B","service":"日間照顧服務(BB)","zones":["10002010","10002020","10002030","10002040","10002050","10002060","10002070","10002080","10002090","10002100","10002110","10002120"],"phone":"9551353","owner":"李茂偉","start":"20200101","end":"20241231"},{"name":"財團法人天主教靈醫會附設宜蘭縣私立聖若瑟社區長照機構","code":"2S1700008","type":"2","city":"10002","town":"10002120","addr":"宜蘭縣南澳鄉南澳村中正路37號","lng":121.798828,"lat":24.4673,"abc":"B","service":"日間照顧服務(BB)","zones":["10002010","10002020","10002030","10002040","10002050","10002060","10002070","10002080","10002090","10002100","10002110","10002120"],"phone":"(03)9982899","owner":"黃浩然","start":"20200422","end":"20261231"},{"name":"泰安企業附設宜蘭縣私立泰安社區長照機構","code":"2N1700003","type":"2","city":"10002","town":"10002010","addr":"宜蘭縣宜蘭市泰山路360號","lng":121.734978,"lat":24.749855,"abc":"B","service":"小規模多機能服務","zones":["10002010","10002020","10002030","10002040","10002050","10002060","10002070","10002080","10002090","10002100","10002110","10002120"],"phone":"03-9369569","owner":"游竣淳","start":"20260101","end":"20261231"},{"name":"宜蘭縣頭城鎮衛生所附設社區長照機構","code":"2C1700002","type":"2","city":"10002","town":"10002040","addr":"宜蘭縣頭城鎮新興路302號3樓","lng":121.820412,"lat":24.856859,"abc":"B","service":"日間照顧服務(BB)","zones":["10002010","10002020","10002030","10002040","10002050","10002060","10002070","10002080","10002090","10002100","10002110","10002120"],"phone":"03-9779827","owner":"陳麗秋","start":"20260101","end":"20261231"},{"name":"宜蘭縣私立如心社區長照機構","code":"2X1700004","type":"2","city":"10002","town":"10002050","addr":"宜蘭縣礁溪鄉礁溪路4段101號1樓","lng":121.76899,"lat":24.819931,"abc":"B","service":"日間照顧服務(BB)","zones":["10002010","10002020","10002030","10002040","10002050","10002060","10002070","10002080","10002090","10002100","10002110","10002120"],"phone":"03-9888117","owner":"黃郁心","start":"20260101","end":"20261231"},{"name":"財團法人弘道老人福利基金會(五結四結站)","code":"BD1700032","type":"BD","city":"10002","town":"10002090","addr":"宜蘭縣五結鄉中興村中里路60號","lng":121.775589,"lat":24.694731,"abc":"C","service":"巷弄長照站","zones":["10002090"],"phone":"03-9641823","owner":"王乃弘","start":"20190101","end":"20201231"},{"name":"宜蘭縣五結鄉中興社區發展協會","code":"BF1700112","type":"BF","city":"10002","town":"10002090","addr":"宜蘭縣五結鄉中興村中興路三段308號","lng":121.774689,"lat":24.692963,"abc":"C","service":"巷弄長照站","zones":["10002090"],"phone":"0937-522093","owner":"吳正騫","start":"20200101","end":"20201231"},{"name":"宜蘭縣五結鄉上四社區發展協會","code":"BF1700113","type":"BF","city":"10002","town":"10002090","addr":"宜蘭縣五結鄉上四村福德路97號","lng":121.76622,"lat":24.700949,"abc":"C","service":"巷弄長照站","zones":["10002090"],"phone":"0919-313568","owner":"林證梧","start":"20200101","end":"20201231"},{"name":"宜蘭縣五結鄉利澤社區發展協會","code":"BF1700114","type":"BF","city":"10002","town":"10002090","addr":"宜蘭縣五結鄉利澤村下福路156號","lng":121.823814,"lat":24.664925,"abc":"C","service":"巷弄長照站","zones":["10002090"],"phone":"0973-520855","owner":"李弘增","start":"20200101","end":"20201231"},{"name":"宜蘭縣五結鄉季新社區發展協會","code":"BF1700115","type":"BF","city":"10002","town":"10002090","addr":"宜蘭縣五結鄉季新村季水路北巷6-3號","lng":121.831902,"lat":24.676811,"abc":"C","service":"巷弄長照站","zones":["10002090"],"phone":"0932-090388","owner":"林士鴻","start":"20200101","end":"20201231"},{"name":"財團法人中華民國佛教慈濟慈善事業基金會(五結福興站)","code":"BD1700033","type":"BD","city":"10002","town":"10002090","addr":"宜蘭縣五結鄉福興村五結路三段360號","lng":121.785408,"lat":24.683508,"abc":"C","service":"巷弄長照站","zones":["10002090"],"phone":"03-8266779","owner":"釋證嚴","start":"20190701","end":"20201231"},{"name":"宜蘭縣冬山鄉柯林社區發展協會","code":"BF1700117","type":"BF","city":"10002","town":"10002080","addr":"宜蘭縣冬山鄉柯林村光華路209號","lng":121.729874,"lat":24.676559,"abc":"C","service":"巷弄長照站","zones":["10002080"],"phone":"0937-910148","owner":"陳文生","start":"20190101","end":"20201231"},{"name":"大進廟","code":"BF1700118","type":"BF","city":"10002","town":"10002080","addr":"宜蘭縣冬山鄉東城村冬山路一段1號","lng":121.811455,"lat":24.615067,"abc":"C","service":"巷弄長照站","zones":["10002080"],"phone":"0937-454672","owner":"梅春輝","start":"20200101","end":"20201231"},{"name":"宜蘭縣壯圍鄉美城社區發展協會","code":"BF1700119","type":"BF","city":"10002","town":"10002060","addr":"宜蘭縣壯圍鄉美城村永美路二段121號","lng":121.788925,"lat":24.777361,"abc":"C","service":"巷弄長照站","zones":["10002060"],"phone":"03-9308897","owner":"曾石旺","start":"20200101","end":"20201231"},{"name":"財團法人一粒麥子社會福利慈善事業基金會(崙埤社區照顧關懷據點)","code":"BD1700034","type":"BD","city":"10002","town":"10002110","addr":"宜蘭縣大同鄉崙埤村朝陽巷 9 號","lng":121.60833,"lat":24.677612,"abc":"C","service":"巷弄長照站","zones":["10002110"],"phone":"03-9253688","owner":"呂信雄","start":"20190101","end":"20201231"},{"name":"宜蘭市黎明社區發展協會","code":"BF1700124","type":"BF","city":"10002","town":"10002010","addr":"宜蘭縣宜蘭市黎明里黎明路326號","lng":121.775986,"lat":24.744022,"abc":"C","service":"巷弄長照站","zones":["10002010"],"phone":"03-9380583","owner":"朱照雄","start":"20190101","end":"20201231"},{"name":"社團法人宜蘭縣蘇澳鎮港邊社區發展協會","code":"BE1700008","type":"BE","city":"10002","town":"10002030","addr":"宜蘭縣蘇澳鎮港邊里蘇濱路一段196號","lng":121.852921,"lat":24.612246,"abc":"C","service":"巷弄長照站","zones":["10002030"],"phone":"0935-618793","owner":"余正福","start":"20190101","end":"20201231"},{"name":"宜蘭縣蘇澳鎮福德長壽協會","code":"BF1700127","type":"BF","city":"10002","town":"10002030","addr":"宜蘭縣蘇澳鎮永榮里永愛路162號","lng":121.837326,"lat":24.619802,"abc":"C","service":"巷弄長照站","zones":["10002030"],"phone":"03-9908162","owner":"劉溪泉","start":"20200101","end":"20201231"},{"name":"社團法人宜蘭縣冬山鄉珍珠社區發展協會","code":"BE1700007","type":"BE","city":"10002","town":"10002080","addr":"宜蘭縣冬山鄉珍珠村幸福二路73號","lng":121.784561,"lat":24.651957,"abc":"C","service":"巷弄長照站","zones":["10002080"],"phone":"0933-245058","owner":"林文慶","start":"20200101","end":"20201231"},{"name":"宜蘭縣壯圍鄉美福社區發展協會","code":"BF1700120","type":"BF","city":"10002","town":"10002060","addr":"宜蘭縣壯圍鄉美福村美福路三段92巷6號","lng":121.780594,"lat":24.725224,"abc":"C","service":"巷弄長照站","zones":["10002060"],"phone":"03-9255628","owner":"李玉田","start":"20200101","end":"20201231"},{"name":"宜蘭縣宜蘭市東園社區發展協會","code":"BF1700123","type":"BF","city":"10002","town":"10002010","addr":"宜蘭縣宜蘭市菜園里崇聖街192號","lng":121.756416,"lat":24.759441,"abc":"C","service":"巷弄長照站","zones":["10002010"],"phone":"03-9320883","owner":"簡茂隆","start":"20200101","end":"20201231"},{"name":"宜蘭市東村社區發展協會","code":"BF1700098","type":"BF","city":"10002","town":"10002010","addr":"宜蘭縣宜蘭市東村里女中路一段148號","lng":121.764404,"lat":24.748343,"abc":"C","service":"巷弄長照站","zones":["10002010"],"phone":"0960-635995","owner":"林讚生","start":"20190101","end":"20201231"},{"name":"宜蘭縣宜蘭市成功社區發展協會","code":"BF1700125","type":"BF","city":"10002","town":"10002010","addr":"宜蘭縣宜蘭市成功里東港路二段342巷8弄10號","lng":121.764503,"lat":24.753736,"abc":"C","service":"巷弄長照站","zones":["10002010"],"phone":"0916-202666","owner":"張文城","start":"20200401","end":"20201231"},{"name":"財團法人感恩社會福利慈善基金會","code":"BD1700021","type":"BD","city":"10002","town":"10002020","addr":"宜蘭縣羅東鎮維揚里維揚路132號","lng":121.759727,"lat":24.672077,"abc":"C","service":"巷弄長照站","zones":["10002020"],"phone":"951-0789","owner":"陳炳堯","start":"20190101","end":"20201231"},{"name":"宜蘭縣北投社文化發展協會","code":"BF1700126","type":"BF","city":"10002","town":"10002020","addr":"宜蘭縣羅東鎮北成里北投街62巷65號","lng":121.751724,"lat":24.674074,"abc":"C","service":"巷弄長照站","zones":["10002020"],"phone":"0952-999796","owner":"羅正雄","start":"20190101","end":"20201231"},{"name":"羅東鎮勉民堂","code":"BF1700128","type":"BF","city":"10002","town":"10002020","addr":"宜蘭縣羅東鎮中山里中山路三段190號","lng":121.770264,"lat":24.674938,"abc":"C","service":"巷弄長照站","zones":["10002020"],"phone":"0933-715606","owner":"葉保添","start":"20200401","end":"20201231"},{"name":"宜蘭縣蘇澳鎮南強社區發展協會","code":"BF1700105","type":"BF","city":"10002","town":"10002030","addr":"宜蘭縣蘇澳鎮南強里南澳路2-6號","lng":121.806511,"lat":24.463428,"abc":"C","service":"巷弄長照站","zones":["10002030"],"phone":"0912-920226","owner":"張興仁","start":"20190101","end":"20201231"},{"name":"財團法人弘道老人福利基金會(頭城拔雅站)","code":"BD1700028","type":"BD","city":"10002","town":"10002040","addr":"宜蘭縣頭城鎮拔雅里復興路12巷2號","lng":121.816566,"lat":24.861151,"abc":"C","service":"巷弄長照站","zones":["10002040"],"phone":"03-9055003","owner":"王乃弘","start":"20190101","end":"20201231"},{"name":"宜蘭縣頭城鎮城東社區發展協會","code":"BF1700129","type":"BF","city":"10002","town":"10002040","addr":"宜蘭縣頭城鎮城東里開蘭舊路6號","lng":121.824974,"lat":24.859148,"abc":"C","service":"巷弄長照站","zones":["10002040"],"phone":"0933-772108","owner":"黃志安","start":"20200101","end":"20201231"},{"name":"社團法人宜蘭縣蘇澳鎮白米社區發展協會","code":"BE1700009","type":"BE","city":"10002","town":"10002030","addr":"宜蘭縣蘇澳鎮永春里永春路134巷11芝1號","lng":121.845627,"lat":24.583078,"abc":"C","service":"巷弄長照站","zones":["10002030"],"phone":"0928-531607","owner":"鄒金玉","start":"20190101","end":"20201231"},{"name":"財團法人台灣基督長老教會泰雅爾中會寒溪教會(寒溪文化健康站)","code":"BD1700035","type":"BD","city":"10002","town":"10002110","addr":"宜蘭縣大同鄉寒溪村寒溪巷55-5號","lng":121.688713,"lat":24.610344,"abc":"C","service":"巷弄長照站","zones":["10002110"],"phone":"03-9517460","owner":"周慧珊","start":"20190101","end":"20211231"},{"name":"宜蘭縣南澳鄉東岳社區發展協會(東岳文化健康站)","code":"BF1700091","type":"BF","city":"10002","town":"10002120","addr":"宜蘭縣南澳鄉東岳村蘇花路3段139巷8弄7號","lng":121.831528,"lat":24.519703,"abc":"C","service":"巷弄長照站","zones":["10002120"],"phone":"03-9986195","owner":"江欣怡","start":"20190101","end":"20211231"},{"name":"宜蘭縣崗給原住民永續發展協會(寒溪站)","code":"BF1700121","type":"BF","city":"10002","town":"10002110","addr":"宜蘭縣大同鄉寒溪村寒溪巷70號","lng":121.690338,"lat":24.608957,"abc":"C","service":"巷弄長照站","zones":["10002110"],"phone":"0938-056536","owner":"宋聖君","start":"20190101","end":"20201231"},{"name":"宜蘭縣私立合家歡社區長照機構","code":"2X1700003","type":"2","city":"10002","town":"10002020","addr":"宜蘭縣羅東鎮漢民里忠孝路50號","lng":121.764915,"lat":24.676125,"abc":"B","service":"日間照顧服務(BB)","zones":["10002010","10002020","10002030","10002040","10002050","10002060","10002070","10002080","10002090","10002100","10002110","10002120"],"phone":"9561688","owner":"林春秀","start":"20260101","end":"20261231"},{"name":"A級單位-吳震世診所","code":"B21700052","type":"B2","city":"10002","town":"10002050","addr":"宜蘭縣礁溪鄉中山路一段99號","lng":121.769943,"lat":24.819195,"abc":"A","service":"個案管理服務","zones":["10002050"],"phone":"03-9871268","owner":"吳震世","start":"20220101","end":"20270331"},{"name":"吳震世診所","code":"B21700043","type":"B2","city":"10002","town":"10002050","addr":"宜蘭縣礁溪鄉大忠村中山路一段99號","lng":121.769943,"lat":24.819195,"abc":"C","service":"巷弄長照站","zones":["10002050"],"phone":"03-9871268","owner":"吳震世","start":"20201001","end":"20211231"},{"name":"財團法人宜蘭縣私立蘭陽仁愛之家","code":"A11700042","type":"A1","city":"10002","town":"10002050","addr":"宜蘭縣礁溪鄉龍潭村龍泉路31號","lng":121.743263,"lat":24.783531,"abc":"C","service":"巷弄長照站","zones":["10002050"],"phone":"03-9283880","owner":"吳素真","start":"20201001","end":"20270331","beds":60,"residents":26},{"name":"國立陽明交通大學附設醫院社區長照機構","code":"2G1700002","type":"2","city":"10002","town":"10002010","addr":"宜蘭縣宜蘭市新民路152號","lng":121.754028,"lat":24.757853,"abc":"B","service":"小規模多機能服務","zones":["10002010","10002020","10002030","10002040","10002050","10002060","10002070","10002080","10002090","10002100","10002110","10002120"],"phone":"03-9325192","owner":"黃志賢","start":"20260101","end":"20261231"},{"name":"老福泰銀髮服務股份有限公司附設宜蘭縣私立老福泰社區長照機構","code":"2V1700002","type":"2","city":"10002","town":"10002020","addr":"宜蘭縣羅東鎮純精路三段266號4樓","lng":121.766525,"lat":24.684574,"abc":"B","service":"日間照顧服務(BB)","zones":["10002010","10002020","10002030","10002040","10002050","10002060","10002070","10002080","10002090","10002100","10002110","10002120"],"phone":"03-9565686","owner":"吳之塋","start":"20200825","end":"20261231"},{"name":"泰安企業附設宜蘭縣私立泰安社區長照機構","code":"2N1700003","type":"2","city":"10002","town":"10002010","addr":"宜蘭縣宜蘭市泰山路360號","lng":121.734978,"lat":24.749855,"abc":"B","service":"喘息服務","zones":["10002010","10002020","10002030","10002040","10002050","10002060","10002070","10002080","10002090","10002100","10002110","10002120"],"phone":"03-9369569","owner":"游竣淳","start":"20200715","end":"20241231"},{"name":"宜蘭縣礁溪鄉衛生所","code":"B21700005","type":"B2","city":"10002","town":"10002050","addr":"宜蘭縣礁溪鄉大忠村礁溪路4段126號B1","lng":121.769608,"lat":24.820808,"abc":"B","service":"社區式交通接送服務(BD03)","zones":["10002050"],"phone":"03-9882908","owner":"曾俐燕","start":"20200324","end":"20270331"},{"name":"衛生福利部社會及家庭署宜蘭教養院","code":"A21700009","type":"A2","city":"10002","town":"10002100","addr":"宜蘭縣三星鄉大洲村五分路二段60號","lng":121.733276,"lat":24.694555,"abc":"B","service":"日間照顧服務(BB)","zones":["10002010","10002020","10002030","10002040","10002050","10002060","10002070","10002080","10002090","10002100","10002110","10002120"],"phone":"03-9575254-1111","owner":"陳宇昭","start":"20200101","end":"20261231","beds":20,"residents":194},{"name":"宜蘭縣宜蘭市衛生所","code":"B21700010","type":"B2","city":"10002","town":"10002010","addr":"宜蘭縣宜蘭市健康路2段2-2號","lng":121.752243,"lat":24.745852,"abc":"B","service":"社區式交通接送服務(BD03)","zones":["10002010"],"phone":"03-9322362-29","owner":"李健源","start":"20200701","end":"20270331"},{"name":"宜蘭縣壯圍鄉衛生所","code":"B21700008","type":"B2","city":"10002","town":"10002060","addr":"宜蘭縣壯圍鄉吉祥村中央路2段290號","lng":121.786469,"lat":24.740366,"abc":"B","service":"社區式交通接送服務(BD03)","zones":["10002060"],"phone":"03-9385503","owner":"郭淑珠","start":"20200101","end":"20270331"},{"name":"財團法人伊甸社會福利基金會","code":"BD1700022","type":"BD","city":"10002","town":"10002010","addr":"宜蘭縣宜蘭市東港路二段60號2樓","lng":121.769676,"lat":24.751205,"abc":"B","service":"社區式交通接送服務(BD03)","zones":["10002110"],"phone":"03-9333575","owner":"陳宇昭","start":"20200601","end":"20270331"},{"name":"宜蘭縣員山鄉衛生所","code":"B21700004","type":"B2","city":"10002","town":"10002070","addr":"宜蘭縣員山鄉員山村復興路2號","lng":121.724319,"lat":24.744419,"abc":"B","service":"社區式交通接送服務(BD03)","zones":["10002070"],"phone":"03-9221575","owner":"吳佩芩","start":"20200101","end":"20270331"},{"name":"宜蘭縣頭城鎮衛生所","code":"B21700002","type":"B2","city":"10002","town":"10002040","addr":"宜蘭縣頭城鎮石城里吉祥路15號","lng":121.82048,"lat":24.856726,"abc":"B","service":"社區式交通接送服務(BD03)","zones":["10002040"],"phone":"03-9771034","owner":"王　曉","start":"20200101","end":"20270331"},{"name":"宜蘭縣羅東鎮衛生所","code":"B21700011","type":"B2","city":"10002","town":"10002020","addr":"宜蘭縣羅東鎮賢文里民生路79號","lng":121.766968,"lat":24.677534,"abc":"B","service":"社區式交通接送服務(BD03)","zones":["10002020"],"phone":"03-9542321","owner":"徐國祐","start":"20200101","end":"20270331"},{"name":"宜蘭縣三星鄉衛生所","code":"B21700007","type":"B2","city":"10002","town":"10002100","addr":"宜蘭縣三星鄉義德村三星路5段70號","lng":121.651573,"lat":24.666132,"abc":"B","service":"社區式交通接送服務(BD03)","zones":["10002100"],"phone":"03-9892227","owner":"葉奕辰","start":"20200101","end":"20270331"},{"name":"宜蘭縣冬山鄉衛生所","code":"B21700003","type":"B2","city":"10002","town":"10002080","addr":"宜蘭縣冬山鄉冬山村中正路16號","lng":121.791542,"lat":24.636126,"abc":"B","service":"社區式交通接送服務(BD03)","zones":["10002080"],"phone":"03-594772","owner":"呂明斌","start":"20200101","end":"20270331"},{"name":"宜蘭縣五結鄉衛生所","code":"B21700012","type":"B2","city":"10002","town":"10002090","addr":"宜蘭縣五結鄉五結村五結路2段337號","lng":121.798904,"lat":24.68494,"abc":"B","service":"社區式交通接送服務(BD03)","zones":["10002090"],"phone":"03-9501564","owner":"鄒禪蔭","start":"20200101","end":"20270331"},{"name":"宜蘭縣蘇澳鎮衛生所","code":"B21700006","type":"B2","city":"10002","town":"10002030","addr":"宜蘭縣蘇澳鎮蘇西里志成路60號","lng":121.842346,"lat":24.593107,"abc":"B","service":"社區式交通接送服務(BD03)","zones":["10002030"],"phone":"03-9962185","owner":"鄒雙印","start":"20200501","end":"20270331"},{"name":"宜蘭縣南澳鄉衛生所","code":"B21700001","type":"B2","city":"10002","town":"10002120","addr":"宜蘭縣南澳鄉南澳村蘇花路2段375號","lng":121.803474,"lat":24.465767,"abc":"B","service":"社區式交通接送服務(BD03)","zones":["10002120"],"phone":"03-9981019","owner":"彭爾","start":"20201001","end":"20270331"},{"name":"宜蘭縣門諾漾文化推展協會(樂水文化健康站)","code":"BF1700085","type":"BF","city":"10002","town":"10002110","addr":"宜蘭縣大同鄉樂水村碼崙路59號","lng":121.530548,"lat":24.599493,"abc":"B","service":"社區式交通接送服務(BD03)","zones":["10002110"],"phone":"03-9801559","owner":"張朝松","start":"20200401","end":"20270331"},{"name":"宜蘭縣楓溪原住民永續促進協會(澳花文化健康站)","code":"BF1700092","type":"BF","city":"10002","town":"10002120","addr":"宜蘭縣南澳鄉澳花村中央路18-2號","lng":121.740433,"lat":24.330631,"abc":"B","service":"社區式交通接送服務(BD03)","zones":["10002120"],"phone":"03-9985168","owner":"吳國政","start":"20200901","end":"20270331"},{"name":"吳震世診所","code":"B21700043","type":"B2","city":"10002","town":"10002050","addr":"宜蘭縣礁溪鄉大忠村中山路一段99號","lng":121.769943,"lat":24.819195,"abc":"B","service":"交通接送服務(DA01)","zones":["10002010","10002040","10002050","10002060","10002070"],"phone":"03-9871268","owner":"吳震世","start":"20200601","end":"20261231"},{"name":"穩將交通有限公司","code":"BA1700001","type":"BA","city":"10002","town":"10002020","addr":"宜蘭縣羅東鎮羅莊里羅莊街301號","lng":121.78112,"lat":24.67053,"abc":"B","service":"交通接送服務(DA01)","zones":["10002010","10002020","10002030","10002040","10002050","10002060","10002070","10002080","10002090","10002100"],"phone":"9600600","owner":"陳書瑤","start":"20190101","end":"20261231"},{"name":"財團法人一粒麥子社會福利慈善事業基金會","code":"BD1700001","type":"BD","city":"10002","town":"10002010","addr":"宜蘭縣宜蘭市公園路497巷20號","lng":121.755951,"lat":24.741304,"abc":"B","service":"交通接送服務(DA01)","zones":["10002010","10002020","10002030","10002040","10002050","10002060","10002070","10002080","10002090","10002100","10002110"],"phone":"03-9253688","owner":"呂信雄","start":"20200101","end":"20261231"},{"name":"優倢居家有限公司附設宜蘭縣私立兆齡居家長照機構","code":"1V1700002","type":"1","city":"10002","town":"10002010","addr":"宜蘭縣宜蘭市民權里中山路二段233號2樓","lng":121.753288,"lat":24.750973,"abc":"B","service":"喘息服務","zones":["10002010","10002030","10002060","10002070"],"phone":"03-9330309","owner":"周伊伶","start":"20201224","end":"20230331"},{"name":"宜蘭縣樂齡長照服務協會附設宜蘭縣私立樂齡居家長照機構","code":"1N1700003","type":"1","city":"10002","town":"10002050","addr":"宜蘭縣礁溪鄉龍潭村龍潭路531號","lng":121.742691,"lat":24.778118,"abc":"B","service":"喘息服務","zones":["10002010","10002050","10002070"],"phone":"03-9322998","owner":"游閎武","start":"20201223","end":"20230331"},{"name":"宜蘭縣私立合家歡社區長照機構","code":"2X1700003","type":"2","city":"10002","town":"10002020","addr":"宜蘭縣羅東鎮漢民里忠孝路50號","lng":121.764915,"lat":24.676125,"abc":"B","service":"喘息服務","zones":["10002010","10002020","10002030","10002040","10002050","10002060","10002070","10002080","10002090","10002100","10002110","10002120"],"phone":"9561688","owner":"林春秀","start":"20220101","end":"20261231"},{"name":"A級單位-社團法人宜蘭縣社區照顧促進會","code":"BE1700001","type":"BE","city":"10002","town":"10002060","addr":"宜蘭縣壯圍鄉吉祥村中央路2段265號","lng":121.785912,"lat":24.745983,"abc":"B","service":"營養餐飲服務","zones":["10002090"],"phone":"03-9381371#21","owner":"林文明","start":"20200101","end":"20201231"},{"name":"駿德租賃有限公司","code":"BA1700004","type":"BA","city":"10002","town":"10002020","addr":"宜蘭縣羅東鎮四育路52號","lng":121.759941,"lat":24.677185,"abc":"B","service":"交通接送服務(DA01)","zones":["10002020","10002030","10002080","10002090","10002100"],"phone":"03-9611312","owner":"林育德","start":"20210101","end":"20261231"},{"name":"臺北榮民總醫院蘇澳分院","code":"B21700014","type":"B2","city":"10002","town":"10002030","addr":"宜蘭縣蘇澳鎮港邊里蘇濱路一段301號","lng":121.84861,"lat":24.614096,"abc":"B","service":"營養餐飲服務","zones":["10002030"],"phone":"03-9905106","owner":"熊夢平","start":"20190101","end":"20211231"},{"name":"財團法人宜蘭縣私立天主教弘道仁愛之家","code":"A11700062","type":"A1","city":"10002","town":"10002120","addr":"宜蘭縣南澳鄉澳花村蘇花路2段251號","lng":121.765747,"lat":24.329063,"abc":"B","service":"社區式交通接送服務(BD03)","zones":["10002120"],"phone":"03-9981059","owner":"黃浩然","start":"20210101","end":"20270331","beds":36,"residents":31},{"name":"財團法人宜蘭縣私立天主教弘道仁愛之家","code":"A11700062","type":"A1","city":"10002","town":"10002120","addr":"宜蘭縣南澳鄉澳花村蘇花路2段251號","lng":121.765747,"lat":24.329063,"abc":"B","service":"營養餐飲服務","zones":["10002030","10002120"],"phone":"03-9981059","owner":"黃浩然","start":"20190101","end":"20250331","beds":36,"residents":31},{"name":"信望愛診所","code":"B21700054","type":"B2","city":"10002","town":"10002070","addr":"宜蘭縣員山鄉復興路6號","lng":121.723824,"lat":24.744535,"abc":"B","service":"居家失能個案家庭醫師照護服務","zones":["10002070"],"phone":"039221550","owner":"蘇傳凱","start":"20210101","end":"20261231"},{"name":"曹天德診所","code":"B21700056","type":"B2","city":"10002","town":"10002010","addr":"宜蘭縣宜蘭市舊城東路3-1號","lng":121.755562,"lat":24.755669,"abc":"B","service":"居家失能個案家庭醫師照護服務","zones":["10002010","10002060"],"phone":"039353267","owner":"曹天德","start":"20210101","end":"20261231"},{"name":"仁宏診所","code":"B21700058","type":"B2","city":"10002","town":"10002040","addr":"宜蘭縣頭城鎮纘祥路79之2號","lng":121.82254,"lat":24.857603,"abc":"B","service":"居家失能個案家庭醫師照護服務","zones":["10002040"],"phone":"039776568","owner":"舒惠倫","start":"20200911","end":"20261231"},{"name":"宜蘭縣蘇澳鎮衛生所","code":"B21700006","type":"B2","city":"10002","town":"10002030","addr":"宜蘭縣蘇澳鎮蘇西里志成路60號","lng":121.842346,"lat":24.593107,"abc":"B","service":"居家失能個案家庭醫師照護服務","zones":["10002030"],"phone":"03-9962185","owner":"鄒雙印","start":"20210101","end":"20261231"},{"name":"宜蘭縣壯圍鄉衛生所","code":"B21700008","type":"B2","city":"10002","town":"10002060","addr":"宜蘭縣壯圍鄉吉祥村中央路2段290號","lng":121.786469,"lat":24.740366,"abc":"B","service":"居家失能個案家庭醫師照護服務","zones":["10002060"],"phone":"03-9385503","owner":"郭淑珠","start":"20210101","end":"20261231"},{"name":"國立陽明交通大學附設醫院","code":"B21700018","type":"B2","city":"10002","town":"10002010","addr":"宜蘭縣宜蘭市校舍路169號","lng":121.758766,"lat":24.750311,"abc":"B","service":"居家失能個案家庭醫師照護服務","zones":["10002010","10002040","10002050","10002060","10002070"],"phone":"03-9325192#73381","owner":"黃志賢","start":"20210101","end":"20261231"},{"name":"宜蘭縣宜蘭市衛生所","code":"B21700010","type":"B2","city":"10002","town":"10002010","addr":"宜蘭縣宜蘭市健康路2段2-2號","lng":121.752243,"lat":24.745852,"abc":"B","service":"居家失能個案家庭醫師照護服務","zones":["10002010"],"phone":"03-9322362-29","owner":"李健源","start":"20200805","end":"20261231"},{"name":"宜蘭仁愛醫療財團法人宜蘭仁愛醫院","code":"B21700017","type":"B2","city":"10002","town":"10002010","addr":"宜蘭縣宜蘭市中山路2段260號","lng":121.754532,"lat":24.748774,"abc":"B","service":"居家失能個案家庭醫師照護服務","zones":["10002010","10002040","10002050","10002060","10002070"],"phone":"03-9321888#1011","owner":"潘為鏡","start":"20210101","end":"20261231"},{"name":"宜蘭縣冬山鄉衛生所","code":"B21700003","type":"B2","city":"10002","town":"10002080","addr":"宜蘭縣冬山鄉冬山村中正路16號","lng":121.791542,"lat":24.636126,"abc":"B","service":"居家失能個案家庭醫師照護服務","zones":["10002080"],"phone":"03-594772","owner":"呂明斌","start":"20200812","end":"20261231"},{"name":"宜蘭縣頭城鎮衛生所","code":"B21700002","type":"B2","city":"10002","town":"10002040","addr":"宜蘭縣頭城鎮石城里吉祥路15號","lng":121.82048,"lat":24.856726,"abc":"B","service":"居家失能個案家庭醫師照護服務","zones":["10002040"],"phone":"03-9771034","owner":"王　曉","start":"20200828","end":"20261231"},{"name":"宜蘭縣三星鄉衛生所","code":"B21700007","type":"B2","city":"10002","town":"10002100","addr":"宜蘭縣三星鄉義德村三星路5段70號","lng":121.651573,"lat":24.666132,"abc":"B","service":"居家失能個案家庭醫師照護服務","zones":["10002100"],"phone":"03-9892227","owner":"葉奕辰","start":"20210101","end":"20261231"},{"name":"宜蘭縣大同鄉衛生所","code":"B21700009","type":"B2","city":"10002","town":"10002110","addr":"宜蘭縣大同鄉崙埤村朝陽40號","lng":121.608902,"lat":24.677979,"abc":"B","service":"居家失能個案家庭醫師照護服務","zones":["10002110"],"phone":"03-9801175","owner":"邱仲平","start":"20200901","end":"20261231"},{"name":"宜蘭縣羅東鎮衛生所","code":"B21700011","type":"B2","city":"10002","town":"10002020","addr":"宜蘭縣羅東鎮賢文里民生路79號","lng":121.766968,"lat":24.677534,"abc":"B","service":"居家失能個案家庭醫師照護服務","zones":["10002020"],"phone":"03-9542321","owner":"徐國祐","start":"20210101","end":"20261231"},{"name":"宜蘭縣員山鄉衛生所","code":"B21700004","type":"B2","city":"10002","town":"10002070","addr":"宜蘭縣員山鄉員山村復興路2號","lng":121.724319,"lat":24.744419,"abc":"B","service":"居家失能個案家庭醫師照護服務","zones":["10002070"],"phone":"03-9221575","owner":"吳佩芩","start":"20210101","end":"20261231"},{"name":"臺北榮民總醫院員山分院","code":"B21700013","type":"B2","city":"10002","town":"10002070","addr":"宜蘭縣員山鄉內城村榮光路386號","lng":121.687248,"lat":24.721991,"abc":"B","service":"居家失能個案家庭醫師照護服務","zones":["10002010","10002070"],"phone":"03-9222141#5002","owner":"朱正偉","start":"20200901","end":"20261231"},{"name":"宜蘭縣南澳鄉衛生所","code":"B21700001","type":"B2","city":"10002","town":"10002120","addr":"宜蘭縣南澳鄉南澳村蘇花路2段375號","lng":121.803474,"lat":24.465767,"abc":"B","service":"居家失能個案家庭醫師照護服務","zones":["10002120"],"phone":"03-9981019","owner":"彭爾","start":"20201109","end":"20261231"},{"name":"宜蘭縣南澳鄉原住民產業推展協會(南澳文化健康站)","code":"BF1700132","type":"BF","city":"10002","town":"10002120","addr":"宜蘭縣南澳鄉南澳村中正路30巷28號","lng":121.801414,"lat":24.46966,"abc":"C","service":"巷弄長照站","zones":["10002120"],"phone":"03-9984393","owner":"高勇偉","start":"20200101","end":"20211231"},{"name":"財團法人台灣基督長老教會泰雅爾中會南澳教會(南澳葛蕾扇文化健康站)","code":"BF1700133","type":"BF","city":"10002","town":"10002120","addr":"宜蘭縣南澳鄉南澳村中正路10巷2-1號","lng":121.802376,"lat":24.467899,"abc":"C","service":"巷弄長照站","zones":["10002120"],"phone":"03-9984233","owner":"王福盛","start":"20200101","end":"20211231"},{"name":"社團法人宜蘭縣蘭雨社會福利協會","code":"BE1700006","type":"BE","city":"10002","town":"10002060","addr":"宜蘭縣壯圍鄉美功路一段2巷67號","lng":121.789383,"lat":24.767824,"abc":"B","service":"交通接送服務(DA01)","zones":["10002010","10002040","10002050","10002060","10002070"],"phone":"9307779","owner":"陳鴛鴦","start":"20200108","end":"20241231"},{"name":"財團法人天主教靈醫會附設宜蘭縣私立聖嘉民老人長期照顧中心(養護型)","code":"A11700006","type":"A1","city":"10002","town":"10002100","addr":"宜蘭縣三星鄉大隱村三星路二段103號","lng":121.70562,"lat":24.666786,"abc":"B","service":"交通接送服務(DA01)","zones":["10002020","10002030","10002080","10002090","10002100"],"phone":"03-9898806#105","owner":"黃浩然","start":"20180101","end":"20261231","beds":122,"residents":114},{"name":"樂活健康協會附設宜蘭縣私立古亭社區式長照機構","code":"2N1700005","type":"2","city":"10002","town":"10002060","addr":"宜蘭縣壯圍鄉古亭村永美路一段180號","lng":121.800026,"lat":24.770599,"abc":"B","service":"日間照顧服務(BB)","zones":["10002010","10002020","10002030","10002040","10002050","10002060","10002070","10002080","10002090","10002100","10002110","10002120"],"phone":"03-9303060","owner":"黃淑玲","start":"20260101","end":"20261231"},{"name":"頭城診所","code":"B21700061","type":"B2","city":"10002","town":"10002040","addr":"宜蘭縣頭城鎮開蘭路50號","lng":121.822624,"lat":24.855873,"abc":"B","service":"居家失能個案家庭醫師照護服務","zones":["10002040"],"phone":"039777107","owner":"莊活泉","start":"20210305","end":"20261231"},{"name":"醫療財團法人羅許基金會羅東博愛醫院(北成社區發展協會)","code":"B21700062","type":"B2","city":"10002","town":"10002020","addr":"宜蘭縣羅東鎮北成里北成路二段57巷6號2樓","lng":121.752724,"lat":24.678883,"abc":"C","service":"巷弄長照站","zones":["10002020"],"phone":"03-9617505","owner":"許國文","start":"20201001","end":"20211231"},{"name":"宜蘭縣壯圍鄉古亭社區發展協會","code":"BF1700054","type":"BF","city":"10002","town":"10002060","addr":"宜蘭縣壯圍鄉古亭村古亭路48之16號","lng":121.800346,"lat":24.771963,"abc":"B","service":"營養餐飲服務","zones":["10002060"],"phone":"03-9305028","owner":"劉坤科","start":"20200101","end":"20211231"},{"name":"宜蘭縣頭城鎮龜山島社區發展協會","code":"BF1700106","type":"BF","city":"10002","town":"10002040","addr":"宜蘭縣頭城鎮龜山里龜山路221號","lng":121.900185,"lat":24.94256,"abc":"B","service":"營養餐飲服務","zones":["10002040"],"phone":"03-9781306","owner":"蔣金明","start":"20200101","end":"20211231"},{"name":"財團法人宜蘭縣私立天主教弘道仁愛之家附設宜蘭縣私立弘道居家式服務類長期照顧服務機構","code":"1S1700010","type":"1","city":"10002","town":"10002120","addr":"宜蘭縣南澳鄉蘇花二段251號","lng":121.799843,"lat":24.464504,"abc":"B","service":"喘息服務","zones":["10002030","10002120"],"phone":"03-9981059","owner":"黃浩然","start":"20220101","end":"20230331"},{"name":"臺北榮民總醫院員山分院附設護理之家(提供日間照顧服務)","code":"A31700020","type":"A3","city":"10002","town":"10002070","addr":"宜蘭縣員山鄉榮光路386號","lng":121.687248,"lat":24.721991,"abc":"B","service":"日間照顧服務(BB)","zones":["10002010","10002020","10002030","10002040","10002050","10002060","10002070","10002080","10002090","10002100","10002110","10002120"],"phone":"03-9222141#5090","owner":"黃珮春","start":"20260101","end":"20261231","beds":29},{"name":"岳成診所","code":"B21700025","type":"B2","city":"10002","town":"10002050","addr":"宜蘭縣礁溪鄉中山路1段120號","lng":121.770416,"lat":24.819412,"abc":"B","service":"交通接送服務","zones":["10002010","10002040","10002050","10002060","10002070"],"phone":"9871870","owner":"吳柳示","start":"20210101","end":"20231231"},{"name":"財團法人宜蘭縣私立竹峖身心障礙養護院","code":"A21700011","type":"A2","city":"10002","town":"10002050","addr":"宜蘭縣礁溪鄉六結村六結路149號","lng":121.774864,"lat":24.812391,"abc":"B","service":"喘息服務","zones":["10002010","10002020","10002030","10002040","10002050","10002060","10002070","10002080","10002090","10002100","10002110","10002120"],"phone":"03-9874661","owner":"朱雪娥","start":"20230101","end":"20240430","beds":46,"residents":89},{"name":"宜蘭員山醫療財團法人宜蘭員山醫院","code":"B21700016","type":"B2","city":"10002","town":"10002070","addr":"宜蘭縣員山鄉深溝村尚深路91號","lng":121.721581,"lat":24.721464,"abc":"B","service":"居家失能個案家庭醫師照護服務","zones":["10002010","10002050","10002060","10002070"],"phone":"03-9220292","owner":"于念主","start":"20210330","end":"20261231"},{"name":"佳禾通業股份有限公司","code":"BA0100022","type":"BA","city":"10002","town":"10002010","addr":"宜蘭縣宜蘭市宜興路三段95號3樓","lng":121.540474,"lat":25.044933,"abc":"B","service":"交通接送服務(DA01)","zones":["10002010","10002040","10002050","10002060","10002070"],"phone":"03-9310286","owner":"考恩緒","start":"20210401","end":"20261231"},{"name":"財團法人宜蘭縣私立竹林養護院","code":"A11700012","type":"A1","city":"10002","town":"10002050","addr":"宜蘭縣礁溪鄉六結路151號","lng":121.775208,"lat":24.813093,"abc":"B","service":"營養餐飲服務","zones":["10002050"],"phone":"03-9889357","owner":"林棖壬","start":"20210501","end":"20220331","beds":100,"residents":99},{"name":"社團法人宜蘭縣老人失智症照顧協會附設宜蘭縣私立康活居家式服務類長期照顧服務機構","code":"1R1700002","type":"1","city":"10002","town":"10002010","addr":"宜蘭縣宜蘭市大福路二段185號3樓","lng":121.797928,"lat":24.686359,"abc":"B","service":"喘息服務","zones":["10002010","10002060","10002070"],"phone":"03-9387070","owner":"林志華","start":"20210413","end":"20230331"},{"name":"宜蘭縣私立芯妍居家長照機構","code":"1X1700008","type":"1","city":"10002","town":"10002010","addr":"宜蘭縣宜蘭市健康路三段57號2樓","lng":121.74968,"lat":24.751835,"abc":"B","service":"喘息服務","zones":["10002010","10002060","10002090"],"phone":"03-9353926","owner":"陳凡筠","start":"20220101","end":"20230331"},{"name":"財團法人天主教白永恩神父社會福利基金會附設宜蘭縣私立聖方濟老人長期照顧中心(養護型)","code":"A11700036","type":"A1","city":"10002","town":"10002040","addr":"宜蘭縣頭城鎮開蘭東路1之1號2~5樓","lng":121.823204,"lat":24.854071,"abc":"B","service":"交通接送服務(DA01)","zones":["10002010","10002040","10002050","10002060","10002070"],"phone":"03-9771132","owner":"王承前","start":"20210401","end":"20261231","beds":40,"residents":36},{"name":"宜蘭縣大同鄉衛生所","code":"B21700009","type":"B2","city":"10002","town":"10002110","addr":"宜蘭縣大同鄉崙埤村朝陽40號","lng":121.608902,"lat":24.677979,"abc":"B","service":"社區式交通接送服務(BD03)","zones":["10002110"],"phone":"03-9801175","owner":"邱仲平","start":"20210413","end":"20270331"},{"name":"財團法人宜蘭縣私立蘭陽仁愛之家","code":"A11700042","type":"A1","city":"10002","town":"10002050","addr":"宜蘭縣礁溪鄉龍潭村龍泉路31號","lng":121.743263,"lat":24.783531,"abc":"B","service":"社區式交通接送服務(BD03)","zones":["10002010","10002050"],"phone":"03-9283880","owner":"吳素真","start":"20210413","end":"20270331","beds":60,"residents":26},{"name":"京通小客車租賃有限公司","code":"BA1700006","type":"BA","city":"10002","town":"10002010","addr":"宜蘭縣宜蘭市大福路一段227巷3弄52號","lng":121.764839,"lat":24.763752,"abc":"B","service":"交通接送服務","zones":["10002010","10002040","10002050","10002060","10002070"],"phone":"02-29948700","owner":"王巍","start":"20210601","end":"20221231"},{"name":"宜蘭縣員山鄉內城社區發展協會","code":"BF1700032","type":"BF","city":"10002","town":"10002070","addr":"宜蘭縣員山鄉內城村榮光路321號","lng":121.688637,"lat":24.720888,"abc":"B","service":"營養餐飲服務","zones":["10002070"],"phone":"0920-363597","owner":"林坤鎮","start":"20210101","end":"20220331"},{"name":"富爾捷居家護理所","code":"BA1700007","type":"BA","city":"10002","town":"10002090","addr":"宜蘭縣五結鄉中興路二段266號","lng":121.777107,"lat":24.692917,"abc":"B","service":"交通接送服務(DA01)","zones":["10002020","10002030","10002080","10002090","10002100"],"phone":"03-9500919","owner":"潘爾捷","start":"20210601","end":"20261231"},{"name":"宜蘭縣蘇澳鎮東澳社區發展協會","code":"BF1700142","type":"BF","city":"10002","town":"10002030","addr":"宜蘭縣蘇澳鎮東澳里蘇花路三段130號","lng":121.831772,"lat":24.518688,"abc":"C","service":"巷弄長照站","zones":["10002030"],"phone":"0917823116","owner":"嚴世任","start":"20201001","end":"20211231"},{"name":"宜蘭縣蘇澳鎮永光社區發展協會","code":"BF1700143","type":"BF","city":"10002","town":"10002030","addr":"宜蘭縣蘇澳鎮永光里蘇港路85號","lng":121.852119,"lat":24.594028,"abc":"C","service":"巷弄長照站","zones":["10002030"],"phone":"0937-911675","owner":"盧育順","start":"20201001","end":"20211231"},{"name":"宜蘭縣冬山鄉三奇社區發展協會","code":"BF1700141","type":"BF","city":"10002","town":"10002080","addr":"宜蘭縣冬山鄉三奇村成興路812號","lng":121.813805,"lat":24.643379,"abc":"C","service":"巷弄長照站","zones":["10002080"],"phone":"0910-954-987","owner":" 許美素","start":"20201001","end":"20211231"},{"name":"社團法人宜蘭縣冬山鄉太和社區發展協會","code":"BE1700010","type":"BE","city":"10002","town":"10002080","addr":"宜蘭縣冬山鄉太和村太和路238號","lng":121.773224,"lat":24.632364,"abc":"C","service":"巷弄長照站","zones":["10002080"],"phone":"0937-909990","owner":"黃崇澤","start":"20200601","end":"20211231"},{"name":"宜蘭縣羅東鎮仁德社區發展協會","code":"BF1700134","type":"BF","city":"10002","town":"10002020","addr":"宜蘭縣羅東鎮仁德里忠義巷80-2號","lng":121.76635,"lat":24.673887,"abc":"C","service":"巷弄長照站","zones":["10002020"],"phone":"0910954946","owner":"莊素珍","start":"20200801","end":"20211231"},{"name":"宜蘭縣羅東鎮南豪社區發展協會","code":"BF1700139","type":"BF","city":"10002","town":"10002020","addr":"宜蘭縣羅東鎮成功里體育路40號","lng":121.767761,"lat":24.669737,"abc":"C","service":"巷弄長照站","zones":["10002020"],"phone":"0920007080","owner":"林春輝","start":"20210101","end":"20211231"},{"name":"宜蘭縣羅東鎮阿束社社區發展協會","code":"BF1700137","type":"BF","city":"10002","town":"10002020","addr":"宜蘭縣羅東鎮開明里清潭路146號2樓","lng":121.770935,"lat":24.672508,"abc":"C","service":"巷弄長照站","zones":["10002020"],"phone":"0937549807","owner":"黃泰坤","start":"20210101","end":"20211231"},{"name":"宜蘭縣員山鄉員山社區發展協會","code":"BF1700136","type":"BF","city":"10002","town":"10002070","addr":"宜蘭縣員山鄉員山村文化路156號","lng":121.722885,"lat":24.745243,"abc":"C","service":"巷弄長照站","zones":["10002070"],"phone":"0921099692","owner":"何春慧","start":"20200701","end":"20221231"},{"name":"宜蘭縣員山鄉雙湖社區發展協會","code":"BF1700138","type":"BF","city":"10002","town":"10002070","addr":"宜蘭縣員山鄉湖西村隘界路131號","lng":121.685471,"lat":24.748285,"abc":"C","service":"巷弄長照站","zones":["10002070"],"phone":"0982264497","owner":"游新榮","start":"20200701","end":"20221231"},{"name":"宜蘭縣羅東鎮仁和社區發展協會","code":"BF1700140","type":"BF","city":"10002","town":"10002020","addr":"宜蘭縣羅東鎮開明里清潭路146號2樓","lng":121.770935,"lat":24.672508,"abc":"C","service":"巷弄長照站","zones":["10002020"],"phone":"0920007080","owner":"藍亮如","start":"20210101","end":"20211231"},{"name":"宜蘭縣五結鄉錦草社區發展協會","code":"BF1700146","type":"BF","city":"10002","town":"10002090","addr":"宜蘭縣五結鄉錦眾村錦草五路220巷18號","lng":121.820572,"lat":24.7076,"abc":"C","service":"巷弄長照站","zones":["10002090"],"phone":"0937500099","owner":"林國棟","start":"20210101","end":"20211231"},{"name":"宜蘭縣五結鄉錦草社區發展協會","code":"BF1700146","type":"BF","city":"10002","town":"10002090","addr":"宜蘭縣五結鄉錦眾村錦草五路220巷18號","lng":121.820572,"lat":24.7076,"abc":"C","service":"巷弄長照站","zones":["10002090"],"phone":"0937500099","owner":"林國棟","start":"20210101","end":"20211231"},{"name":"宜蘭縣頭城鎮頂埔社區發展協會","code":"BF1700144","type":"BF","city":"10002","town":"10002040","addr":"宜蘭縣頭城鎮頂埔里頂埔路二段116號","lng":121.810661,"lat":24.844463,"abc":"C","service":"巷弄長照站","zones":["10002040"],"phone":"0918043749","owner":"蕭志弘","start":"20210101","end":"20291231"},{"name":"財團法人伊甸社會福利基金會宜蘭分事務所(頭城武營站)","code":"BD1700011","type":"BD","city":"10002","town":"10002040","addr":"宜蘭縣頭城鎮武營里武營路16-8號","lng":121.824776,"lat":24.861786,"abc":"C","service":"巷弄長照站","zones":["10002040"],"phone":"03-9771238","owner":"成亮","start":"20190101","end":"20191231"},{"name":"宜蘭市民族社區發展協會","code":"BF1700145","type":"BF","city":"10002","town":"10002010","addr":"宜蘭縣宜蘭市民族里民權路二段41巷10號","lng":121.749489,"lat":24.753519,"abc":"C","service":"巷弄長照站","zones":["10002010"],"phone":"0912640640","owner":"鄧蜀江","start":"20210101","end":"20211231"},{"name":"財團法人天主教白永恩神父社會福利基金會附設宜蘭縣私立聖方濟大溪社區式服務類長期照顧服務機構","code":"2S1700009","type":"2","city":"10002","town":"10002040","addr":"宜蘭縣頭城鎮濱海路五段150號","lng":121.891342,"lat":24.939062,"abc":"B","service":"小規模多機能服務","zones":["10002040"],"phone":"039781906","owner":"王承前","start":"20260101","end":"20261231"},{"name":"笙田國際小客車租賃有限公司","code":"BA1700005","type":"BA","city":"10002","town":"10002020","addr":"宜蘭縣羅東鎮進德街107號2樓","lng":121.758476,"lat":24.676983,"abc":"B","service":"社區式交通接送服務(BD03)","zones":["10002010","10002020","10002030","10002040","10002050","10002060","10002070","10002080","10002090","10002100","10002110","10002120"],"phone":"03-9610105","owner":"林貝珊","start":"20231121","end":"20270331"},{"name":"笙田國際小客車租賃有限公司","code":"BA1700005","type":"BA","city":"10002","town":"10002020","addr":"宜蘭縣羅東鎮進德街107號2樓","lng":121.758476,"lat":24.676983,"abc":"B","service":"交通接送服務(DA01)","zones":["10002010","10002020","10002030","10002040","10002050","10002060","10002070","10002080","10002090","10002100"],"phone":"03-9610105","owner":"林貝珊","start":"20210324","end":"20261231"},{"name":"宜蘭縣羅東鎮維安社區發展協會","code":"BF1700148","type":"BF","city":"10002","town":"10002020","addr":"宜蘭縣羅東鎮西安里西安街468","lng":121.754372,"lat":24.667477,"abc":"C","service":"巷弄長照站","zones":["10002020"],"phone":"0937161961","owner":"魏炎輝","start":"20211001","end":"20211231"},{"name":"宜蘭縣冬山鄉武淵社區發展協會","code":"BF1700015","type":"BF","city":"10002","town":"10002080","addr":"宜蘭縣冬山鄉武淵村富農路2段325號","lng":121.793915,"lat":24.635622,"abc":"B","service":"社區式交通接送服務(BD03)","zones":["10002020","10002080","10002090"],"phone":"03-9508704","owner":"陳俐玲","start":"20210928","end":"20270331"},{"name":"A級單位-開蘭安心診所","code":"B21700063","type":"B2","city":"10002","town":"10002010","addr":"宜蘭縣宜蘭市文化里神農路一段97號","lng":121.750061,"lat":24.749294,"abc":"A","service":"個案管理服務","zones":["10002010"],"phone":"03-9311230","owner":"陳玫君","start":"20220101","end":"20270331"},{"name":"財團法人耕莘健康管理專科學校附設宜蘭縣私立勁好園綜合長照機構","code":"4Y1700001","type":"4","city":"10002","town":"10002100","addr":"宜蘭縣三星鄉尚武村健富路二段407號","lng":121.686409,"lat":24.698072,"abc":"B","service":"小規模多機能服務","zones":["10002010","10002020","10002030","10002040","10002050","10002060","10002070","10002080","10002090","10002100","10002110","10002120"],"phone":"9891178","owner":"陳友倫","start":"20211125","end":"20230331"},{"name":"財團法人耕莘健康管理專科學校附設宜蘭縣私立勁好園綜合長照機構","code":"4Y1700001","type":"4","city":"10002","town":"10002100","addr":"宜蘭縣三星鄉尚武村健富路二段407號","lng":121.686409,"lat":24.698072,"abc":"B","service":"喘息服務","zones":["10002010","10002020","10002030","10002040","10002050","10002060","10002070","10002080","10002090","10002100","10002110","10002120"],"phone":"9891178","owner":"陳友倫","start":"20211125","end":"20230331"},{"name":"開蘭安心診所","code":"B21700048","type":"B2","city":"10002","town":"10002010","addr":"宜蘭縣宜蘭市神農路一段97號","lng":121.750061,"lat":24.749294,"abc":"C","service":"巷弄長照站","zones":["10002040"],"phone":"03-9311230","owner":"陳玫君","start":"20211118","end":"20270331"},{"name":"醫療財團法人羅許基金會羅東博愛醫院","code":"B21700015","type":"B2","city":"10002","town":"10002020","addr":"宜蘭縣羅東鎮南昌街83號","lng":121.772957,"lat":24.671764,"abc":"B","service":"專業照護服務","zones":["10002010","10002020","10002030","10002060","10002070","10002080","10002090","10002100"],"phone":"03-9543131#5233","owner":"許國文","start":"20211227","end":"20270331"},{"name":"天主教靈醫會醫療財團法人羅東聖母醫院","code":"B21700020","type":"B2","city":"10002","town":"10002020","addr":"宜蘭縣羅東鎮中正南路160號","lng":121.770714,"lat":24.671434,"abc":"B","service":"專業照護服務","zones":["10002010","10002020","10002030","10002050","10002060","10002070","10002080","10002090","10002100"],"phone":"03-9544106","owner":"馬漢光","start":"20220101","end":"20270331"},{"name":"振芳藥局","code":"B31700001","type":"B3","city":"10002","town":"10002010","addr":"宜蘭縣宜蘭市中山路三段179號","lng":121.753067,"lat":24.760056,"abc":"B","service":"專業照護服務","zones":["10002010","10002020","10002030","10002040","10002050","10002060","10002070","10002080","10002090","10002100"],"phone":"03-9322369","owner":"徐松銘","start":"20220101","end":"20270331"},{"name":"醫療財團法人羅許基金會附設羅東博愛居家護理所","code":"B11700001","type":"B1","city":"10002","town":"10002020","addr":"宜蘭縣羅東鎮南昌街61-8號","lng":121.773331,"lat":24.671221,"abc":"B","service":"專業照護服務","zones":["10002010","10002020","10002030","10002040","10002050","10002060","10002070","10002080","10002090","10002100"],"phone":"03-9543131#7148","owner":"陳麗芬","start":"20220101","end":"20270331"},{"name":"天主教靈醫會醫療財團法人附設羅東聖母居家護理所","code":"B11700026","type":"B1","city":"10002","town":"10002020","addr":"宜蘭縣羅東鎮中正南路160號","lng":121.770714,"lat":24.671434,"abc":"B","service":"專業照護服務","zones":["10002010","10002020","10002030","10002040","10002050","10002060","10002070","10002080","10002090","10002100"],"phone":"03-9564080","owner":"翁靜宜","start":"20220101","end":"20270331"},{"name":"臺北榮民總醫院蘇澳分院附設居家護理所","code":"B11700009","type":"B1","city":"10002","town":"10002030","addr":"宜蘭縣蘇澳鎮蘇濱路一段301號","lng":121.849182,"lat":24.613455,"abc":"B","service":"專業照護服務","zones":["10002030"],"phone":"039905106-6310","owner":"林毓美","start":"20220101","end":"20270331"},{"name":"臺北榮民總醫院員山分院附設居家護理所","code":"B11700010","type":"B1","city":"10002","town":"10002070","addr":"宜蘭縣員山鄉內城村榮光路386號","lng":121.687248,"lat":24.721991,"abc":"B","service":"專業照護服務","zones":["10002010","10002070"],"phone":"03-9222141#8005","owner":"游雅琪","start":"20220101","end":"20270331"},{"name":"快樂提案居家職能治療所","code":"1X1700010","type":"1","city":"10002","town":"10002030","addr":"宜蘭縣蘇澳鎮信義路298巷7號1樓","lng":121.834351,"lat":24.615494,"abc":"B","service":"專業照護服務","zones":["10002010","10002020","10002030","10002040","10002050","10002060","10002070","10002080","10002090","10002100","10002110","10002120"],"phone":"0919216396","owner":"成政勲","start":"20220101","end":"20270331"},{"name":"宜蘭仁愛醫療財團法人附設仁愛居家護理所","code":"B11700011","type":"B1","city":"10002","town":"10002010","addr":"宜蘭縣宜蘭市神農里宜興路1段29巷13號","lng":121.754478,"lat":24.749062,"abc":"B","service":"專業照護服務","zones":["10002010","10002040","10002050","10002060","10002070"],"phone":"039321888-1338","owner":"周怡如","start":"20220101","end":"20270331"},{"name":"臻宸物理治療所","code":"B41700008","type":"B4","city":"10002","town":"10002010","addr":"宜蘭縣宜蘭市七結里農權路三段163巷69弄28號","lng":121.737808,"lat":24.748444,"abc":"B","service":"專業照護服務","zones":["10002010","10002020","10002030","10002040","10002050","10002060","10002070","10002080","10002090","10002100","10002110","10002120"],"phone":"039355699","owner":"吳桂英","start":"20220101","end":"20270331"},{"name":"永春物理治療所","code":"1X1700005","type":"B4","city":"10002","town":"10002010","addr":"宜蘭縣宜蘭市梅洲里16鄰鎮平路222巷10號1樓","lng":121.745583,"lat":24.76289,"abc":"B","service":"專業照護服務","zones":["10002010","10002020","10002030","10002040","10002050","10002060","10002070","10002080","10002090","10002100","10002110","10002120"],"phone":"0937983288","owner":"紀岳均","start":"20220101","end":"20270331"},{"name":"宜蘭縣南澳鄉衛生所附設居家護理所","code":"B11700015","type":"B1","city":"10002","town":"10002120","addr":"宜蘭縣南澳鄉蘇花鄉蘇花路2段375號","lng":121.80349,"lat":24.465639,"abc":"B","service":"專業照護服務","zones":["10002030","10002120"],"phone":"03-9981019-214","owner":"林語梵","start":"20220101","end":"20270331"},{"name":"宜蘭縣蘇澳鎮衛生所附設居家護理所","code":"B11700031","type":"B1","city":"10002","town":"10002030","addr":"宜蘭縣蘇澳鎮蘇西里志成路60號","lng":121.84166,"lat":24.593975,"abc":"B","service":"專業照護服務","zones":["10002030"],"phone":"03-9962486","owner":"林慧玲","start":"20220101","end":"20270331"},{"name":"宜蘭縣冬山鄉衛生所附設居家護理所","code":"B11700023","type":"B1","city":"10002","town":"10002080","addr":"宜蘭縣冬山鄉中正路16號","lng":121.791573,"lat":24.636124,"abc":"B","service":"專業照護服務","zones":["10002080"],"phone":"9594772-203","owner":"侯亨庭","start":"20220101","end":"20270331"},{"name":"宜蘭縣員山鄉衛生所附設居家護理所","code":"B11700025","type":"B1","city":"10002","town":"10002070","addr":"宜蘭縣員山鄉復興路2號","lng":121.724365,"lat":24.744299,"abc":"B","service":"專業照護服務","zones":["10002070"],"phone":"03-9221575","owner":"戴麗芬","start":"20220101","end":"20270331"},{"name":"宜蘭縣羅東鎮衛生所附設居家護理所","code":"B11700022","type":"B1","city":"10002","town":"10002020","addr":"宜蘭縣羅東鎮民生路79號","lng":121.766953,"lat":24.677528,"abc":"B","service":"專業照護服務","zones":["10002020"],"phone":"9542321#219","owner":"許玉如","start":"20220101","end":"20270331"},{"name":"宜蘭縣五結鄉衛生所附設居家護理所","code":"B11700017","type":"B1","city":"10002","town":"10002090","addr":"宜蘭縣五結鄉五結路2段337號","lng":121.79895,"lat":24.684799,"abc":"B","service":"專業照護服務","zones":["10002090"],"phone":"03-9501564","owner":"邱冠龍","start":"20220101","end":"20270331"},{"name":"宜蘭縣礁溪鄉衛生所附設居家護理所","code":"1C1700001","type":"B1","city":"10002","town":"10002050","addr":"宜蘭縣礁溪鄉礁溪路四段126號","lng":121.769905,"lat":24.820866,"abc":"B","service":"專業照護服務","zones":["10002050"],"phone":"03-9882908-16","owner":"劉嘉溱","start":"20220101","end":"20270331"},{"name":"宜蘭縣壯圍鄉衛生所附設居家護理所","code":"B11700030","type":"B1","city":"10002","town":"10002060","addr":"宜蘭縣壯圍鄉吉祥村中央路2段290號","lng":121.786316,"lat":24.74675,"abc":"B","service":"專業照護服務","zones":["10002060"],"phone":"9385503#20","owner":"陳敏茹","start":"20220101","end":"20270331"},{"name":"宜蘭縣頭城鎮衛生所附設居家護理所","code":"B11700024","type":"B1","city":"10002","town":"10002040","addr":"宜蘭縣頭城鎮新建里吉祥路15號","lng":121.820549,"lat":24.856758,"abc":"B","service":"專業照護服務","zones":["10002040"],"phone":"03-9771034","owner":"黃匯淇","start":"20220101","end":"20270331"},{"name":"宜蘭縣大同鄉衛生所附設居家護理所","code":"B11700019","type":"B1","city":"10002","town":"10002110","addr":"宜蘭縣大同鄉崙埤村朝陽40號","lng":121.608849,"lat":24.677855,"abc":"B","service":"專業照護服務","zones":["10002110"],"phone":"03-9801175","owner":"范佳麗","start":"20220101","end":"20270331"},{"name":"宜蘭縣壯圍鄉衛生所","code":"B21700008","type":"B2","city":"10002","town":"10002060","addr":"宜蘭縣壯圍鄉吉祥村中央路2段290號","lng":121.786469,"lat":24.740366,"abc":"B","service":"專業照護服務","zones":["10002010","10002060"],"phone":"03-9385503","owner":"郭淑珠","start":"20220101","end":"20270331"},{"name":"臺北榮民總醫院蘇澳分院","code":"B21700014","type":"B2","city":"10002","town":"10002030","addr":"宜蘭縣蘇澳鎮港邊里蘇濱路一段301號","lng":121.84861,"lat":24.614096,"abc":"B","service":"專業照護服務","zones":["10002030"],"phone":"03-9905106","owner":"熊夢平","start":"20220101","end":"20270331"},{"name":"臺北榮民總醫院員山分院","code":"B21700013","type":"B2","city":"10002","town":"10002070","addr":"宜蘭縣員山鄉內城村榮光路386號","lng":121.687248,"lat":24.721991,"abc":"B","service":"專業照護服務","zones":["10002010","10002070"],"phone":"03-9222141#5002","owner":"朱正偉","start":"20220101","end":"20270331"},{"name":"國立陽明交通大學附設醫院居家護理所","code":"B11700008","type":"B1","city":"10002","town":"10002010","addr":"宜蘭縣宜蘭市新民路152號","lng":121.754158,"lat":24.757772,"abc":"B","service":"專業照護服務","zones":["10002010","10002040","10002050","10002060","10002070"],"phone":"039325192#72380","owner":"吳富美","start":"20220101","end":"20270331"},{"name":"全心居家護理所","code":"B11700005","type":"B1","city":"10002","town":"10002020","addr":"宜蘭縣羅東鎮中山路四段11巷6號","lng":121.76313,"lat":24.673903,"abc":"B","service":"專業照護服務","zones":["10002020","10002030","10002080","10002090","10002100","10002110","10002120"],"phone":"9616135","owner":"陳麗玉","start":"20220101","end":"20270331"},{"name":"簡世霖復健科診所","code":"B21700024","type":"B2","city":"10002","town":"10002020","addr":"宜蘭縣羅東鎮大新里倉前路77-7號","lng":121.774139,"lat":24.680265,"abc":"B","service":"專業照護服務","zones":["10002020","10002080","10002090","10002100"],"phone":"03-9566619","owner":"簡世霖","start":"20220101","end":"20270331"},{"name":"社團法人宜蘭縣老人失智症照顧協會附設宜蘭縣私立康活社區式服務類長期照顧服務機構","code":"2R1700005","type":"2","city":"10002","town":"10002010","addr":"宜蘭縣宜蘭市女中路一段2號","lng":121.769089,"lat":24.750504,"abc":"B","service":"日間照顧服務(BB)","zones":["10002010","10002020","10002030","10002040","10002050","10002060","10002070","10002080","10002090","10002100","10002110","10002120"],"phone":"03-9383030","owner":"林志華","start":"20260101","end":"20261231"},{"name":"宜蘭縣蘇澳鎮衛生所社區長照機構日照中心","code":"2C1700003","type":"2","city":"10002","town":"10002030","addr":"宜蘭縣蘇澳鎮志成路60號","lng":121.842346,"lat":24.593107,"abc":"B","service":"日間照顧服務(BB)","zones":["10002010","10002020","10002030","10002040","10002050","10002060","10002070","10002080","10002090","10002100","10002110","10002120"],"phone":"03-9962185#501","owner":"李彥澂","start":"20200101","end":"20261231"},{"name":"社團法人宜蘭縣社區照顧促進會附設宜蘭縣私立心安居社區式服務類長期照顧服務機構","code":"2R1700006","type":"2","city":"10002","town":"10002060","addr":"宜蘭縣壯圍鄉中央路二段265號","lng":121.785912,"lat":24.745983,"abc":"B","service":"日間照顧服務(BB)","zones":["10002010","10002020","10002030","10002040","10002050","10002060","10002070","10002080","10002090","10002100","10002110","10002120"],"phone":"03-9381265","owner":"林文明","start":"20260101","end":"20261231"},{"name":"財團法人伊甸社會福利基金會附設宜蘭縣私立茂安頤福社區長照機構","code":"2N1700007","type":"2","city":"10002","town":"10002110","addr":"宜蘭縣大同鄉茂安村泰雅路五段70號","lng":121.451569,"lat":24.531767,"abc":"B","service":"小規模多機能服務","zones":["10002010","10002020","10002030","10002040","10002050","10002060","10002070","10002080","10002090","10002100","10002110","10002120"],"phone":"9809388","owner":"陳宇昭","start":"20211230","end":"20261231"},{"name":"財團法人天主教白永恩神父社會福利基金會附設宜蘭縣私立聖方濟開蘭社區式服務類長期照顧機構","code":"2S1700012","type":"2","city":"10002","town":"10002040","addr":"宜蘭縣頭城鎮開蘭東路1-1號6樓","lng":121.821976,"lat":24.854322,"abc":"B","service":"日間照顧服務(BB)","zones":["10002010","10002020","10002030","10002040","10002050","10002060","10002070","10002080","10002090","10002100","10002110","10002120"],"phone":"03-9771132#605","owner":"王承前","start":"20260101","end":"20261231"},{"name":"財團法人天主教白永恩神父社會福利基金會附設宜蘭縣私立聖方濟新興社區式服務類長期照顧機構","code":"2S1700011","type":"2","city":"10002","town":"10002040","addr":"宜蘭縣頭城鎮新興路6號1樓","lng":121.82164,"lat":24.854445,"abc":"B","service":"喘息服務","zones":["10002010","10002020","10002030","10002040","10002050","10002060","10002070","10002080","10002090","10002100","10002110","10002120"],"phone":"03-9779636","owner":"王承前","start":"20260101","end":"20261231"},{"name":"宜蘭縣私立如心社區長照機構","code":"2X1700004","type":"2","city":"10002","town":"10002050","addr":"宜蘭縣礁溪鄉礁溪路4段101號1樓","lng":121.76899,"lat":24.819931,"abc":"B","service":"喘息服務","zones":["10002010","10002020","10002030","10002040","10002050","10002060","10002070","10002080","10002090","10002100","10002110","10002120"],"phone":"03-9888117","owner":"黃郁心","start":"20260101","end":"20261231"},{"name":"宜蘭縣南澳鄉衛生所","code":"B21700001","type":"B2","city":"10002","town":"10002120","addr":"宜蘭縣南澳鄉南澳村蘇花路2段375號","lng":121.803474,"lat":24.465767,"abc":"B","service":"交通接送服務(DA01)","zones":["10002120"],"phone":"03-9981019","owner":"彭爾","start":"20220201","end":"20261231"},{"name":"宜蘭縣大同鄉衛生所","code":"B21700009","type":"B2","city":"10002","town":"10002110","addr":"宜蘭縣大同鄉崙埤村朝陽40號","lng":121.608902,"lat":24.677979,"abc":"B","service":"交通接送服務(DA01)","zones":["10002110"],"phone":"03-9801175","owner":"邱仲平","start":"20240101","end":"20261231"},{"name":"財團法人宜蘭縣私立蘭陽仁愛之家","code":"A11700042","type":"A1","city":"10002","town":"10002050","addr":"宜蘭縣礁溪鄉龍潭村龍泉路31號","lng":121.743263,"lat":24.783531,"abc":"B","service":"日間照顧服務(BB)","zones":["10002010","10002020","10002030","10002040","10002050","10002060","10002070","10002080","10002090","10002100","10002110","10002120"],"phone":"03-9283880","owner":"吳素真","start":"20200101","end":"20241231","beds":60,"residents":26},{"name":"社團法人宜蘭縣思源仁愛協會","code":"BE1700011","type":"BE","city":"10002","town":"10002010","addr":"宜蘭縣宜蘭市成功里延平路39號之15","lng":121.754128,"lat":24.755388,"abc":"B","service":"營養餐飲服務","zones":["10002010","10002060"],"phone":"03-9333365","owner":"許惠君","start":"20220222","end":"20261231"},{"name":"社團法人宜蘭縣長期照護及社會福祉推廣協會","code":"BE1700012","type":"BE","city":"10002","town":"10002020","addr":"宜蘭縣羅東鎮中正路75號","lng":121.770828,"lat":24.674557,"abc":"B","service":"社區式交通接送服務(BD03)","zones":["10002080","10002100"],"phone":"03-9593633","owner":"楊涵婷","start":"20220316","end":"20270331"},{"name":"財團法人伊甸社會福利基金會","code":"BD1700022","type":"BD","city":"10002","town":"10002010","addr":"宜蘭縣宜蘭市東港路二段60號2樓","lng":121.769676,"lat":24.751205,"abc":"A","service":"個案管理服務","zones":["10002010"],"phone":"03-9333575","owner":"陳宇昭","start":"20220101","end":"20270331"},{"name":"天主教靈醫會醫療財團法人羅東聖母醫院","code":"B21700020","type":"B2","city":"10002","town":"10002020","addr":"宜蘭縣羅東鎮中正南路160號","lng":121.770714,"lat":24.671434,"abc":"A","service":"個案管理服務","zones":["10002020","10002110"],"phone":"03-9544106","owner":"馬漢光","start":"20220101","end":"20270331"},{"name":"A級單位-維揚診所","code":"B21700019","type":"B2","city":"10002","town":"10002020","addr":"宜蘭縣羅東鎮羅東中山路4段11巷6號","lng":121.76313,"lat":24.673903,"abc":"A","service":"個案管理服務","zones":["10002080"],"phone":"03-9510299","owner":"陳英詔","start":"20220101","end":"20270331"},{"name":"國立陽明交通大學附設醫院","code":"B21700018","type":"B2","city":"10002","town":"10002010","addr":"宜蘭縣宜蘭市校舍路169號","lng":121.758766,"lat":24.750311,"abc":"A","service":"個案管理服務","zones":["10002010"],"phone":"03-9325192#73381","owner":"黃志賢","start":"20220101","end":"20270331"},{"name":"宜蘭仁愛醫療財團法人宜蘭仁愛醫院","code":"B21700017","type":"B2","city":"10002","town":"10002010","addr":"宜蘭縣宜蘭市中山路2段260號","lng":121.754532,"lat":24.748774,"abc":"A","service":"個案管理服務","zones":["10002010"],"phone":"03-9321888#1011","owner":"潘為鏡","start":"20220101","end":"20270331"},{"name":"臺北榮民總醫院蘇澳分院","code":"B21700014","type":"B2","city":"10002","town":"10002030","addr":"宜蘭縣蘇澳鎮港邊里蘇濱路一段301號","lng":121.84861,"lat":24.614096,"abc":"A","service":"個案管理服務","zones":["10002030"],"phone":"03-9905106","owner":"熊夢平","start":"20220101","end":"20270331"},{"name":"臺北榮民總醫院員山分院","code":"B21700013","type":"B2","city":"10002","town":"10002070","addr":"宜蘭縣員山鄉內城村榮光路386號","lng":121.687248,"lat":24.721991,"abc":"A","service":"個案管理服務","zones":["10002070"],"phone":"03-9222141#5002","owner":"朱正偉","start":"20220101","end":"20270331"},{"name":"宜蘭縣五結鄉衛生所","code":"B21700012","type":"B2","city":"10002","town":"10002090","addr":"宜蘭縣五結鄉五結村五結路2段337號","lng":121.798904,"lat":24.68494,"abc":"A","service":"個案管理服務","zones":["10002090"],"phone":"03-9501564","owner":"鄒禪蔭","start":"20220101","end":"20270331"},{"name":"宜蘭縣羅東鎮衛生所","code":"B21700011","type":"B2","city":"10002","town":"10002020","addr":"宜蘭縣羅東鎮賢文里民生路79號","lng":121.766968,"lat":24.677534,"abc":"A","service":"個案管理服務","zones":["10002020"],"phone":"03-9542321","owner":"徐國祐","start":"20220101","end":"20270331"},{"name":"宜蘭縣宜蘭市衛生所","code":"B21700010","type":"B2","city":"10002","town":"10002010","addr":"宜蘭縣宜蘭市健康路2段2-2號","lng":121.752243,"lat":24.745852,"abc":"A","service":"個案管理服務","zones":["10002010"],"phone":"03-9322362-29","owner":"李健源","start":"20220101","end":"20270331"},{"name":"宜蘭縣大同鄉衛生所","code":"B21700009","type":"B2","city":"10002","town":"10002110","addr":"宜蘭縣大同鄉崙埤村朝陽40號","lng":121.608902,"lat":24.677979,"abc":"A","service":"個案管理服務","zones":["10002110"],"phone":"03-9801175","owner":"邱仲平","start":"20220101","end":"20270331"},{"name":"宜蘭縣壯圍鄉衛生所","code":"B21700008","type":"B2","city":"10002","town":"10002060","addr":"宜蘭縣壯圍鄉吉祥村中央路2段290號","lng":121.786469,"lat":24.740366,"abc":"A","service":"個案管理服務","zones":["10002060"],"phone":"03-9385503","owner":"郭淑珠","start":"20220101","end":"20270331"},{"name":"宜蘭縣三星鄉衛生所","code":"B21700007","type":"B2","city":"10002","town":"10002100","addr":"宜蘭縣三星鄉義德村三星路5段70號","lng":121.651573,"lat":24.666132,"abc":"A","service":"個案管理服務","zones":["10002100"],"phone":"03-9892227","owner":"葉奕辰","start":"20220101","end":"20270331"},{"name":"宜蘭縣蘇澳鎮衛生所","code":"B21700006","type":"B2","city":"10002","town":"10002030","addr":"宜蘭縣蘇澳鎮蘇西里志成路60號","lng":121.842346,"lat":24.593107,"abc":"A","service":"個案管理服務","zones":["10002030"],"phone":"03-9962185","owner":"鄒雙印","start":"20220101","end":"20270331"},{"name":"宜蘭縣礁溪鄉衛生所","code":"B21700005","type":"B2","city":"10002","town":"10002050","addr":"宜蘭縣礁溪鄉大忠村礁溪路4段126號B1","lng":121.769608,"lat":24.820808,"abc":"A","service":"個案管理服務","zones":["10002050"],"phone":"03-9882908","owner":"曾俐燕","start":"20220101","end":"20270331"},{"name":"宜蘭縣員山鄉衛生所","code":"B21700004","type":"B2","city":"10002","town":"10002070","addr":"宜蘭縣員山鄉員山村復興路2號","lng":121.724319,"lat":24.744419,"abc":"A","service":"個案管理服務","zones":["10002070"],"phone":"03-9221575","owner":"吳佩芩","start":"20220101","end":"20270331"},{"name":"宜蘭縣冬山鄉衛生所","code":"B21700003","type":"B2","city":"10002","town":"10002080","addr":"宜蘭縣冬山鄉冬山村中正路16號","lng":121.791542,"lat":24.636126,"abc":"A","service":"個案管理服務","zones":["10002080"],"phone":"03-594772","owner":"呂明斌","start":"20220101","end":"20270331"},{"name":"宜蘭縣頭城鎮衛生所","code":"B21700002","type":"B2","city":"10002","town":"10002040","addr":"宜蘭縣頭城鎮石城里吉祥路15號","lng":121.82048,"lat":24.856726,"abc":"A","service":"個案管理服務","zones":["10002040"],"phone":"03-9771034","owner":"王　曉","start":"20220101","end":"20270331"},{"name":"宜蘭縣南澳鄉衛生所","code":"B21700001","type":"B2","city":"10002","town":"10002120","addr":"宜蘭縣南澳鄉南澳村蘇花路2段375號","lng":121.803474,"lat":24.465767,"abc":"A","service":"個案管理服務","zones":["10002120"],"phone":"03-9981019","owner":"彭爾","start":"20220101","end":"20270331"},{"name":"財團法人天主教靈醫會附設宜蘭縣私立聖嘉民老人長期照顧中心(養護型)","code":"A11700006","type":"A1","city":"10002","town":"10002100","addr":"宜蘭縣三星鄉大隱村三星路二段103號","lng":121.70562,"lat":24.666786,"abc":"A","service":"個案管理服務","zones":["10002100"],"phone":"03-9898806#105","owner":"黃浩然","start":"20220101","end":"20270331","beds":122,"residents":114},{"name":"宜蘭縣長青關懷照顧協會附設宜蘭縣私立幸福社區長照機構","code":"2N1700008","type":"2","city":"10002","town":"10002030","addr":"宜蘭縣蘇澳鎮隘丁里隘丁路36號","lng":121.835953,"lat":24.61791,"abc":"B","service":"日間照顧服務(BB)","zones":["10002010","10002020","10002030","10002040","10002050","10002060","10002070","10002080","10002090","10002100","10002110","10002120"],"phone":"03-9909166","owner":"江明助","start":"20220415","end":"20261231"},{"name":"宜蘭縣私立哈拿社區長照機構","code":"2X1700006","type":"2","city":"10002","town":"10002110","addr":"宜蘭縣大同鄉崙埤村6鄰朝陽7之2號","lng":121.609283,"lat":24.67672,"abc":"B","service":"家庭托顧服務(BC)","zones":["10","10002110","15","5"],"phone":"03-9801812","owner":"依婉•雅威","start":"20260101","end":"20261231"},{"name":"財團法人耕莘健康管理專科學校宜蘭縣私立三星鄉尊親館社區長照機構(委託經營)","code":"2Y1700002","type":"2","city":"10002","town":"10002100","addr":"宜蘭縣三星鄉大隱村三星路二段99巷17弄68號2樓","lng":121.707382,"lat":24.668417,"abc":"B","service":"日間照顧服務(BB)","zones":["10002010","10002020","10002030","10002040","10002050","10002060","10002070","10002080","10002090","10002100","10002110","10002120"],"phone":"(03)9898121","owner":"陳友倫","start":"20220822","end":"20261231"},{"name":"慧心企業社附設宜蘭縣私立我們的家社區長照機構","code":"2N1700009","type":"2","city":"10002","town":"10002020","addr":"宜蘭縣羅東鎮羅莊里康莊路25號","lng":121.776909,"lat":24.670149,"abc":"B","service":"日間照顧服務(BB)","zones":["10002010","10002020","10002030","10002040","10002050","10002060","10002070","10002080","10002090","10002100","10002110","10002120"],"phone":"9532299","owner":"黃懷葶","start":"20220915","end":"20261231"},{"name":"慧心企業社附設宜蘭縣私立我們的家社區長照機構","code":"2N1700009","type":"2","city":"10002","town":"10002020","addr":"宜蘭縣羅東鎮羅莊里康莊路25號","lng":121.776909,"lat":24.670149,"abc":"B","service":"喘息服務","zones":["10002010","10002020","10002030","10002040","10002050","10002060","10002070","10002080","10002090","10002100","10002110","10002120"],"phone":"9532299","owner":"黃懷葶","start":"20220915","end":"20261231"},{"name":"禾富物理治療所","code":"B41700010","type":"B4","city":"10002","town":"10002010","addr":"宜蘭縣宜蘭市菜園里吉祥路102號","lng":121.755859,"lat":24.760313,"abc":"B","service":"專業照護服務","zones":["10002010"],"phone":"03-9322929","owner":"朱奕承","start":"20220922","end":"20270331"},{"name":"社團法人宜蘭縣社區照顧促進會附設宜蘭縣私立心安居社區式服務類長期照顧服務機構","code":"2R1700006","type":"2","city":"10002","town":"10002060","addr":"宜蘭縣壯圍鄉中央路二段265號","lng":121.785912,"lat":24.745983,"abc":"B","service":"喘息服務","zones":["10002010","10002020","10002030","10002040","10002050","10002060","10002070","10002080","10002090","10002100","10002110","10002120"],"phone":"03-9381265","owner":"林文明","start":"20260101","end":"20261231"},{"name":"國立陽明交通大學附設醫院","code":"B21700018","type":"B2","city":"10002","town":"10002010","addr":"宜蘭縣宜蘭市校舍路169號","lng":121.758766,"lat":24.750311,"abc":"B","service":"專業照護服務","zones":["10002010"],"phone":"03-9325192#73381","owner":"黃志賢","start":"20220929","end":"20270331"},{"name":"宜蘭縣私立福樂社區長照機構","code":"2X1700007","type":"2","city":"10002","town":"10002010","addr":"宜蘭縣宜蘭市南門里中山路三段85之1號1樓","lng":121.752533,"lat":24.757597,"abc":"B","service":"日間照顧服務(BB)","zones":["10002010","10002020","10002030","10002040","10002050","10002060","10002070","10002080","10002090","10002100","10002110","10002120"],"phone":"03-932-3333","owner":"陳志輝","start":"20260101","end":"20261231"},{"name":"宜蘭縣社區銀髮族服務協會附設私立同樂社區長照機構","code":"2N1700010","type":"2","city":"10002","town":"10002070","addr":"宜蘭縣員山鄉同樂村同新路182號","lng":121.729721,"lat":24.762075,"abc":"B","service":"日間照顧服務(BB)","zones":["10002010","10002020","10002030","10002040","10002050","10002060","10002070","10002080","10002090","10002100","10002110","10002120"],"phone":"03-9230191","owner":"林永固","start":"20260101","end":"20261231"},{"name":"老吉泰銀髮服務股份有限公司附設宜蘭縣私立老吉泰社區長照機構","code":"2N1700012","type":"2","city":"10002","town":"10002020","addr":"宜蘭縣羅東鎮仁愛里河濱路326號1-2號","lng":121.755157,"lat":24.699881,"abc":"B","service":"日間照顧服務(BB)","zones":["10002010","10002020","10002030","10002040","10002050","10002060","10002070","10002080","10002090","10002100","10002110","10002120"],"phone":"03-9651138","owner":"邱翊烜","start":"20260101","end":"20261231"},{"name":"開蘭安心物業股份有限公司附設宜蘭縣私立長興居社區長照機構","code":"2V1700003","type":"2","city":"10002","town":"10002010","addr":"宜蘭縣宜蘭市神農里神農路二段16巷8號","lng":121.75193,"lat":24.753834,"abc":"B","service":"日間照顧服務(BB)","zones":["10002010","10002020","10002030","10002040","10002050","10002060","10002070","10002080","10002090","10002100","10002110","10002120"],"phone":"03-9311030","owner":"陳玫君","start":"20260101","end":"20261231"},{"name":"宜蘭縣私立福樂社區長照機構","code":"2X1700007","type":"2","city":"10002","town":"10002010","addr":"宜蘭縣宜蘭市南門里中山路三段85之1號1樓","lng":121.752533,"lat":24.757597,"abc":"B","service":"喘息服務","zones":["10002010","10002020","10002030","10002040","10002050","10002060","10002070","10002080","10002090","10002100","10002110","10002120"],"phone":"03-932-3333","owner":"陳志輝","start":"20260101","end":"20261231"},{"name":"宜蘭縣長青關懷照顧協會-鹿埔社區","code":"BF1700038","type":"BF","city":"10002","town":"10002080","addr":"宜蘭縣冬山鄉鹿埔村鹿埔路490號","lng":121.750679,"lat":24.655798,"abc":"C","service":"巷弄長照站","zones":["10002080"],"phone":"03-9680367","owner":"","start":"20220101","end":"20221231"},