[{"name":"社團法人澎湖縣照顧服務協會附設澎湖縣私立照協居家式服務類長期照顧服務機構","code":"1R2000001","type":"1","city":"10016","town":"10016010","addr":"澎湖縣馬公市復興里介壽路7-1號","lng":119.560486,"lat":23.564207,"abc":"B","service":"居家服務","zones":["10016010","10016020","10016030","10016040","10016050","10016060"],"phone":"06-9274927","owner":"陳瑞慶","start":"20240701","end":"20261231"},{"name":"社團法人澎湖縣社會扶助關懷協會附設澎湖縣私立扶助居家式服務類長期照顧服務機構","code":"1R2000002","type":"1","city":"10016","town":"10016010","addr":"澎湖縣馬公市光榮里三多路370巷20號1樓","lng":119.578003,"lat":23.575806,"abc":"B","service":"居家服務","zones":["10016010","10016020","10016030","10016040","10016050","10016060"],"phone":"06-9211165","owner":"葉詠青","start":"20240101","end":"20261231"},{"name":"社團法人澎湖縣照顧服務協會(A-8)","code":"BE2000001","type":"BE","city":"10016","town":"10016010","addr":"澎湖縣馬公市復興里介壽路7-1號","lng":119.562065,"lat":23.567593,"abc":"A","service":"個案管理服務","zones":["10016010","10016030","10016040"],"phone":"06-9274927","owner":"陳瑞慶","start":"20250101","end":"20261231"},{"name":"財團法人平安社會福利慈善事業基金會","code":"BD2000001","type":"BD","city":"10016","town":"10016010","addr":"澎湖縣馬公市西文里新生路351號4樓","lng":119.580048,"lat":23.566517,"abc":"A","service":"個案管理服務","zones":["10016010","10016050"],"phone":"06-9218352","owner":"吳志仁","start":"20250101","end":"20261231"},{"name":"有限責任高雄市安祥照顧服務勞動合作社","code":"BF2000003","type":"BF","city":"10016","town":"10016010","addr":"澎湖縣馬公市西文里新店路397號","lng":119.58165,"lat":23.563148,"abc":"A","service":"個案管理服務","zones":["10016010","10016050","10016060"],"phone":"06-9217895","owner":"羅連春","start":"20240101","end":"20241231"},{"name":"財團法人平安社會福利慈善事業基金會附設澎湖縣私立平安望安社區式服務類長期照顧服務機構","code":"2S2000001","type":"2","city":"10016","town":"10016050","addr":"澎湖縣望安鄉水垵村40號","lng":119.50071,"lat":23.387939,"abc":"B","service":"日間照顧服務(BB)","zones":["10016050"],"phone":"06-9991195","owner":"吳志仁","start":"20240101","end":"20261231"},{"name":"澎湖縣馬公市興仁社區發展協會","code":"BF2000005","type":"BF","city":"10016","town":"10016010","addr":"澎湖縣馬公市興仁里47-1號","lng":119.610741,"lat":23.550446,"abc":"C","service":"巷弄長照站","zones":["10016010"],"phone":"06-9218561","owner":"蔡志鍐","start":"20230101","end":"20231231"},{"name":"澎湖縣馬公市朝陽社區發展協會","code":"BF2000007","type":"BF","city":"10016","town":"10016010","addr":"澎湖縣馬公市朝陽里文林街41號","lng":119.575691,"lat":23.5744,"abc":"C","service":"巷弄長照站","zones":["10016010"],"phone":"0933-695226","owner":"顏明清","start":"20230101","end":"20231231"},{"name":"澎湖縣馬公市烏崁社區發展協會","code":"BF2000008","type":"BF","city":"10016","town":"10016010","addr":"澎湖縣馬公市烏崁里78-2號","lng":119.620399,"lat":23.546396,"abc":"C","service":"巷弄長照站","zones":["10016010"],"phone":"0953455461","owner":"黃健忠","start":"20230101","end":"20231231"},{"name":"衛生福利部澎湖醫院老康健綜合式服務類長期照顧服務機構","code":"4A2000001","type":"4","city":"10016","town":"10016010","addr":"澎湖縣馬公市安宅里91-2號","lng":119.565742,"lat":23.564331,"abc":"B","service":"日間照顧服務(BB)","zones":["10016010"],"phone":"06-9261151#50810","owner":"匡勝捷","start":"20240101","end":"20261231"},{"name":"財團法人平安社會福利慈善事業基金會附設澎湖縣私立平安白沙社區式服務類長期照顧服務機構","code":"2S2000002","type":"2","city":"10016","town":"10016030","addr":"澎湖縣白沙鄉中屯村中屯99號","lng":119.597984,"lat":23.632996,"abc":"B","service":"日間照顧服務(BB)","zones":["10016030"],"phone":"06-9933531","owner":"吳志仁","start":"20240101","end":"20261231"},{"name":"衛生福利部澎湖老人之家","code":"A12000002","type":"A1","city":"10016","town":"10016010","addr":"澎湖縣馬公市光華里123號","lng":119.603119,"lat":23.559853,"abc":"B","service":"日間照顧服務(BB)","zones":["10016010"],"phone":"(06)921-7056","owner":"王語莉","start":"20240101","end":"20261231","beds":88,"residents":61},{"name":"澎湖縣馬公市光明里辦公處","code":"BG2000001","type":"BG","city":"10016","town":"10016010","addr":"澎湖縣馬公市光明里信義路9巷26號","lng":119.567825,"lat":23.571445,"abc":"C","service":"巷弄長照站","zones":["10016010"],"phone":"06-9270885","owner":"陳黃淑媛","start":"20230101","end":"20231231"},{"name":"社團法人澎湖縣照顧服務協會(復興里巷弄長照站)","code":"BE2000005","type":"BE","city":"10016","town":"10016010","addr":"澎湖縣馬公市復興里介壽路7-1號","lng":119.560486,"lat":23.564207,"abc":"C","service":"巷弄長照站","zones":["10016010"],"phone":"06-9274927","owner":"李豫花","start":"20230101","end":"20231231"},{"name":"社團法人澎湖縣照顧服務協會(港子村巷弄長照站)","code":"BE2000006","type":"BE","city":"10016","town":"10016030","addr":"澎湖縣白沙鄉港子村54-2號","lng":119.60025,"lat":23.648876,"abc":"C","service":"巷弄長照站","zones":["10016030"],"phone":"06-9274927","owner":"李豫花","start":"20230101","end":"20231231"},{"name":"社團法人澎湖縣照顧服務協會(龍門村巷弄長照站)\t","code":"BE2000007","type":"BE","city":"10016","town":"10016020","addr":"澎湖縣湖西鄉龍門村99-1號","lng":119.672333,"lat":23.563904,"abc":"C","service":"巷弄長照站","zones":["10016020"],"phone":"06-9274927","owner":"李豫花","start":"20230101","end":"20231231"},{"name":"澎湖縣馬公市五德社區發展協會","code":"BF2000001","type":"BF","city":"10016","town":"10016010","addr":"澎湖縣馬公市五德里77-3號","lng":119.586487,"lat":23.528814,"abc":"C","service":"巷弄長照站","zones":["10016010"],"phone":"9951738","owner":"歐彩雲","start":"20230101","end":"20231231"},{"name":"天主教靈醫會醫療財團法人惠民醫院","code":"B22000001","type":"B2","city":"10016","town":"10016010","addr":"澎湖縣馬公市光復里樹德路14號","lng":119.56868,"lat":23.568913,"abc":"C","service":"巷弄長照站","zones":["10016010"],"phone":"06-9272318","owner":"黃浩然","start":"20230101","end":"20231231"},{"name":"澎湖縣七美鄉西湖社區發展協會","code":"BF2000009","type":"BF","city":"10016","town":"10016060","addr":"澎湖縣七美鄉西湖村6鄰38號","lng":119.42942,"lat":23.214766,"abc":"C","service":"巷弄長照站","zones":["10016060"],"phone":"9971012","owner":"許進徒","start":"20230101","end":"20231231"},{"name":"澎湖縣馬公市鐵線社區發展協會","code":"BF2000010","type":"BF","city":"10016","town":"10016010","addr":"澎湖縣馬公市鐵線里4-5號","lng":119.598495,"lat":23.532637,"abc":"C","service":"巷弄長照站","zones":["10016010"],"phone":"0972855289","owner":"陳志清","start":"20230101","end":"20231231"},{"name":"財團法人伊甸社會福利基金會","code":"BD2000002","type":"BD","city":"10016","town":"10016010","addr":"澎湖縣馬公市西文里西文澳165號","lng":119.591179,"lat":23.563053,"abc":"B","service":"交通接送服務(DA01)","zones":["10016010","10016020","10016030","10016040","10016050","10016060"],"phone":"06-9212239","owner":"陳宇昭","start":"20250101","end":"20271231"},{"name":"澎湖縣湖西鄉湖西社區發展協會","code":"BF2000012","type":"BF","city":"10016","town":"10016020","addr":"澎湖縣湖西鄉湖西村11-6號","lng":119.658569,"lat":23.585541,"abc":"C","service":"巷弄長照站","zones":["10016020"],"phone":"9920859","owner":"辛天澤","start":"20230101","end":"20231231"},{"name":"澎湖縣私立千樂社區長照機構","code":"2X2000001","type":"2","city":"10016","town":"10016010","addr":"澎湖縣馬公市石泉里2-51號2樓","lng":119.594391,"lat":23.559563,"abc":"B","service":"家庭托顧服務(BC)","zones":["10016010"],"phone":"06-9211577","owner":"曾柏菘","start":"20240101","end":"20261231"},{"name":"財團法人平安社會福利慈善事業基金會附設澎湖縣私立馬公社區式服務類長期照顧服務機構","code":"2S2000005","type":"2","city":"10016","town":"10016010","addr":"澎湖縣馬公市西文里新生路351號1樓","lng":119.580421,"lat":23.566483,"abc":"B","service":"小規模多機能服務","zones":["10016010","10016020","10016030","10016040","10016050","10016060"],"phone":"06-9218352","owner":"吳志仁","start":"20240101","end":"20261231"},{"name":"社團法人澎湖縣社會扶助關懷協會(A-2)","code":"BE2000008","type":"BE","city":"10016","town":"10016010","addr":"澎湖縣馬公市朝陽里林森路103號","lng":119.578003,"lat":23.575806,"abc":"A","service":"個案管理服務","zones":["10016010","10016020","10016030"],"phone":"06-9211165","owner":"葉詠青","start":"20250101","end":"20281231"},{"name":"澎湖縣七美鄉平和社區發展協會","code":"BF2000013","type":"BF","city":"10016","town":"10016060","addr":"澎湖縣七美鄉平和村23-1號","lng":119.421288,"lat":23.20923,"abc":"C","service":"巷弄長照站","zones":["10016060"],"phone":"0937603658","owner":"蔡美華","start":"20230101","end":"20231231"},{"name":"澎湖縣馬公市東文社區發展協會","code":"BF2000014","type":"BF","city":"10016","town":"10016010","addr":"澎湖縣馬公市東文里民富街46號","lng":119.583054,"lat":23.562128,"abc":"C","service":"巷弄長照站","zones":["10016010"],"phone":"06-9210124","owner":"蔡文章","start":"20230101","end":"20231231"},{"name":"澎湖縣湖西鄉鼎灣社區發展協會","code":"BF2000016","type":"BF","city":"10016","town":"10016020","addr":"澎湖縣湖西鄉鼎灣村37號","lng":119.61692,"lat":23.59304,"abc":"C","service":"巷弄長照站","zones":["10016020"],"phone":"0932723821","owner":"洪良利","start":"20230101","end":"20231231"},{"name":"澎湖縣白沙鄉小赤社區發展協會","code":"BF2000017","type":"BF","city":"10016","town":"10016030","addr":"澎湖縣白沙鄉小赤村11-8號","lng":119.59758,"lat":23.659832,"abc":"C","service":"巷弄長照站","zones":["10016030"],"phone":"0963130818","owner":"林美惠","start":"20230101","end":"20231231"},{"name":"江明儒耳鼻喉科診所","code":"B22000024","type":"B2","city":"10016","town":"10016010","addr":"澎湖縣馬公市大勇街65號","lng":119.571465,"lat":23.572147,"abc":"B","service":"居家失能個案家庭醫師照護服務","zones":["10016010"],"phone":"0920310461","owner":"江明儒","start":"20200717","end":"20211231"},{"name":"澎湖縣白沙鄉中屯社區發展協會","code":"BF2000019","type":"BF","city":"10016","town":"10016030","addr":"澎湖縣白沙鄉中屯村28-1號","lng":119.603943,"lat":23.61306,"abc":"C","service":"巷弄長照站","zones":["10016030"],"phone":"0981391190","owner":"李秋霜","start":"20230101","end":"20231231"},{"name":"澎湖縣望安鄉花嶼社區發展協會","code":"BF2000020","type":"BF","city":"10016","town":"10016050","addr":"澎湖縣望安鄉花嶼村27號","lng":119.321846,"lat":23.399885,"abc":"C","service":"巷弄長照站","zones":["10016050"],"phone":"0910977354","owner":"王淳永","start":"20210101","end":"20211231"},{"name":"旭登護理之家附設澎湖縣私立旭安菓葉社區式服務類長期照顧服務機構","code":"2U2000001","type":"2","city":"10016","town":"10016020","addr":"澎湖縣湖西鄉菓葉村171號2樓","lng":119.676414,"lat":23.579821,"abc":"B","service":"日間照顧服務(BB)","zones":["10016020"],"phone":"06-9920619","owner":"李麗珠","start":"20231231","end":"20281231"},{"name":"澎湖縣湖西鄉菓葉社區發展協會","code":"BF2000018","type":"BF","city":"10016","town":"10016020","addr":"澎湖縣湖西鄉菓葉村94-4號","lng":119.68029,"lat":23.577723,"abc":"C","service":"巷弄長照站","zones":["10016020"],"phone":"0937391928","owner":"許成光","start":"20230101","end":"20231231"},{"name":"澎湖縣白沙鄉後寮社區發展協會","code":"BF2000021","type":"BF","city":"10016","town":"10016030","addr":"澎湖縣白沙鄉後寮村45-1號","lng":119.57531,"lat":23.667694,"abc":"C","service":"巷弄長照站","zones":["10016030"],"phone":"0932846960","owner":"葉文泉","start":"20230101","end":"20231231"},{"name":"澎湖縣七美鄉東湖社區發展協會","code":"BF2000022","type":"BF","city":"10016","town":"10016060","addr":"澎湖縣七美鄉東湖村39-1號","lng":119.437592,"lat":23.210999,"abc":"C","service":"巷弄長照站","zones":["10016060"],"phone":"0910945312","owner":"林碧雲","start":"20230101","end":"20211231"},{"name":"正承復健科診所","code":"B22000004","type":"B2","city":"10016","town":"10016010","addr":"澎湖縣馬公市西文里新生路501號","lng":119.583611,"lat":23.565025,"abc":"B","service":"專業照護服務","zones":["10016010","10016020","10016030","10016040"],"phone":"06-9210308","owner":"許正澂","start":"20200101","end":"20240229"},{"name":"澎湖縣政府社會處(老人營養餐飲服務)","code":"BG2000007","type":"BG","city":"10016","town":"10016010","addr":"澎湖縣馬公市復興里介壽路7-1號","lng":119.561569,"lat":23.567373,"abc":"B","service":"營養餐飲服務","zones":["10016010","10016020","10016030","10016040","10016050","10016060"],"phone":"06-9260560","owner":"莊湘綾","start":"20201201","end":"20261231"},{"name":"澎湖縣馬公市菜園社區發展協會","code":"BF2000002","type":"BF","city":"10016","town":"10016010","addr":"澎湖縣馬公市菜園里菜園46-1號","lng":119.595581,"lat":23.551022,"abc":"C","service":"巷弄長照站","zones":["10016010"],"phone":"06-9219426","owner":"黃文隆","start":"20230101","end":"20231231"},{"name":"澎湖縣望安鄉西安社區發展協會","code":"BF2000023","type":"BF","city":"10016","town":"10016050","addr":"澎湖縣望安鄉西安村26-2號","lng":119.497459,"lat":23.358063,"abc":"C","service":"巷弄長照站","zones":["10016050"],"phone":"9991096","owner":"許宜祜","start":"20230101","end":"20231231"},{"name":"澎湖縣七美鄉中和村辦公處","code":"BG2000008","type":"BG","city":"10016","town":"10016060","addr":"澎湖縣七美鄉中和村5鄰41-1號","lng":119.433479,"lat":23.205559,"abc":"C","service":"巷弄長照站","zones":["10016060"],"phone":"06-9971076","owner":"李清石","start":"20230101","end":"20231231"},{"name":"澎湖縣湖西鄉隘門社區發展協會","code":"BF2000025","type":"BF","city":"10016","town":"10016020","addr":"澎湖縣湖西鄉隘門村41-1號","lng":119.636902,"lat":23.561693,"abc":"C","service":"巷弄長照站","zones":["10016010","10016020"],"phone":"06-9228516","owner":"李文智","start":"20230101","end":"20231231"},{"name":"澎湖縣馬公市鎖港社區發展協會","code":"BF2000024","type":"BF","city":"10016","town":"10016010","addr":"澎湖縣馬公市鎖港里633號","lng":119.602921,"lat":23.526167,"abc":"C","service":"巷弄長照站","zones":["10016010"],"phone":"06-9950589","owner":"陳清接","start":"20230101","end":"20231231"},{"name":"澎湖縣湖西鄉北寮社區發展協會","code":"BF2000026","type":"BF","city":"10016","town":"10016020","addr":"澎湖縣湖西鄉北寮村25-2號","lng":119.669197,"lat":23.598475,"abc":"C","service":"巷弄長照站","zones":["10016020"],"phone":"0911883704","owner":"許源章","start":"20230101","end":"20231231"},{"name":"澎湖縣私立家安心居家長照機構","code":"1X2000001","type":"1","city":"10016","town":"10016010","addr":"澎湖縣馬公市朝陽里24鄰朝陽路6號1樓","lng":119.591637,"lat":23.562859,"abc":"B","service":"居家服務","zones":["10016010","10016020","10016030","10016040","10016050","10016060"],"phone":"06-9210351","owner":"陳秀滿","start":"20240701","end":"20261231"},{"name":"天主教靈醫會醫療財團法人附設澎湖縣私立惠民居家長照機構","code":"1U2000001","type":"1","city":"10016","town":"10016010","addr":"澎湖縣馬公市光榮里光榮街93號2樓","lng":119.57354,"lat":23.575754,"abc":"B","service":"居家服務","zones":["10016010","10016020","10016030","10016040","10016050","10016060"],"phone":"06-9272318","owner":"黃浩然","start":"20240701","end":"20261231"},{"name":"澎湖縣私立芳悅居家長照機構","code":"1X2000002","type":"1","city":"10016","town":"10016010","addr":"澎湖縣馬公市東文里11鄰東文澳179-4號2樓","lng":119.59108,"lat":23.562801,"abc":"B","service":"居家服務","zones":["10016010","10016020","10016030","10016040","10016050","10016060"],"phone":"06-9221910","owner":"陳宥羚","start":"20240701","end":"20261231"},{"name":"千樂長照有限公司附設澎湖縣私立千賀居家長照機構","code":"1V2000001","type":"1","city":"10016","town":"10016010","addr":"澎湖縣馬公市石泉里2之51號","lng":119.594391,"lat":23.559563,"abc":"B","service":"居家服務","zones":["10016010","10016020","10016030","10016040","10016050","10016060"],"phone":"06-9217895","owner":"羅承妤","start":"20240701","end":"20261231"},{"name":"天主教靈醫會醫療財團法人惠民醫院","code":"B22000001","type":"B2","city":"10016","town":"10016010","addr":"澎湖縣馬公市光復里樹德路14號","lng":119.56868,"lat":23.568913,"abc":"A","service":"個案管理服務","zones":["10016010","10016060"],"phone":"06-9272318","owner":"黃浩然","start":"20250101","end":"20261231"},{"name":"慈輝家醫科診所","code":"B22000028","type":"B2","city":"10016","town":"10016010","addr":"澎湖縣馬公市陽明里大勇街6號","lng":119.572624,"lat":23.571421,"abc":"B","service":"居家失能個案家庭醫師照護服務","zones":["10016010"],"phone":"06-9260669","owner":"謝鵬輝","start":"20220101","end":"20221231"},{"name":"和沐診所","code":"B22000029","type":"B2","city":"10016","town":"10016020","addr":"澎湖縣湖西鄉湖西村75-10號","lng":119.658501,"lat":23.584415,"abc":"B","service":"居家失能個案家庭醫師照護服務","zones":["10016010","10016020","10016030"],"phone":"06-9921112","owner":"陳豪騫","start":"20211201","end":"20221231"},{"name":"澎湖縣馬公市重光社區發展協會","code":"BF2000030","type":"BF","city":"10016","town":"10016010","addr":"澎湖縣馬公市重光里52號","lng":119.572327,"lat":23.58507,"abc":"C","service":"巷弄長照站","zones":["10016010"],"phone":"06-9275232","owner":"薛富益","start":"20230101","end":"20231231"},{"name":"澎湖縣私立泓光社區長照機構","code":"2X2000002","type":"2","city":"10016","town":"10016020","addr":"澎湖縣湖西鄉龍門村119之68號","lng":119.676758,"lat":23.559847,"abc":"B","service":"家庭托顧服務(BC)","zones":["10","10016010","10016020","10016030","10016040","10016050","10016060","15","20","25","30","5"],"phone":"0952238401","owner":"陳李錦珠","start":"20240101","end":"20261231"},{"name":"澎湖縣全人關懷保健協會附設澎湖縣私立全人居家長照機構","code":"1N2000002","type":"1","city":"10016","town":"10016010","addr":"澎湖縣馬公市光明里文光路82號1樓","lng":119.579498,"lat":23.580215,"abc":"B","service":"居家服務","zones":["10016010","10016020","10016030","10016040","10016050","10016060"],"phone":"06-9268805","owner":"林姿妤","start":"20240701","end":"20261231"},{"name":"台灣康復促進協會附設澎湖縣私立菊光居家長照機構","code":"1N2000001","type":"1","city":"10016","town":"10016010","addr":"澎湖縣馬公市光榮里19鄰成功街2-6號1樓","lng":119.570251,"lat":23.576464,"abc":"B","service":"居家服務","zones":["10016010","10016020","10016030","10016040","10016050","10016060"],"phone":"06-9271662","owner":"陳世鐘","start":"20240701","end":"20261231"},{"name":"澎湖縣湖西鄉白坑社區發展協會","code":"BF2000031","type":"BF","city":"10016","town":"10016020","addr":"澎湖縣湖西鄉白坑村1-3號","lng":119.658836,"lat":23.59403,"abc":"C","service":"巷弄長照站","zones":["10016020"],"phone":"06-9921025","owner":"許智哲","start":"20230101","end":"20231231"},{"name":"旭登護理之家附設澎湖縣私立旭安菓葉社區式服務類長期照顧服務機構","code":"2U2000001","type":"2","city":"10016","town":"10016020","addr":"澎湖縣湖西鄉菓葉村171號2樓","lng":119.676414,"lat":23.579821,"abc":"B","service":"社區式交通接送服務(BD03)","zones":["10016020"],"phone":"06-9920619","owner":"李麗珠","start":"20220624","end":"20251231"},{"name":"澎湖縣西嶼鄉橫礁社區發展協會","code":"BF2000033","type":"BF","city":"10016","town":"10016040","addr":"澎湖縣西嶼鄉橫礁村37-1號","lng":119.537155,"lat":23.634014,"abc":"C","service":"巷弄長照站","zones":["10016040"],"phone":"06-9984385","owner":"王秋雲","start":"20230101","end":"20231231"},{"name":"澎湖縣七美鄉南港社區發展協會","code":"BF2000034","type":"BF","city":"10016","town":"10016060","addr":"澎湖縣七美鄉南港村43號","lng":119.421432,"lat":23.195332,"abc":"C","service":"巷弄長照站","zones":["10016060"],"phone":"06-9971014","owner":"夏阿信","start":"20230101","end":"20231231"},{"name":"社團法人澎湖縣照顧服務協會(A-3)","code":"BE2000010","type":"BE","city":"10016","town":"10016010","addr":"澎湖縣馬公市復興里介壽路7-1號","lng":119.560486,"lat":23.564207,"abc":"A","service":"個案管理服務","zones":["10016020","10016030"],"phone":"06-9274927","owner":"陳瑞慶","start":"20250101","end":"20261231"},{"name":"社團法人澎湖縣社會扶助關懷協會(A-5)","code":"BE2000011","type":"BE","city":"10016","town":"10016010","addr":"澎湖縣馬公市朝陽里林森路103號","lng":119.578003,"lat":23.575806,"abc":"A","service":"個案管理服務","zones":["10016010","10016030"],"phone":"06-9211165","owner":"葉詠青","start":"20250101","end":"20281231"},{"name":"社團法人澎湖縣社會扶助關懷協會(A-2)","code":"BE2000008","type":"BE","city":"10016","town":"10016010","addr":"澎湖縣馬公市朝陽里林森路103號","lng":119.578003,"lat":23.575806,"abc":"B","service":"社區式交通接送服務(BD03)","zones":["10016010","10016020","10016030"],"phone":"06-9211165","owner":"葉詠青","start":"20250101","end":"20281231"},{"name":"有限責任高雄市安祥照顧服務勞動合作社","code":"BF2000003","type":"BF","city":"10016","town":"10016010","addr":"澎湖縣馬公市西文里新店路397號","lng":119.58165,"lat":23.563148,"abc":"B","service":"社區式交通接送服務(BD03)","zones":["10016010"],"phone":"06-9217895","owner":"羅連春","start":"20240101","end":"20241231"},{"name":"財團法人平安社會福利慈善事業基金會","code":"BD2000001","type":"BD","city":"10016","town":"10016010","addr":"澎湖縣馬公市西文里新生路351號4樓","lng":119.580048,"lat":23.566517,"abc":"B","service":"社區式交通接送服務(BD03)","zones":["10016010","10016050"],"phone":"06-9218352","owner":"吳志仁","start":"20250101","end":"20261231"},{"name":"社團法人澎湖縣照顧服務協會(A-8)","code":"BE2000001","type":"BE","city":"10016","town":"10016010","addr":"澎湖縣馬公市復興里介壽路7-1號","lng":119.562065,"lat":23.567593,"abc":"B","service":"社區式交通接送服務(BD03)","zones":["10016010","10016040"],"phone":"06-9274927","owner":"陳瑞慶","start":"20250101","end":"20261231"},{"name":"和沐診所","code":"B22000029","type":"B2","city":"10016","town":"10016020","addr":"澎湖縣湖西鄉湖西村75-10號","lng":119.658501,"lat":23.584415,"abc":"B","service":"居家失能個案家庭醫師照護服務","zones":["10016020"],"phone":"06-9921112","owner":"陳豪騫","start":"20230101","end":"20251231"},{"name":"澎湖縣私立家安心居家長照機構","code":"1X2000001","type":"1","city":"10016","town":"10016010","addr":"澎湖縣馬公市朝陽里24鄰朝陽路6號1樓","lng":119.591637,"lat":23.562859,"abc":"B","service":"到宅沐浴車服務","zones":["10016010","10016020","10016030","10016040"],"phone":"06-9210351","owner":"陳秀滿","start":"20240701","end":"20261231"},{"name":"天主教靈醫會醫療財團法人惠民醫院","code":"B22000001","type":"B2","city":"10016","town":"10016010","addr":"澎湖縣馬公市光復里樹德路14號","lng":119.56868,"lat":23.568913,"abc":"B","service":"交通接送服務(DA01)","zones":["10016010","10016020","10016030","10016040","10016050","10016060"],"phone":"06-9272318","owner":"黃浩然","start":"20250101","end":"20271231"},{"name":"澎湖縣白沙鄉惜福長青協會","code":"BF2000048","type":"BF","city":"10016","town":"10016030","addr":"澎湖縣白沙鄉吉貝村1-1號","lng":119.613411,"lat":23.741367,"abc":"C","service":"巷弄長照站","zones":["10016030"],"phone":"093379429","owner":"謝長財","start":"20230313","end":"20231231"},{"name":"澎湖縣白沙鄉城前社區發展協會","code":"BF2000045","type":"BF","city":"10016","town":"10016030","addr":"澎湖縣白沙鄉城前村17-1號","lng":119.595505,"lat":23.626045,"abc":"C","service":"巷弄長照站","zones":["10016030"],"phone":"9931985","owner":"蕭玉琳","start":"20230201","end":"20231231"},{"name":"周明河小兒科診所","code":"B22000031","type":"B2","city":"10016","town":"10016010","addr":"澎湖縣馬公市陽明里陽明路33號","lng":119.574722,"lat":23.572723,"abc":"B","service":"居家失能個案家庭醫師照護服務","zones":["10016010"],"phone":"06-9264080","owner":"周明河","start":"20230711","end":"20240710"},{"name":"社團法人臺灣愛無距社會福利協會","code":"BE2000012","type":"BE","city":"10016","town":"10016030","addr":"澎湖縣白沙鄉岐頭村岐頭33號","lng":119.609932,"lat":23.650579,"abc":"B","service":"到宅沐浴車服務","zones":["10016010","10016020","10016030","10016040"],"phone":"06-9932222","owner":"賴素梅","start":"20240701","end":"20261231"},{"name":"正承復健科診所","code":"B22000004","type":"B2","city":"10016","town":"10016010","addr":"澎湖縣馬公市西文里新生路501號","lng":119.583611,"lat":23.565025,"abc":"B","service":"專業照護服務(CC01)","zones":["10016010","10016020","10016030","10016040","10016050","10016060"],"phone":"06-9210308","owner":"許正澂","start":"20200101","end":"20240229"},{"name":"澎湖縣私立彌勒社區長照機構","code":"2X2000004","type":"2","city":"10016","town":"10016010","addr":"澎湖縣馬公市東文里文明路89號六樓","lng":119.585815,"lat":23.561167,"abc":"B","service":"家庭托顧服務(BC)","zones":["10","10016010","10016020","10016030","10016040","10016050","10016060","5"],"phone":"9215397","owner":"劉金愛","start":"20250101","end":"20261231"},{"name":"澎湖縣私立七美社區長照機構","code":"2X2000005","type":"2","city":"10016","town":"10016060","addr":"澎湖縣七美鄉中和村埔內60號","lng":119.429611,"lat":23.206247,"abc":"B","service":"小規模多機能服務","zones":["10016060"],"phone":"06-9971900","owner":"林淑惠","start":"20251201","end":"20281231"},{"name":"財團法人平安社會福利慈善事業基金會附設澎湖縣私立馬公社區式服務類長期照顧服務機構","code":"2S2000005","type":"2","city":"10016","town":"10016010","addr":"澎湖縣馬公市西文里新生路351號1樓","lng":119.580421,"lat":23.566483,"abc":"B","service":"喘息服務","zones":["10016010","10016020","10016030","10016040","10016050","10016060"],"phone":"06-9218352","owner":"吳志仁","start":"20240601","end":"20271231"},{"name":"財團法人平安社會福利慈善事業基金會附設澎湖縣私立馬公社區式服務類長期照顧服務機構","code":"2S2000005","type":"2","city":"10016","town":"10016010","addr":"澎湖縣馬公市西文里新生路351號1樓","lng":119.580421,"lat":23.566483,"abc":"B","service":"小規模多機能服務","zones":["10016010","10016020","10016030","10016040","10016050","10016060"],"phone":"06-9218352","owner":"吳志仁","start":"20240601","end":"20271231"},{"name":"澎湖縣馬公市嵵裡社區發展協會","code":"BF2000049","type":"BF","city":"10016","town":"10016010","addr":"澎湖縣馬公市嵵裡里99-8號","lng":119.57164,"lat":23.524408,"abc":"C","service":"巷弄長照站","zones":["10016010"],"phone":"0932-815933","owner":"陳登有","start":"20230101","end":"20241231"},{"name":"社團法人澎湖縣社會扶助關懷協會附設澎湖縣私立扶助西嶼社區長照機構","code":"2R2000001","type":"2","city":"10016","town":"10016040","addr":"澎湖縣西嶼鄉小門村11之9號","lng":119.516647,"lat":23.65407,"abc":"B","service":"日間照顧服務(BB)","zones":["10016010","10016020","10016030","10016040","10016050","10016060"],"phone":"(06)921-1165","owner":"葉詠青","start":"20251201","end":"20281231"},{"name":"周明河小兒科診所","code":"B22000031","type":"B2","city":"10016","town":"10016010","addr":"澎湖縣馬公市陽明里陽明路33號","lng":119.574722,"lat":23.572723,"abc":"B","service":"居家失能個案家庭醫師照護服務","zones":["10016010"],"phone":"06-9264080","owner":"周明河","start":"20240711","end":"20261231"},{"name":"澎湖縣白沙鄉衛生所","code":"B22000002","type":"B2","city":"10016","town":"10016030","addr":"澎湖縣白沙鄉赤崁村359號","lng":119.598221,"lat":23.666767,"abc":"B","service":"居家失能個案家庭醫師照護服務","zones":["10016030"],"phone":"06-9931044","owner":"李政鋒","start":"20240729","end":"20261231"},{"name":"澎湖縣七美鄉衛生所","code":"B22000026","type":"B2","city":"10016","town":"10016060","addr":"澎湖縣七美鄉中和村10鄰54號","lng":119.430962,"lat":23.204103,"abc":"B","service":"居家失能個案家庭醫師照護服務","zones":["10016060"],"phone":"06-9971005","owner":"劉立翔","start":"20240729","end":"20261231"},{"name":"澎湖縣白沙鄉吉貝衛生所","code":"B22000005","type":"B2","city":"10016","town":"10016030","addr":"澎湖縣白沙鄉吉貝村8-13號","lng":119.60833,"lat":23.744722,"abc":"B","service":"居家失能個案家庭醫師照護服務","zones":["10016030"],"phone":"06-9911430","owner":"呂昭言","start":"20240801","end":"20261231"},{"name":"澎湖縣馬公市第一衛生所","code":"B22000022","type":"B2","city":"10016","town":"10016010","addr":"澎湖縣馬公市中興里樹德路36號","lng":119.567108,"lat":23.569019,"abc":"B","service":"居家失能個案家庭醫師照護服務","zones":["10016010"],"phone":"06-9273958","owner":"陳世傑","start":"20240722","end":"20261231"},{"name":"澎湖縣馬公市第二衛生所","code":"B22000015","type":"B2","city":"10016","town":"10016010","addr":"澎湖縣馬公市鎖港里240號","lng":119.600868,"lat":23.529358,"abc":"B","service":"居家失能個案家庭醫師照護服務","zones":["10016010"],"phone":"06-9951354","owner":"劉立翔","start":"20240722","end":"20261231"},{"name":"澎湖縣馬公市第三衛生所","code":"B22000007","type":"B2","city":"10016","town":"10016010","addr":"澎湖縣馬公市西文里118-2號","lng":119.583649,"lat":23.568129,"abc":"B","service":"居家失能個案家庭醫師照護服務","zones":["10016010"],"phone":"06-9211723","owner":"陳俊宇","start":"20240722","end":"20261231"},{"name":"澎湖縣湖西鄉衛生所","code":"B22000016","type":"B2","city":"10016","town":"10016020","addr":"澎湖縣湖西鄉湖西村151-1號","lng":119.661339,"lat":23.583895,"abc":"B","service":"居家失能個案家庭醫師照護服務","zones":["10016020"],"phone":"06-9921271","owner":"謝啟文","start":"20240722","end":"20261231"},{"name":"澎湖縣西嶼鄉衛生所","code":"B22000014","type":"B2","city":"10016","town":"10016040","addr":"澎湖縣西嶼鄉池東村222號","lng":119.510239,"lat":23.599253,"abc":"B","service":"居家失能個案家庭醫師照護服務","zones":["10016040"],"phone":"06-9981115","owner":"呂明穎","start":"20240722","end":"20261231"},{"name":"澎湖縣望安鄉衛生所","code":"B22000009","type":"B2","city":"10016","town":"10016050","addr":"澎湖縣望安鄉西安村36-7號","lng":119.497223,"lat":23.361607,"abc":"B","service":"居家失能個案家庭醫師照護服務","zones":["10016050"],"phone":"06-9991036","owner":"吳文和","start":"20240722","end":"20261231"},{"name":"澎湖縣望安鄉將軍衛生所","code":"B22000023","type":"B2","city":"10016","town":"10016050","addr":"澎湖縣望安鄉將軍村1-3號","lng":119.521568,"lat":23.361504,"abc":"B","service":"居家失能個案家庭醫師照護服務","zones":["10016050"],"phone":"0912103839","owner":"林家慶","start":"20240722","end":"20261231"},{"name":"澎湖縣白沙鄉鳥嶼衛生所","code":"B22000006","type":"B2","city":"10016","town":"10016030","addr":"澎湖縣白沙鄉鳥嶼村漁港新村3號","lng":119.660088,"lat":23.660017,"abc":"B","service":"居家失能個案家庭醫師照護服務","zones":["10016030"],"phone":"06-9916092","owner":"黃尚誠","start":"20240722","end":"20261231"},{"name":"松青診所","code":"B22000010","type":"B2","city":"10016","town":"10016010","addr":"澎湖縣馬公市東文里文山路31號","lng":119.58519,"lat":23.562668,"abc":"B","service":"居家失能個案家庭醫師照護服務","zones":["10016010"],"phone":"0932836843","owner":"李松青","start":"20240726","end":"20261231"},{"name":"李明杰診所","code":"B22000018","type":"B2","city":"10016","town":"10016010","addr":"澎湖縣馬公市陽明里海埔路93號","lng":119.573006,"lat":23.569054,"abc":"B","service":"居家失能個案家庭醫師照護服務","zones":["10016010"],"phone":"06-9276695","owner":"李明杰","start":"20240726","end":"20261231"},{"name":"公仁診所","code":"B22000017","type":"B2","city":"10016","town":"10016010","addr":"澎湖縣馬公市長安里民生路27-3號","lng":119.565453,"lat":23.56756,"abc":"B","service":"居家失能個案家庭醫師照護服務","zones":["10016010"],"phone":"06-9272002","owner":"謝祖錚","start":"20240726","end":"20261231"},{"name":"胡迪文婦產科診所","code":"B22000021","type":"B2","city":"10016","town":"10016010","addr":"澎湖縣馬公市三多路177號","lng":119.574516,"lat":23.57605,"abc":"B","service":"居家失能個案家庭醫師照護服務","zones":["10016010"],"phone":"06-9264681","owner":"胡迪文","start":"20240726","end":"20261231"},{"name":"張維仁內科診所","code":"B22000025","type":"B2","city":"10016","town":"10016010","addr":"澎湖縣馬公市永安街23號","lng":119.572647,"lat":23.572531,"abc":"B","service":"居家失能個案家庭醫師照護服務","zones":["10016010"],"phone":"06-9278066","owner":"張維仁","start":"20240726","end":"20261231"},{"name":"育安家庭醫學科診所","code":"B22000019","type":"B2","city":"10016","town":"10016020","addr":"澎湖縣湖西鄉龍門村23-3號","lng":119.675804,"lat":23.563147,"abc":"B","service":"居家失能個案家庭醫師照護服務","zones":["10016020"],"phone":"06-9923379","owner":"莊書碩","start":"20240726","end":"20261231"},{"name":"惠安診所","code":"B22000027","type":"B2","city":"10016","town":"10016010","addr":"澎湖縣馬公市長安里建國路19號","lng":119.566109,"lat":23.566547,"abc":"B","service":"居家失能個案家庭醫師照護服務","zones":["10016010","10016020","10016030","10016040"],"phone":"06-9273718","owner":"陳俊吉","start":"20240726","end":"20261231"},{"name":"衛生福利部澎湖醫院","code":"B22000003","type":"B2","city":"10016","town":"10016010","addr":"澎湖縣馬公市啟明中正路10號","lng":119.565742,"lat":23.564331,"abc":"B","service":"居家失能個案家庭醫師照護服務","zones":["10016010","10016020","10016030","10016040"],"phone":"06-9261151","owner":"匡勝捷","start":"20240701","end":"20261231"},{"name":"高植澎診所","code":"B22000030","type":"B2","city":"10016","town":"10016010","addr":"澎湖縣馬公市鎖港里405號","lng":119.600975,"lat":23.527145,"abc":"B","service":"居家失能個案家庭醫師照護服務","zones":["10016010"],"phone":"06-9950655","owner":"高植澎","start":"20240726","end":"20261231"},{"name":"天主教靈醫會醫療財團法人惠民醫院","code":"B22000001","type":"B2","city":"10016","town":"10016010","addr":"澎湖縣馬公市光復里樹德路14號","lng":119.56868,"lat":23.568913,"abc":"B","service":"居家失能個案家庭醫師照護服務","zones":["10016010","10016020","10016030"],"phone":"06-9272318","owner":"黃浩然","start":"20240709","end":"20261231"},{"name":"社團法人澎湖縣社會扶助關懷協會附設澎湖縣私立扶助西嶼社區長照機構","code":"2R2000001","type":"2","city":"10016","town":"10016040","addr":"澎湖縣西嶼鄉小門村11之9號","lng":119.516647,"lat":23.65407,"abc":"B","service":"喘息服務","zones":["10016010","10016020","10016030","10016040","10016050","10016060"],"phone":"(06)921-1165","owner":"葉詠青","start":"20240812","end":"20251231"},{"name":"澎湖縣私立寀姿社區長照機構","code":"2X2000007","type":"2","city":"10016","town":"10016020","addr":"澎湖縣湖西鄉菓葉村18鄰菓葉170之1號","lng":119.676598,"lat":23.578419,"abc":"B","service":"家庭托顧服務(BC)","zones":["10","10016010","10016020","10016030","10016040","15","5"],"phone":"0908161201","owner":"潘寀粟","start":"20260101","end":"20261231"},{"name":"瀞心居家護理所","code":"B12000017","type":"B1","city":"10016","town":"10016010","addr":"澎湖縣馬公市東文里330號","lng":119.588676,"lat":23.561695,"abc":"B","service":"居家失能個案家庭醫師照護服務","zones":["10016010","10016020","10016030","10016040"],"phone":"06-9219755","owner":"陳靜縈","start":"20240927","end":"20261231"},{"name":"四季常照長照社團法人附設澎湖縣私立四季常照住宿長照機構","code":"3L2000001","type":"3","city":"10016","town":"10016020","addr":"澎湖縣湖西鄉許家村港子尾 78之16號(2樓)","lng":119.610214,"lat":23.582346,"abc":"B","service":"喘息服務","zones":["10016010","10016020","10016030","10016040","10016050","10016060"],"phone":"(06)921-9899","owner":"廖洲塘","start":"20241025","end":"20251231","beds":45,"residents":30},{"name":"衛生福利部澎湖醫院附設護理之家","code":"A32000002","type":"A3","city":"10016","town":"10016010","addr":"澎湖縣馬公市前寮里90號6樓","lng":119.583679,"lat":23.554615,"abc":"B","service":"喘息服務","zones":["10016010","10016020","10016030","10016040","10016050","10016060"],"phone":"06-9211425","owner":"葉芳君","start":"20240702","end":"20251231","beds":49,"residents":43},{"name":"千樂長照有限公司附設澎湖縣私立千賀居家長照機構","code":"1V2000001","type":"1","city":"10016","town":"10016010","addr":"澎湖縣馬公市石泉里2之51號","lng":119.594391,"lat":23.559563,"abc":"B","service":"喘息服務","zones":["10016010","10016020","10016030","10016040","10016050","10016060"],"phone":"06-9217895","owner":"羅承妤","start":"20240625","end":"20251231"},{"name":"澎湖縣全人關懷保健協會附設澎湖縣私立全人居家長照機構","code":"1N2000002","type":"1","city":"10016","town":"10016010","addr":"澎湖縣馬公市光明里文光路82號1樓","lng":119.579498,"lat":23.580215,"abc":"B","service":"喘息服務","zones":["10016010","10016020","10016030","10016040","10016050","10016060"],"phone":"06-9268805","owner":"林姿妤","start":"20240626","end":"20251231"},{"name":"社團法人澎湖縣照顧服務協會附設澎湖縣私立照協居家式服務類長期照顧服務機構","code":"1R2000001","type":"1","city":"10016","town":"10016010","addr":"澎湖縣馬公市復興里介壽路7-1號","lng":119.560486,"lat":23.564207,"abc":"B","service":"喘息服務","zones":["10016010","10016020","10016030","10016040","10016050","10016060"],"phone":"06-9274927","owner":"陳瑞慶","start":"20240628","end":"20251231"},{"name":"社團法人澎湖縣社會扶助關懷協會附設澎湖縣私立扶助居家式服務類長期照顧服務機構","code":"1R2000002","type":"1","city":"10016","town":"10016010","addr":"澎湖縣馬公市光榮里三多路370巷20號1樓","lng":119.578003,"lat":23.575806,"abc":"B","service":"喘息服務","zones":["10016010","10016020","10016030","10016040","10016050","10016060"],"phone":"06-9211165","owner":"葉詠青","start":"20240626","end":"20251231"},{"name":"台灣康復促進協會附設澎湖縣私立菊光居家長照機構","code":"1N2000001","type":"1","city":"10016","town":"10016010","addr":"澎湖縣馬公市光榮里19鄰成功街2-6號1樓","lng":119.570251,"lat":23.576464,"abc":"B","service":"喘息服務","zones":["10016010","10016020","10016030","10016040","10016050","10016060"],"phone":"06-9271662","owner":"陳世鐘","start":"20240701","end":"20251231"},{"name":"衛生福利部澎湖老人之家","code":"A12000002","type":"A1","city":"10016","town":"10016010","addr":"澎湖縣馬公市光華里123號","lng":119.603119,"lat":23.559853,"abc":"B","service":"喘息服務","zones":["10016010","10016020"],"phone":"(06)921-7056","owner":"王語莉","start":"20240701","end":"20251231","beds":88,"residents":61},{"name":"澎湖縣馬公市光明里辦公處","code":"BG2000001","type":"BG","city":"10016","town":"10016010","addr":"澎湖縣馬公市光明里信義路9巷26號","lng":119.567825,"lat":23.571445,"abc":"B","service":"喘息服務","zones":["10016010","10016020","10016030","10016040","10016050","10016060"],"phone":"06-9270885","owner":"陳黃淑媛","start":"20240702","end":"20251231"},{"name":"天主教靈醫會醫療財團法人附設惠民護理之家","code":"A32000003","type":"A3","city":"10016","town":"10016010","addr":"澎湖縣馬公市光復里樹德路14號","lng":119.568771,"lat":23.568953,"abc":"B","service":"喘息服務","zones":["10016010","10016020","10016030","10016040","10016050","10016060"],"phone":"06-9272318","owner":"洪淑美","start":"20240715","end":"20251231","beds":90,"residents":80},{"name":"澎湖縣私立四季常照養護中心","code":"A12000001","type":"A1","city":"10016","town":"10016020","addr":"澎湖縣湖西鄉許家村78-16號","lng":119.610214,"lat":23.582346,"abc":"B","service":"喘息服務","zones":["10016010","10016020","10016030","10016040","10016050","10016060"],"phone":"06-9219899","owner":"廖洲塘","start":"20240703","end":"20251231","beds":49,"residents":47},{"name":"澎湖縣私立感恩養護中心","code":"A12000005","type":"A1","city":"10016","town":"10016030","addr":"澎湖縣白沙鄉中屯村100號","lng":119.609192,"lat":23.61109,"abc":"B","service":"喘息服務","zones":["10016010","10016020","10016030","10016040","10016050","10016060"],"phone":"06-9933888","owner":"洪桂珍","start":"20240706","end":"20251231","beds":49,"residents":48},{"name":"澎湖縣私立芳悅居家長照機構","code":"1X2000002","type":"1","city":"10016","town":"10016010","addr":"澎湖縣馬公市東文里11鄰東文澳179-4號2樓","lng":119.59108,"lat":23.562801,"abc":"B","service":"喘息服務","zones":["10016010","10016020","10016030","10016040","10016050","10016060"],"phone":"06-9221910","owner":"陳宥羚","start":"20240701","end":"20251231"},{"name":"澎湖縣私立七美社區長照機構","code":"2X2000005","type":"2","city":"10016","town":"10016060","addr":"澎湖縣七美鄉中和村埔內60號","lng":119.429611,"lat":23.206247,"abc":"B","service":"喘息服務","zones":["10016010","10016020","10016030","10016040","10016050","10016060"],"phone":"06-9971900","owner":"林淑惠","start":"20240718","end":"20251231"},{"name":"澎湖縣私立家安心居家長照機構","code":"1X2000001","type":"1","city":"10016","town":"10016010","addr":"澎湖縣馬公市朝陽里24鄰朝陽路6號1樓","lng":119.591637,"lat":23.562859,"abc":"B","service":"喘息服務","zones":["10016010","10016020","10016030","10016040","10016050","10016060"],"phone":"06-9210351","owner":"陳秀滿","start":"20240722","end":"20251231"},{"name":"衛生福利部澎湖醫院老康健綜合式服務類長期照顧服務機構","code":"4A2000001","type":"4","city":"10016","town":"10016010","addr":"澎湖縣馬公市安宅里91-2號","lng":119.565742,"lat":23.564331,"abc":"B","service":"喘息服務","zones":["10016010","10016020","10016030","10016040","10016050","10016060"],"phone":"06-9261151#50810","owner":"匡勝捷","start":"20240704","end":"20251231"},{"name":"財團法人平安社會福利慈善事業基金會附設澎湖縣私立馬公社區式服務類長期照顧服務機構","code":"2S2000005","type":"2","city":"10016","town":"10016010","addr":"澎湖縣馬公市西文里新生路351號1樓","lng":119.580421,"lat":23.566483,"abc":"B","service":"喘息服務","zones":["10016010","10016020","10016030","10016040","10016050","10016060"],"phone":"06-9218352","owner":"吳志仁","start":"20240625","end":"20251231"},{"name":"旭登護理之家附設澎湖縣私立旭安菓葉社區式服務類長期照顧服務機構","code":"2U2000001","type":"2","city":"10016","town":"10016020","addr":"澎湖縣湖西鄉菓葉村171號2樓","lng":119.676414,"lat":23.579821,"abc":"B","service":"喘息服務","zones":["10016010","10016020","10016030","10016040","10016050","10016060"],"phone":"06-9920619","owner":"李麗珠","start":"20240625","end":"20251231"},{"name":"財團法人平安社會福利慈善事業基金會附設澎湖縣私立平安白沙社區式服務類長期照顧服務機構","code":"2S2000002","type":"2","city":"10016","town":"10016030","addr":"澎湖縣白沙鄉中屯村中屯99號","lng":119.597984,"lat":23.632996,"abc":"B","service":"喘息服務","zones":["10016010","10016020","10016030","10016040","10016050","10016060"],"phone":"06-9933531","owner":"吳志仁","start":"20240626","end":"20251231"},{"name":"財團法人平安社會福利慈善事業基金會附設澎湖縣私立平安望安社區式服務類長期照顧服務機構","code":"2S2000001","type":"2","city":"10016","town":"10016050","addr":"澎湖縣望安鄉水垵村40號","lng":119.50071,"lat":23.387939,"abc":"B","service":"喘息服務","zones":["10016050"],"phone":"06-9991195","owner":"吳志仁","start":"20240627","end":"20251231"},{"name":"社團法人澎湖縣社會扶助關懷協會附設澎湖縣私立扶助馬公社區長照機構","code":"2R2000002","type":"2","city":"10016","town":"10016010","addr":"澎湖縣馬公市陽明里大勇街30之1號1樓","lng":119.572411,"lat":23.572046,"abc":"B","service":"日間照顧服務(BB)","zones":["10016010","10016020","10016030","10016040","10016050","10016060"],"phone":"(06)9211-1165","owner":"葉詠青","start":"20241220","end":"20261231"},{"name":"天主教靈醫會醫療財團法人附設惠民居家護理所","code":"B12000001","type":"B1","city":"10016","town":"10016010","addr":"澎湖縣馬公市光復里樹德路14號","lng":119.56868,"lat":23.568913,"abc":"B","service":"居家失能個案家庭醫師照護服務","zones":["10016010","10016020","10016030","10016040"],"phone":"06-9272318","owner":"陳芃卉","start":"20241230","end":"20261231"},{"name":"天主教靈醫會醫療財團法人附設澎湖縣私立惠民居家長照機構","code":"1U2000001","type":"1","city":"10016","town":"10016010","addr":"澎湖縣馬公市光榮里光榮街93號2樓","lng":119.57354,"lat":23.575754,"abc":"B","service":"喘息服務","zones":["10016010","10016020","10016030","10016040"],"phone":"06-9272318","owner":"黃浩然","start":"20250115","end":"20251231"},{"name":"社團法人澎湖縣社會扶助關懷協會附設澎湖縣私立扶助馬公社區長照機構","code":"2R2000002","type":"2","city":"10016","town":"10016010","addr":"澎湖縣馬公市陽明里大勇街30之1號1樓","lng":119.572411,"lat":23.572046,"abc":"B","service":"喘息服務","zones":["10016010","10016020","10016030","10016040","10016050","10016060"],"phone":"(06)9211-1165","owner":"葉詠青","start":"20250120","end":"20251231"},{"name":"民發醫療護理儀器行","code":"BB2000004","type":"BB","city":"10016","town":"10016010","addr":"澎湖縣馬公市光復里樹德路16號","lng":119.568565,"lat":23.568859,"abc":"B","service":"輔具及居家無障礙環境改善服務","zones":["10016010","10016020","10016030","10016040","10016050","10016060"],"phone":"9273868","owner":"高再民(兒子：高程?)","start":"20250101","end":"20261231"},{"name":"弘安醫療儀器行","code":"BB2000002","type":"BB","city":"10016","town":"10016010","addr":"澎湖縣馬公市中華路52-2號","lng":119.570686,"lat":23.569723,"abc":"B","service":"輔具及居家無障礙環境改善服務","zones":["10016010","10016020","10016030","10016040","10016050","10016060"],"phone":"9273048","owner":"陳鼎元","start":"20250101","end":"20261231"},{"name":"天星健身按摩器材行","code":"BB2000005","type":"BB","city":"10016","town":"10016010","addr":"澎湖縣馬公市朝陽里中華路287號","lng":119.577705,"lat":23.572205,"abc":"B","service":"輔具及居家無障礙環境改善服務","zones":["10016010","10016020","10016030","10016040","10016050","10016060"],"phone":"9263616","owner":"鄭鴻賓","start":"20250101","end":"20261231"},{"name":"奕宏企業行","code":"BB2000003","type":"BB","city":"10016","town":"10016010","addr":"澎湖縣馬公市西文里82-6號","lng":119.583321,"lat":23.566526,"abc":"B","service":"輔具及居家無障礙環境改善服務","zones":["10016010","10016020","10016030","10016040","10016050","10016060"],"phone":"988122922","owner":"陳毓菁","start":"20250101","end":"20261231"},{"name":"宏安藥局","code":"BB2000008","type":"BB","city":"10016","town":"10016010","addr":"澎湖縣馬公市光復里中華路52-2號","lng":119.570686,"lat":23.569723,"abc":"B","service":"輔具及居家無障礙環境改善服務","zones":["10016010","10016020","10016030","10016040","10016050","10016060"],"phone":"9273048","owner":"蔡惠如","start":"20250101","end":"20261231"},{"name":"宏璟行","code":"BB2000006","type":"BB","city":"10016","town":"10016010","addr":"澎湖縣馬公市文明路152號3樓","lng":119.586304,"lat":23.561653,"abc":"B","service":"輔具及居家無障礙環境改善服務","zones":["10016010","10016020","10016030","10016040","10016050","10016060"],"phone":"919035786","owner":"楊宏霖","start":"20250101","end":"20261231"},{"name":"諾貝兒寶貝股份有限公司澎湖分公司(丁丁連鎖藥妝澎湖店)","code":"BB2000007","type":"BB","city":"10016","town":"10016010","addr":"澎湖縣馬公市光榮街90號1樓","lng":119.574081,"lat":23.576139,"abc":"B","service":"輔具及居家無障礙環境改善服務","zones":["10016010","10016020","10016030","10016040","10016050","10016060"],"phone":"919885765","owner":"張振興","start":"20250101","end":"20261231"},{"name":"祥瑋傢飾行","code":"BB2000001","type":"BB","city":"10016","town":"10016010","addr":"澎湖縣馬公市治平路15之6號1樓","lng":119.567886,"lat":23.569382,"abc":"B","service":"輔具及居家無障礙環境改善服務","zones":["10016010","10016020","10016030","10016040","10016050","10016060"],"phone":"9276093","owner":"陳俊瑋","start":"20250101","end":"20251231"},{"name":"千樂長照有限公司附設澎湖縣私立千賀居家長照機構","code":"1V2000001","type":"1","city":"10016","town":"10016010","addr":"澎湖縣馬公市石泉里2之51號","lng":119.594391,"lat":23.559563,"abc":"A","service":"個案管理服務","zones":["10016010"],"phone":"06-9217895","owner":"羅承妤","start":"20250101","end":"20261231"},{"name":"天主教靈醫會醫療財團法人惠民醫院","code":"B22000001","type":"B2","city":"10016","town":"10016010","addr":"澎湖縣馬公市光復里樹德路14號","lng":119.56868,"lat":23.568913,"abc":"B","service":"社區式交通接送服務(BD03)","zones":["10016010","10016060"],"phone":"06-9272318","owner":"黃浩然","start":"20250101","end":"20261231"},{"name":"辛家庭醫學科診所","code":"B22000032","type":"B2","city":"10016","town":"10016010","addr":"澎湖縣馬公市陽明里中華路82號","lng":119.572609,"lat":23.570812,"abc":"B","service":"居家失能個案家庭醫師照護服務","zones":["10016010"],"phone":"06-9268899","owner":"辛伊堯","start":"20250804","end":"20261231"},{"name":"A-4財團法人平安社會福利慈善事業基金會","code":"BD2000003","type":"BD","city":"10016","town":"10016010","addr":"澎湖縣馬公市西文里新生路351號4樓","lng":119.580421,"lat":23.566483,"abc":"A","service":"個案管理服務","zones":["10016010","10016060"],"phone":"0982912543","owner":"吳志仁","start":"20250901","end":"20261231"},{"name":"天主教靈醫會醫療財團法人附設惠民護理之家","code":"A32000003","type":"A3","city":"10016","town":"10016010","addr":"澎湖縣馬公市光復里樹德路14號","lng":119.568771,"lat":23.568953,"abc":"B","service":"喘息服務","zones":["10016010","10016020","10016030","10016040","10016050","10016060"],"phone":"06-9272318","owner":"洪淑美","start":"20260101","end":"20281231","beds":90,"residents":80},{"name":"澎湖縣私立感恩養護中心","code":"A12000005","type":"A1","city":"10016","town":"10016030","addr":"澎湖縣白沙鄉中屯村100號","lng":119.609192,"lat":23.61109,"abc":"B","service":"喘息服務","zones":["10016010","10016020","10016030","10016040","10016050","10016060"],"phone":"06-9933888","owner":"洪桂珍","start":"20260101","end":"20281231","beds":49,"residents":48},{"name":"四季常照長照社團法人附設澎湖縣私立四季常照住宿長照機構","code":"3L2000001","type":"3","city":"10016","town":"10016020","addr":"澎湖縣湖西鄉許家村港子尾 78之16號(2樓)","lng":119.610214,"lat":23.582346,"abc":"B","service":"喘息服務","zones":["10016010","10016020","10016030","10016040","10016050","10016060"],"phone":"(06)921-9899","owner":"廖洲塘","start":"20260101","end":"20281231","beds":45,"residents":30},{"name":"澎湖縣私立四季常照養護中心","code":"A12000001","type":"A1","city":"10016","town":"10016020","addr":"澎湖縣湖西鄉許家村78-16號","lng":119.610214,"lat":23.582346,"abc":"B","service":"喘息服務","zones":["10016010","10016020","10016030","10016040","10016050","10016060"],"phone":"06-9219899","owner":"廖洲塘","start":"20260101","end":"20281231","beds":49,"residents":47},{"name":"社團法人澎湖縣社會扶助關懷協會附設澎湖縣私立扶助馬公社區長照機構","code":"2R2000002","type":"2","city":"10016","town":"10016010","addr":"澎湖縣馬公市陽明里大勇街30之1號1樓","lng":119.572411,"lat":23.572046,"abc":"B","service":"喘息服務","zones":["10016010","10016020","10016030","10016040","10016050","10016060"],"phone":"(06)9211-1165","owner":"葉詠青","start":"20260101","end":"20281231"},{"name":"社團法人澎湖縣社會扶助關懷協會附設澎湖縣私立扶助西嶼社區長照機構","code":"2R2000001","type":"2","city":"10016","town":"10016040","addr":"澎湖縣西嶼鄉小門村11之9號","lng":119.516647,"lat":23.65407,"abc":"B","service":"喘息服務","zones":["10016010","10016020","10016030","10016040","10016050","10016060"],"phone":"(06)921-1165","owner":"葉詠青","start":"20260101","end":"20281231"},{"name":"社團法人澎湖縣社會扶助關懷協會附設澎湖縣私立扶助居家式服務類長期照顧服務機構","code":"1R2000002","type":"1","city":"10016","town":"10016010","addr":"澎湖縣馬公市光榮里三多路370巷20號1樓","lng":119.578003,"lat":23.575806,"abc":"B","service":"喘息服務","zones":["10016010","10016020","10016030","10016040","10016050","10016060"],"phone":"06-9211165","owner":"葉詠青","start":"20260101","end":"20281231"},{"name":"澎湖縣私立家安心居家長照機構","code":"1X2000001","type":"1","city":"10016","town":"10016010","addr":"澎湖縣馬公市朝陽里24鄰朝陽路6號1樓","lng":119.591637,"lat":23.562859,"abc":"B","service":"喘息服務","zones":["10016010","10016020","10016030","10016040","10016050","10016060"],"phone":"06-9210351","owner":"陳秀滿","start":"20260101","end":"20281231"},{"name":"衛生福利部澎湖醫院附設護理之家","code":"A32000002","type":"A3","city":"10016","town":"10016010","addr":"澎湖縣馬公市前寮里90號6樓","lng":119.583679,"lat":23.554615,"abc":"B","service":"喘息服務","zones":["10016010","10016020","10016030","10016040","10016050","10016060"],"phone":"06-9211425","owner":"葉芳君","start":"20260101","end":"20281231","beds":49,"residents":43},{"name":"社團法人澎湖縣照顧服務協會附設澎湖縣私立照協居家式服務類長期照顧服務機構","code":"1R2000001","type":"1","city":"10016","town":"10016010","addr":"澎湖縣馬公市復興里介壽路7-1號","lng":119.560486,"lat":23.564207,"abc":"B","service":"喘息服務","zones":["10016010","10016020","10016030","10016040","10016050","10016060"],"phone":"06-9274927","owner":"陳瑞慶","start":"20260101","end":"20281231"},{"name":"衛生福利部澎湖醫院老康健綜合式服務類長期照顧服務機構","code":"4A2000001","type":"4","city":"10016","town":"10016010","addr":"澎湖縣馬公市安宅里91-2號","lng":119.565742,"lat":23.564331,"abc":"B","service":"喘息服務","zones":["10016010","10016020","10016030","10016040","10016050","10016060"],"phone":"06-9261151#50810","owner":"匡勝捷","start":"20260101","end":"20281231"},{"name":"旭登護理之家附設澎湖縣私立旭安菓葉社區式服務類長期照顧服務機構","code":"2U2000001","type":"2","city":"10016","town":"10016020","addr":"澎湖縣湖西鄉菓葉村171號2樓","lng":119.676414,"lat":23.579821,"abc":"B","service":"喘息服務","zones":["10016010","10016020","10016030","10016040","10016050","10016060"],"phone":"06-9920619","owner":"李麗珠","start":"20260101","end":"20281231"},{"name":"財團法人平安社會福利慈善事業基金會附設澎湖縣私立平安白沙社區式服務類長期照顧服務機構","code":"2S2000002","type":"2","city":"10016","town":"10016030","addr":"澎湖縣白沙鄉中屯村中屯99號","lng":119.597984,"lat":23.632996,"abc":"B","service":"喘息服務","zones":["10016010","10016020","10016030","10016040","10016050","10016060"],"phone":"06-9933531","owner":"吳志仁","start":"20260101","end":"20281231"},{"name":"財團法人平安社會福利慈善事業基金會附設澎湖縣私立平安望安社區式服務類長期照顧服務機構","code":"2S2000001","type":"2","city":"10016","town":"10016050","addr":"澎湖縣望安鄉水垵村40號","lng":119.50071,"lat":23.387939,"abc":"B","service":"喘息服務","zones":["10016010","10016020","10016030","10016040","10016050","10016060"],"phone":"06-9991195","owner":"吳志仁","start":"20260101","end":"20281231"},{"name":"財團法人平安社會福利慈善事業基金會附設澎湖縣私立馬公社區式服務類長期照顧服務機構","code":"2S2000005","type":"2","city":"10016","town":"10016010","addr":"澎湖縣馬公市西文里新生路351號1樓","lng":119.580421,"lat":23.566483,"abc":"B","service":"喘息服務","zones":["10016010","10016020","10016030","10016040","10016050","10016060"],"phone":"06-9218352","owner":"吳志仁","start":"20260101","end":"20281231"},{"name":"澎湖縣私立七美社區長照機構","code":"2X2000005","type":"2","city":"10016","town":"10016060","addr":"澎湖縣七美鄉中和村埔內60號","lng":119.429611,"lat":23.206247,"abc":"B","service":"喘息服務","zones":["10016010","10016020","10016030","10016040","10016050","10016060"],"phone":"06-9971900","owner":"林淑惠","start":"20260101","end":"20281231"},{"name":"千樂長照有限公司附設澎湖縣私立千賀居家長照機構","code":"1V2000001","type":"1","city":"10016","town":"10016010","addr":"澎湖縣馬公市石泉里2之51號","lng":119.594391,"lat":23.559563,"abc":"B","service":"喘息服務","zones":["10016010","10016020","10016030","10016040","10016050","10016060"],"phone":"06-9217895","owner":"羅承妤","start":"20260101","end":"20281231"},{"name":"澎湖縣私立芳悅居家長照機構","code":"1X2000002","type":"1","city":"10016","town":"10016010","addr":"澎湖縣馬公市東文里11鄰東文澳179-4號2樓","lng":119.59108,"lat":23.562801,"abc":"B","service":"喘息服務","zones":["10016010","10016020","10016030","10016040","10016050","10016060"],"phone":"06-9221910","owner":"陳宥羚","start":"20260101","end":"20281231"},{"name":"澎湖縣全人關懷保健協會附設澎湖縣私立全人居家長照機構","code":"1N2000002","type":"1","city":"10016","town":"10016010","addr":"澎湖縣馬公市光明里文光路82號1樓","lng":119.579498,"lat":23.580215,"abc":"B","service":"喘息服務","zones":["10016010","10016020","10016030","10016040","10016050","10016060"],"phone":"06-9268805","owner":"林姿妤","start":"20260101","end":"20281231"},{"name":"天主教靈醫會醫療財團法人附設澎湖縣私立惠民居家長照機構","code":"1U2000001","type":"1","city":"10016","town":"10016010","addr":"澎湖縣馬公市光榮里光榮街93號2樓","lng":119.57354,"lat":23.575754,"abc":"B","service":"喘息服務","zones":["10016010","10016020","10016030","10016040","10016050","10016060"],"phone":"06-9272318","owner":"黃浩然","start":"20260101","end":"20281231"},{"name":"台灣康復促進協會附設澎湖縣私立菊光居家長照機構","code":"1N2000001","type":"1","city":"10016","town":"10016010","addr":"澎湖縣馬公市光榮里19鄰成功街2-6號1樓","lng":119.570251,"lat":23.576464,"abc":"B","service":"喘息服務","zones":["10016010","10016020","10016030","10016040","10016050","10016060"],"phone":"06-9271662","owner":"陳世鐘","start":"20260101","end":"20281231"},{"name":"衛生福利部澎湖老人之家","code":"A12000002","type":"A1","city":"10016","town":"10016010","addr":"澎湖縣馬公市光華里123號","lng":119.603119,"lat":23.559853,"abc":"B","service":"喘息服務","zones":["10016010","10016020"],"phone":"(06)921-7056","owner":"王語莉","start":"20260101","end":"20281231","beds":88,"residents":61},{"name":"瀞心居家護理所","code":"B12000017","type":"B1","city":"10016","town":"10016010","addr":"澎湖縣馬公市東文里330號","lng":119.588676,"lat":23.561695,"abc":"B","service":"專業照護服務","zones":["10016010","10016020","10016030","10016040"],"phone":"06-9219755","owner":"陳靜縈","start":"20260101","end":"20281231"},{"name":"天主教靈醫會醫療財團法人惠民醫院","code":"B22000001","type":"B2","city":"10016","town":"10016010","addr":"澎湖縣馬公市光復里樹德路14號","lng":119.56868,"lat":23.568913,"abc":"B","service":"專業照護服務","zones":["10016010","10016020","10016030","10016040"],"phone":"06-9272318","owner":"黃浩然","start":"20260101","end":"20281231"},{"name":"雲起居家職能治療所","code":"B52000002","type":"B5","city":"10016","town":"10016010","addr":"澎湖縣馬公市菜園里49-3號","lng":119.59626,"lat":23.551161,"abc":"B","service":"專業照護服務","zones":["10016010","10016020","10016030","10016040"],"phone":"0958949977","owner":"李彩雲","start":"20260101","end":"20281231"},{"name":"聊療物理治療所","code":"B42000001","type":"B4","city":"10016","town":"10016010","addr":"澎湖縣馬公市東文里新店北路65號","lng":119.586205,"lat":23.564259,"abc":"B","service":"專業照護服務","zones":["10016010","10016020","10016030","10016040"],"phone":"06-9218809","owner":"高傳哲","start":"20260101","end":"20281231"},{"name":"衛生福利部澎湖醫院附設居家護理所","code":"B12000002","type":"B1","city":"10016","town":"10016010","addr":"澎湖縣馬公市啟明里中正路10號","lng":119.565742,"lat":23.564331,"abc":"B","service":"專業照護服務","zones":["10016010","10016020","10016030"],"phone":"091119219006-9261151分機50723","owner":"劉秀玲","start":"20260101","end":"20281231"},{"name":"澎湖縣馬公市第二衛生所","code":"B22000015","type":"B2","city":"10016","town":"10016010","addr":"澎湖縣馬公市鎖港里240號","lng":119.600868,"lat":23.529358,"abc":"B","service":"專業照護服務","zones":["10016010"],"phone":"06-9951354","owner":"劉立翔","start":"20251001","end":"20261231"},{"name":"澎湖縣馬公市第三衛生所","code":"B22000007","type":"B2","city":"10016","town":"10016010","addr":"澎湖縣馬公市西文里118-2號","lng":119.583649,"lat":23.568129,"abc":"B","service":"專業照護服務","zones":["10016010"],"phone":"06-9211723","owner":"陳俊宇","start":"20251001","end":"20261231"},{"name":"澎湖縣湖西鄉衛生所","code":"B22000016","type":"B2","city":"10016","town":"10016020","addr":"澎湖縣湖西鄉湖西村151-1號","lng":119.661339,"lat":23.583895,"abc":"B","service":"專業照護服務","zones":["10016020"],"phone":"06-9921271","owner":"謝啟文","start":"20251001","end":"20261231"},{"name":"澎湖縣西嶼鄉衛生所","code":"B22000014","type":"B2","city":"10016","town":"10016040","addr":"澎湖縣西嶼鄉池東村222號","lng":119.510239,"lat":23.599253,"abc":"B","service":"專業照護服務","zones":["10016040"],"phone":"06-9981115","owner":"呂明穎","start":"20251001","end":"20261231"},{"name":"澎湖縣馬公市光明社區發展協會","code":"BF2000050","type":"BF","city":"10016","town":"10016010","addr":"澎湖縣馬公市光明里信義路9巷26號","lng":119.567825,"lat":23.571445,"abc":"C","service":"巷弄長照站","zones":["10016010"],"phone":"06-9270885","owner":"陳黃淑媛","start":"20260101","end":"20261231"},{"name":"澎湖縣馬公市光明社區發展協會","code":"BF2000050","type":"BF","city":"10016","town":"10016010","addr":"澎湖縣馬公市光明里信義路9巷26號","lng":119.567825,"lat":23.571445,"abc":"B","service":"喘息服務","zones":["10016010","10016020","10016030","10016040","10016050","10016060"],"phone":"06-9270885","owner":"陳黃淑媛","start":"20260101","end":"20281231"},{"name":"健安長照有限公司附設澎湖縣私立怡家居家長照機構","code":"1V2000002","type":"1","city":"10016","town":"10016010","addr":"澎湖縣馬公市朝陽里中華路373號","lng":119.579239,"lat":23.57205,"abc":"B","service":"居家服務","zones":["10016010","10016020","10016030","10016040","10016050","10016060"],"phone":"06-9210351","owner":"陳秀滿","start":"20260129","end":"20271117"},{"name":"健安長照有限公司附設澎湖縣私立怡家居家長照機構","code":"1V2000002","type":"1","city":"10016","town":"10016010","addr":"澎湖縣馬公市朝陽里中華路373號","lng":119.579239,"lat":23.57205,"abc":"B","service":"喘息服務","zones":["10016010","10016020","10016030","10016040","10016050","10016060"],"phone":"06-9210351","owner":"陳秀滿","start":"20260220","end":"20281231"},{"name":"鑫泰運動生活館","code":"BB2000009","type":"BB","city":"10016","town":"10016010","addr":"澎湖縣馬公市陽明里中華路143號","lng":119.57338,"lat":23.571573,"abc":"B","service":"輔具及居家無障礙環境改善服務","zones":["10016010","10016020","10016030","10016040","10016050","10016060"],"phone":"9279712","owner":"陳月桃","start":"20260101","end":"20261231"},{"name":"如常心理諮商所","code":"B22000033","type":"B2","city":"10016","town":"10016010","addr":"澎湖縣馬公市新村路22號2樓","lng":119.570511,"lat":23.569571,"abc":"B","service":"專業照護服務","zones":["10016010","10016020","10016030","10016040"],"phone":"0928692099","owner":"方維真","start":"20260603","end":"20281231"}]