[{"name":"花蓮縣私立富爾捷居家式服務類長期照顧服務機構","code":"1X1800001","type":"1","city":"10015","town":"10015040","addr":"花蓮縣新城鄉北埔村20鄰復興路255號","lng":121.602669,"lat":24.032141,"abc":"B","service":"喘息服務","zones":["10015010","10015020","10015030","10015040","10015050","10015060","10015070","10015090","10015100","10015110","10015120","10015130"],"phone":"03-8314913","owner":"潘爾捷","start":"20181201","end":"20261231"},{"name":"社團法人花蓮縣老人暨家庭關懷協會附設花蓮縣私立老家居家式服務類長期照顧服務機構","code":"1R1800001","type":"1","city":"10015","town":"10015010","addr":"花蓮縣花蓮市主農里中正路156號3樓","lng":121.597588,"lat":23.97073,"abc":"B","service":"喘息服務","zones":["10015010","10015020","10015030","10015040","10015050","10015060","10015070","10015090","10015110","10015120","10015130"],"phone":"03-8330573","owner":"楊傑","start":"20181201","end":"20261231"},{"name":"佛教慈濟醫療財團法人附設花蓮縣私立花蓮慈濟居家式服務類長期照顧服務機構","code":"1U1800001","type":"1","city":"10015","town":"10015010","addr":"花蓮縣花蓮市國慶里11鄰中山路一段3巷11號","lng":121.592285,"lat":23.995729,"abc":"B","service":"喘息服務","zones":["10015010","10015020","10015040","10015050","10015060","10015070","10015110","10015120"],"phone":"03-8561825#12109","owner":"釋證嚴","start":"20181201","end":"20261231"},{"name":"有限責任臺灣第二照顧服務勞動合作社附設花蓮縣私立居家式服務類長期照顧服務機構","code":"1T1800001","type":"1","city":"10015","town":"10015010","addr":"花蓮縣花蓮市民勤里42鄰府前路5之10號","lng":121.620941,"lat":23.987741,"abc":"B","service":"喘息服務","zones":["10015010","10015020","10015030","10015040","10015050","10015060","10015070","10015080","10015090","10015100","10015110","10015120","10015130"],"phone":"03-8230699#219","owner":"伍崑崙","start":"20190201","end":"20261231"},{"name":"花蓮縣私立沛恩居家式服務類長期照顧服務機構","code":"1X1800004","type":"1","city":"10015","town":"10015050","addr":"花蓮縣吉安鄉勝安村自強路282及284號1樓","lng":121.588524,"lat":23.981699,"abc":"B","service":"專業照護服務","zones":["10015030","10015090","10015100","10015130"],"phone":"03-8236789","owner":"劉素珠","start":"20181214","end":"20240630"},{"name":"花蓮縣私立恩典社區式服務類長期照顧服務機構","code":"2X1800002","type":"2","city":"10015","town":"10015040","addr":"花蓮縣新城鄉康樂村鄉根2巷24號","lng":121.605217,"lat":24.057281,"abc":"B","service":"家庭托顧服務(BC)","zones":["10015010","10015040","10015050","10015110"],"phone":"0985-064937","owner":"吳伊穠","start":"20180105","end":"20261231"},{"name":"花蓮縣私立平安之家社區式服務類長期照顧服務機構","code":"2X1800004","type":"2","city":"10015","town":"10015040","addr":"花蓮縣新城鄉嘉里村嘉里三街115之25號","lng":121.605949,"lat":24.018986,"abc":"B","service":"家庭托顧服務(BC)","zones":["10015010","10015040","10015050","10015110"],"phone":"03-8261611","owner":"林志偉","start":"20171228","end":"20261231"},{"name":"花蓮縣私立長青社區式服務類長期照顧服務機構","code":"2X1800005","type":"2","city":"10015","town":"10015010","addr":"花蓮縣花蓮市中正路168巷9弄3號","lng":121.598991,"lat":23.970543,"abc":"B","service":"家庭托顧服務(BC)","zones":["10015010","10015050"],"phone":"03-8328193","owner":"李紅英","start":"20171228","end":"20261231"},{"name":"花蓮縣私立溫馨的家社區式服務類長期照顧服務機構","code":"2X1800006","type":"2","city":"10015","town":"10015050","addr":"花蓮縣吉安鄉太昌村昌隆二街165號","lng":121.579231,"lat":23.971739,"abc":"B","service":"家庭托顧服務(BC)","zones":["10015010","10015050"],"phone":"03-8524015","owner":"呂學峰","start":"20171228","end":"20261231"},{"name":"花蓮縣私立輩家關懷社區式服務類長期照顧服務機構","code":"2X1800007","type":"2","city":"10015","town":"10015050","addr":"花蓮縣吉安鄉宜昌村荳蘭五街1巷11號","lng":121.58271,"lat":23.973019,"abc":"B","service":"家庭托顧服務(BC)","zones":["10015010","10015050"],"phone":"0965-072277","owner":"王麒翰","start":"20210601","end":"20261231"},{"name":"花蓮縣私立關愛如家社區式服務類長期照顧服務機構","code":"2X1800010","type":"2","city":"10015","town":"10015010","addr":"花蓮縣花蓮市德安一街257號","lng":121.593216,"lat":23.971275,"abc":"B","service":"家庭托顧服務(BC)","zones":["10015010","10015050"],"phone":"0937-164481","owner":"王麗媛","start":"20181203","end":"20261231"},{"name":"衛生福利部花蓮醫院附設社區式服務類長期照顧服務機構","code":"2A1800001","type":"2","city":"10015","town":"10015010","addr":"花蓮縣花蓮市中正路600號","lng":121.611183,"lat":23.979481,"abc":"B","service":"日間照顧服務(BB)","zones":["10015010","10015050"],"phone":"03-8358141","owner":"林彥雄","start":"20230101","end":"20261231"},{"name":"臺北榮民總醫院鳳林分院附設甜心園日間照顧社區式服務類長期照顧服務機構","code":"2F1800001","type":"2","city":"10015","town":"10015020","addr":"花蓮縣鳳林鎮鳳智里中美路53號","lng":121.621262,"lat":23.986284,"abc":"B","service":"日間照顧服務(BB)","zones":["10015020","10015060","10015070","10015120"],"phone":"03-8761008","owner":"江國超","start":"20230101","end":"20261231"},{"name":"臺北榮民總醫院玉里分院附設悠活養生村社區式服務類長期照顧服務機構","code":"2F1800002","type":"2","city":"10015","town":"10015030","addr":"花蓮縣玉里鎮啟模里民國路二段102號","lng":121.318275,"lat":23.338583,"abc":"B","service":"日間照顧服務(BB)","zones":["10015030","10015090","10015100","10015130"],"phone":"03-8880895","owner":"胡宗明","start":"20230101","end":"20261231"},{"name":"社團法人中華民國士林靈糧堂社會福利協會附設花蓮縣私立美崙社區式服務類長期照顧服務機構","code":"2R1800001","type":"2","city":"10015","town":"10015010","addr":"花蓮縣花蓮市民德民權四街2號","lng":121.619698,"lat":23.981836,"abc":"B","service":"團體家屋服務","zones":["10015010","10015020","10015030","10015040","10015050","10015060","10015070","10015080","10015090","10015100","10015110","10015120","10015130"],"phone":"03-8338500","owner":"丁家蕴","start":"20190101","end":"20241231"},{"name":"財團法人門諾社會福利慈善事業基金會附設花蓮縣私立花蓮綜合長照機構","code":"4S1800002","type":"4","city":"10015","town":"10015010","addr":"花蓮縣花蓮市民德里7鄰民權路4號","lng":121.622009,"lat":23.983217,"abc":"A","service":"個案管理服務","zones":["10015050"],"phone":"03-8338009","owner":"周朝國","start":"20240701","end":"20261231"},{"name":"財團法人門諾社會福利慈善事業基金會附設花蓮縣私立花蓮綜合長照機構","code":"4S1800002","type":"4","city":"10015","town":"10015010","addr":"花蓮縣花蓮市民德里7鄰民權路4號","lng":121.622009,"lat":23.983217,"abc":"B","service":"小規模多機能服務","zones":["10015010","10015020","10015040","10015050","10015060","10015110","10015120"],"phone":"03-8338009","owner":"周朝國","start":"20230101","end":"20261231"},{"name":"財團法人門諾社會福利慈善事業基金會附設花蓮縣私立玉里綜合長照機構","code":"4S1800001","type":"4","city":"10015","town":"10015030","addr":"花蓮縣玉里鎮中城里20鄰更生路38號","lng":121.310509,"lat":23.329142,"abc":"B","service":"小規模多機能服務","zones":["10015030","10015070","10015090","10015100","10015120","10015130"],"phone":"03-8980601","owner":"周朝國","start":"20230101","end":"20261231"},{"name":"財團法人花蓮縣私立博愛居安廬老人長期照顧中心(養護型)","code":"A11800002","type":"A1","city":"10015","town":"10015050","addr":"花蓮縣吉安鄉吉安村吉昌一街258 巷11 號","lng":121.561516,"lat":23.973059,"abc":"B","service":"喘息服務","zones":["10015010","10015020","10015030","10015040","10015050","10015060","10015070","10015080","10015090","10015100","10015110","10015120","10015130"],"phone":"03-8529789","owner":"廖美燕","start":"20181201","end":"20261231","beds":88,"residents":71},{"name":"花蓮縣私立長春養護之家","code":"A11800004","type":"A1","city":"10015","town":"10015050","addr":"花蓮縣吉安鄉南華村南華二街295號","lng":121.547539,"lat":23.958685,"abc":"B","service":"喘息服務","zones":["10015010","10015020","10015030","10015040","10015050","10015060","10015070","10015080","10015090","10015100","10015110","10015120","10015130"],"phone":"03-8549946","owner":"張金蘭","start":"20181201","end":"20261231","beds":37,"residents":37},{"name":"財團法人花蓮縣私立吉豐老人養護所","code":"A11800008","type":"A1","city":"10015","town":"10015060","addr":"花蓮縣壽豐鄉平和村吳全96之10號","lng":121.552612,"lat":23.889641,"abc":"B","service":"喘息服務","zones":["10015010","10015020","10015030","10015040","10015050","10015060","10015070","10015080","10015090","10015100","10015110","10015120","10015130"],"phone":"03-8663822","owner":"陳秋英","start":"20181201","end":"20261231","beds":180,"residents":109},{"name":"花蓮縣私立崇恩老人長期照顧中心(養護型)","code":"A11800009","type":"A1","city":"10015","town":"10015050","addr":"花蓮縣吉安鄉東昌村東海六街81號","lng":121.59568,"lat":23.966167,"abc":"B","service":"喘息服務","zones":["10015010","10015020","10015030","10015040","10015050","10015060","10015070","10015080","10015090","10015100","10015110","10015120","10015130"],"phone":"03-8522020","owner":"魏貞明","start":"20181201","end":"20261231","beds":36,"residents":36},{"name":"花蓮縣私立惠馨老人長期照顧中心(養護型)","code":"A11800010","type":"A1","city":"10015","town":"10015050","addr":"花蓮縣吉安鄉勝安村全民街27號","lng":121.57151,"lat":23.938442,"abc":"B","service":"喘息服務","zones":["10015010","10015020","10015030","10015040","10015050","10015060","10015070","10015080","10015090","10015100","10015110","10015120","10015130"],"phone":"03-8528868","owner":"范良弘","start":"20181201","end":"20261231","beds":49,"residents":44},{"name":"花蓮縣私立玉里老人長期照顧中心(養護型)","code":"A11800012","type":"A1","city":"10015","town":"10015030","addr":"花蓮縣玉里鎮國武里興國路二段20巷42弄7號","lng":121.321732,"lat":23.33392,"abc":"B","service":"喘息服務","zones":["10015010","10015020","10015030","10015040","10015050","10015060","10015070","10015080","10015090","10015100","10015110","10015120","10015130"],"phone":"03-8886533","owner":"蘇正好","start":"20181201","end":"20261231","beds":49,"residents":43},{"name":"花蓮縣私立光復老人長期照顧中心(養護型)","code":"A11800013","type":"A1","city":"10015","town":"10015070","addr":"花蓮縣光復鄉大華村林森路183號","lng":121.424927,"lat":23.669783,"abc":"B","service":"喘息服務","zones":["10015010","10015020","10015030","10015040","10015050","10015060","10015070","10015080","10015090","10015100","10015110","10015120","10015130"],"phone":"03-8700168","owner":"許玉華","start":"20181201","end":"20261231","beds":47,"residents":46},{"name":"花蓮縣私立愛愛老人長期照顧中心(養護型)","code":"A11800014","type":"A1","city":"10015","town":"10015030","addr":"花蓮縣玉里鎮泰昌里西邊街15之1號","lng":121.308197,"lat":23.333834,"abc":"B","service":"喘息服務","zones":["10015010","10015020","10015030","10015040","10015050","10015060","10015070","10015080","10015090","10015100","10015110","10015120","10015130"],"phone":"03-8887136","owner":"古秋菊","start":"20181201","end":"20261231","beds":49,"residents":47},{"name":"名揚護理之家","code":"A31800003","type":"A3","city":"10015","town":"10015010","addr":"花蓮縣花蓮市中原路408號","lng":121.598946,"lat":23.969805,"abc":"B","service":"喘息服務","zones":["10015010","10015020","10015030","10015040","10015050","10015060","10015070","10015080","10015090","10015100","10015110","10015120","10015130"],"phone":"03-8322785","owner":"許麗娟","start":"20181201","end":"20261231","beds":50,"residents":46},{"name":"衛生福利部花蓮醫院附設護理之家","code":"A31800004","type":"A3","city":"10015","town":"10015010","addr":"花蓮縣花蓮市中正路600號","lng":121.611183,"lat":23.979481,"abc":"B","service":"喘息服務","zones":["10015010","10015020","10015030","10015040","10015050","10015060","10015070","10015080","10015090","10015100","10015110","10015120","10015130"],"phone":"03-8358141#3170","owner":"連玉璽","start":"20181201","end":"20261231","beds":99,"residents":82},{"name":"國軍花蓮總醫院附設民眾診療服務處附設一般護理之家","code":"A31800001","type":"A3","city":"10015","town":"10015040","addr":"花蓮縣新城鄉嘉里村嘉里路163號","lng":121.607399,"lat":24.024429,"abc":"B","service":"日間照顧服務(BB)","zones":["10015010","10015040","10015050","10015110"],"phone":"03-8261473","owner":"張珍瑋","start":"20230101","end":"20261231","beds":100,"residents":49},{"name":"富爾捷居家護理所","code":"B11800009","type":"B1","city":"10015","town":"10015010","addr":"花蓮縣花蓮市海岸路47-1號","lng":121.633736,"lat":23.992308,"abc":"B","service":"專業照護服務","zones":["10015010","10015020","10015040","10015050","10015060","10015070","10015090","10015110","10015120"],"phone":"03-8314913","owner":"潘爾捷","start":"20181201","end":"20261231"},{"name":"紗絯居家護理所","code":"B11800010","type":"B1","city":"10015","town":"10015020","addr":"花蓮縣鳳林鎮鳳禮里中正路二段12鄰81號","lng":121.588257,"lat":23.961884,"abc":"B","service":"專業照護服務","zones":["10015020","10015060","10015070","10015090","10015120"],"phone":"0952-994058","owner":"吳安綺","start":"20181201","end":"20261231"},{"name":"舒漾居家護理所","code":"B11800011","type":"B1","city":"10015","town":"10015010","addr":"花蓮縣花蓮市國裕富強路121號","lng":121.596817,"lat":23.997066,"abc":"B","service":"專業照護服務","zones":["10015010","10015040","10015050","10015060","10015110"],"phone":"0919-910738","owner":"楊秀花","start":"20181201","end":"20261231"},{"name":"安旭居家護理所","code":"B11800014","type":"B1","city":"10015","town":"10015050","addr":"花蓮縣吉安鄉太昌村南海二街248巷18號","lng":121.59153,"lat":23.957087,"abc":"B","service":"專業照護服務","zones":["10015010","10015020","10015030","10015040","10015050","10015060","10015070","10015080","10015090","10015110","10015120","10015130"],"phone":"03-8511803","owner":"黃玉霞","start":"20181201","end":"20240630"},{"name":"臺灣基督教門諾會醫療財團法人附設門諾居家護理所","code":"B11800015","type":"B1","city":"10015","town":"10015010","addr":"花蓮縣花蓮市民立民權路44號","lng":121.629387,"lat":23.991854,"abc":"B","service":"專業照護服務","zones":["10015010","10015050"],"phone":"03-8241223","owner":"孫敏齡","start":"20181201","end":"20261231"},{"name":"臺北榮民總醫院鳳林分院附設居家護理所","code":"B11800018","type":"B1","city":"10015","town":"10015020","addr":"花蓮縣鳳林鎮鳳信里中正路一段2號","lng":121.446068,"lat":23.740162,"abc":"B","service":"專業照護服務","zones":["10015020","10015070","10015120"],"phone":"03-8764539#375","owner":"魏秀珠","start":"20181201","end":"20240630"},{"name":"佛教慈濟醫療財團法人附設花蓮慈濟居家護理所","code":"B11800019","type":"B1","city":"10015","town":"10015010","addr":"花蓮縣花蓮市中央路三段707號","lng":121.592285,"lat":23.995729,"abc":"B","service":"專業照護服務","zones":["10015010","10015020","10015040","10015050","10015060","10015110"],"phone":"03-8561825#12109","owner":"鄭若喬","start":"20181201","end":"20261231"},{"name":"衛生福利部花蓮醫院附設居家護理所","code":"B11800020","type":"B1","city":"10015","town":"10015010","addr":"花蓮縣花蓮市中正路600號","lng":121.611183,"lat":23.979479,"abc":"B","service":"專業照護服務","zones":["10015010","10015040","10015050"],"phone":"03-8358141#3112","owner":"卓如玉","start":"20190201","end":"20261231"},{"name":"花蓮縣玉里鎮衛生所","code":"B21800016","type":"B2","city":"10015","town":"10015030","addr":"花蓮縣玉里鎮泰昌里中正路152號","lng":121.314987,"lat":23.336557,"abc":"B","service":"喘息服務","zones":["10015010","10015020","10015030","10015040","10015050","10015060","10015070","10015080","10015090","10015100","10015110","10015120","10015130"],"phone":"03-8882046","owner":"鄭宇伸","start":"20190101","end":"20191231"},{"name":"花蓮縣萬榮鄉紅葉社區發展協會","code":"BF1800010","type":"BF","city":"10015","town":"10015120","addr":"花蓮縣萬榮鄉萬榮村紅葉9號","lng":121.410042,"lat":23.714275,"abc":"B","service":"喘息服務","zones":["10015090","10015120"],"phone":"03-8876930","owner":"黃德誠","start":"20230525","end":"20261231"},{"name":"花蓮縣秀林鄉部落交流協會","code":"BF1800017","type":"BF","city":"10015","town":"10015110","addr":"花蓮縣秀林鄉景美村加灣106號","lng":121.606728,"lat":24.082495,"abc":"B","service":"喘息服務","zones":["10015040","10015110"],"phone":"03-8269566","owner":" 湯絜靈","start":"20190101","end":"20261231"},{"name":"衛生福利部花蓮醫院附設社區式服務類長期照顧服務機構","code":"2A1800001","type":"2","city":"10015","town":"10015010","addr":"花蓮縣花蓮市中正路600號","lng":121.611183,"lat":23.979481,"abc":"B","service":"喘息服務","zones":["10015010","10015050"],"phone":"03-8358141","owner":"林彥雄","start":"20181201","end":"20261231"},{"name":"花蓮縣私立德心社區式服務類長期照顧服務機構","code":"2X1800015","type":"2","city":"10015","town":"10015090","addr":"花蓮縣瑞穗鄉瑞美村11鄰中山路2段39號","lng":121.376999,"lat":23.49749,"abc":"B","service":"家庭托顧服務(BC)","zones":["10015090"],"phone":"0933-480229","owner":"楊怡斌","start":"20180105","end":"20261231"},{"name":"花蓮縣玉里鎮衛生所","code":"B21800016","type":"B2","city":"10015","town":"10015030","addr":"花蓮縣玉里鎮泰昌里中正路152號","lng":121.314987,"lat":23.336557,"abc":"C","service":"巷弄長照站","zones":["10015030"],"phone":"03-8882046","owner":"鄭宇伸","start":"20190101","end":"20191231"},{"name":"社團法人花蓮縣婦女公共事務發展協會","code":"BE1800003","type":"BE","city":"10015","town":"10015070","addr":"花蓮縣光復鄉東富村東富路18巷7號","lng":121.471947,"lat":23.667601,"abc":"C","service":"巷弄長照站","zones":["10015070"],"phone":"03-8706113","owner":"萬星辰","start":"20190101","end":"20191231"},{"name":"花蓮縣花蓮市民運社區發展協會--C 級巷弄長照站","code":"BF1800004","type":"BF","city":"10015","town":"10015010","addr":"花蓮縣花蓮市民運里中興路96號","lng":121.629845,"lat":23.993151,"abc":"C","service":"巷弄長照站","zones":["10015010"],"phone":"03-8230980","owner":"蔡登順","start":"20190101","end":"20191231"},{"name":"花蓮縣萬榮鄉紅葉社區發展協會","code":"BF1800010","type":"BF","city":"10015","town":"10015120","addr":"花蓮縣萬榮鄉萬榮村紅葉9號","lng":121.410042,"lat":23.714275,"abc":"C","service":"巷弄長照站","zones":["10015120"],"phone":"03-8876930","owner":"黃德誠","start":"20190301","end":"20191231"},{"name":"花蓮縣光復鄉砂荖社區發展協會","code":"BF1800011","type":"BF","city":"10015","town":"10015070","addr":"花蓮縣光復鄉南富村建國路二段39號","lng":121.451157,"lat":23.641911,"abc":"C","service":"巷弄長照站","zones":["10015070"],"phone":"03-8736199","owner":"吳福鍵","start":"20190101","end":"20191231"},{"name":"花蓮縣鄉村社區大學發展協會","code":"BF1800012","type":"BF","city":"10015","town":"10015020","addr":"花蓮縣鳳林鎮北林里復興路157號","lng":121.474457,"lat":23.768169,"abc":"C","service":"巷弄長照站","zones":["10015020"],"phone":"03-8760530","owner":"黃福康","start":"20190101","end":"20191231"},{"name":"花蓮縣鶴岡社區營照協會","code":"BF1800013","type":"BF","city":"10015","town":"10015090","addr":"花蓮縣瑞穗鄉鶴岡村屋拉力二街94號","lng":121.391083,"lat":23.511145,"abc":"C","service":"巷弄長照站","zones":["10015090"],"phone":"03-8876009","owner":"陳彩妹","start":"20190101","end":"20191231"},{"name":"花蓮縣秀林鄉部落交流協會","code":"BF1800017","type":"BF","city":"10015","town":"10015110","addr":"花蓮縣秀林鄉景美村加灣106號","lng":121.606728,"lat":24.082495,"abc":"C","service":"巷弄長照站","zones":["10015110"],"phone":"03-8269566","owner":" 湯絜靈","start":"20190101","end":"20261231"},{"name":"社團法人花蓮縣博愛全人發展協會","code":"BE1800006","type":"BE","city":"10015","town":"10015010","addr":"花蓮縣花蓮市國威里博愛街225號","lng":121.604996,"lat":23.978876,"abc":"C","service":"巷弄長照站","zones":[],"phone":"03-8336576","owner":"饒輝兆","start":"20190101","end":"20191231"},{"name":"財團法人基督教芥菜種會","code":"BD1800005","type":"BD","city":"10015","town":"10015040","addr":"花蓮縣新城鄉北埔村北埔路13號","lng":121.606216,"lat":24.027452,"abc":"C","service":"巷弄長照站","zones":[],"phone":"03-8262021","owner":"吳瑞仁","start":"20190101","end":"20210331"},{"name":"花蓮縣新城鄉樹林腳社區發展協會","code":"BF1800022","type":"BF","city":"10015","town":"10015040","addr":"花蓮縣新城鄉北埔村樹林街57巷9號","lng":121.599373,"lat":24.040161,"abc":"C","service":"巷弄長照站","zones":[],"phone":"03-8263562","owner":"廖增森","start":"20190101","end":"20191231"},{"name":"真善美發展協會","code":"BF1800023","type":"BF","city":"10015","town":"10015090","addr":"花蓮縣瑞穗鄉瑞穗村中山路1段197號","lng":121.377007,"lat":23.497276,"abc":"C","service":"巷弄長照站","zones":[],"phone":"0912-828283","owner":"卲英嬌","start":"20190101","end":"20191231"},{"name":"財團法人門諾社會福利慈善事業基金會附設花蓮居家式服務類長期照顧服務機構財團法人門諾社會福利慈善事業基金會附設花蓮居家式服務類長期照顧服務機構(吉安區)","code":"1S1800002","type":"1","city":"10015","town":"10015050","addr":"花蓮縣吉安鄉東昌村東昌村東海6街73號","lng":121.595436,"lat":23.966377,"abc":"C","service":"巷弄長照站","zones":["10015050"],"phone":"03-8542355轉21","owner":"","start":"20190101","end":"20191231"},{"name":"財團法人門諾社會福利慈善事業基金會附設花蓮居家式服務類長期照顧服務機構財團法人門諾社會福利慈善事業基金會附設花蓮居家式服務類長期照顧服務機構(壽豐區)","code":"1S1800003","type":"1","city":"10015","town":"10015060","addr":"花蓮縣壽豐鄉壽豐村壽豐村公園路72號","lng":121.508522,"lat":23.8722,"abc":"C","service":"巷弄長照站","zones":["10015060"],"phone":"03-8542355轉23","owner":"","start":"20190101","end":"20191231"},{"name":"花蓮縣壽豐鄉月眉社區發展協會","code":"BF1800030","type":"BF","city":"10015","town":"10015060","addr":"花蓮縣壽豐鄉月眉村3段108號","lng":121.547836,"lat":23.860413,"abc":"C","service":"巷弄長照站","zones":["10015060"],"phone":"0918-455568","owner":"琥宥舞幸","start":"20190101","end":"20191231"},{"name":"花蓮縣豐濱鄉豐濱社區發展協會","code":"BF1800031","type":"BF","city":"10015","town":"10015080","addr":"花蓮縣豐濱鄉豐濱村民族街82巷8-2號","lng":121.520554,"lat":23.595955,"abc":"C","service":"巷弄長照站","zones":["10015080"],"phone":"0917-956753","owner":"吳建安","start":"20190101","end":"20191231"},{"name":"財團法人中華民國佛教慈濟慈善事業基金會財團法人中華民國佛教慈濟慈善事業基金會(民孝里)","code":"BE1800010","type":"BE","city":"10015","town":"10015010","addr":"花蓮縣花蓮市民孝里林園一街25號","lng":121.631393,"lat":24.001884,"abc":"C","service":"巷弄長照站","zones":["10015010"],"phone":"03-8266779轉557","owner":"釋證嚴","start":"20190101","end":"20191231"},{"name":"財團法人中華民國佛教慈濟慈善事業基金會財團法人中華民國佛教慈濟慈善事業基金會(國慶里)","code":"BE1800011","type":"BE","city":"10015","town":"10015010","addr":"花蓮縣花蓮市國慶里中央路3段703號","lng":121.590996,"lat":23.994869,"abc":"C","service":"巷弄長照站","zones":["10015010"],"phone":"03-8266779轉557","owner":"釋證嚴","start":"20190101","end":"20191231"},{"name":"花蓮縣馬立雲營造協會","code":"BF1800032","type":"BF","city":"10015","town":"10015090","addr":"花蓮縣瑞穗鄉舞鶴村馬立雲路139-6號","lng":121.34993,"lat":23.472095,"abc":"C","service":"巷弄長照站","zones":["10015090"],"phone":"0915-61540","owner":"拉翁.進成","start":"20190101","end":"20191231"},{"name":"花蓮縣瑞穗鄉富民社區發展協會","code":"BF1800033","type":"BF","city":"10015","town":"10015090","addr":"花蓮縣瑞穗鄉富民村民七街21-2號","lng":121.375687,"lat":23.564278,"abc":"C","service":"巷弄長照站","zones":["10015090"],"phone":"03-8811668","owner":"黃昌成","start":"20190101","end":"20191231"},{"name":"花蓮縣德武部落關懷文化創意產業協會","code":"BF1800034","type":"BF","city":"10015","town":"10015030","addr":"花蓮縣玉里鎮德武里德武里德武12鄰27-1號","lng":121.405083,"lat":23.481125,"abc":"C","service":"巷弄長照站","zones":["10015030"],"phone":"0939-566426","owner":"徐春財","start":"20190101","end":"20191231"},{"name":"花蓮縣後山人文發展協會","code":"BF1800035","type":"BF","city":"10015","town":"10015010","addr":"花蓮縣花蓮市民心里民心里華西21號","lng":121.631165,"lat":24.015713,"abc":"C","service":"巷弄長照站","zones":["10015010"],"phone":"03-8242803","owner":"吳家來","start":"20190101","end":"20191231"},{"name":"花蓮縣光復鄉香草場社區發展協會","code":"BF1800037","type":"BF","city":"10015","town":"10015070","addr":"花蓮縣光復鄉大平村大平村武昌街74巷11號","lng":121.431839,"lat":23.671677,"abc":"C","service":"巷弄長照站","zones":["10015070"],"phone":"03-8701238","owner":"","start":"20190101","end":"20191231"},{"name":"臺北榮民總醫院玉里分院","code":"B21800021","type":"B2","city":"10015","town":"10015030","addr":"花蓮縣玉里鎮中城里啟模里民國路2段102號","lng":121.313263,"lat":23.327621,"abc":"C","service":"巷弄長照站","zones":["10015030"],"phone":"03-8880895","owner":"","start":"20190101","end":"20191231"},{"name":"卓溪村社區發展協會","code":"BF1800038","type":"BF","city":"10015","town":"10015130","addr":"花蓮縣卓溪鄉卓溪村卓溪村中正64號","lng":121.304459,"lat":23.345842,"abc":"C","service":"巷弄長照站","zones":["10015130"],"phone":"03-8888831","owner":"","start":"20190101","end":"20191231"},{"name":"財團法人一粒麥子社會福利慈善事業基金會附設花蓮縣私立有福居家式服務類長期照顧服務機構","code":"1S1800001","type":"1","city":"10015","town":"10015010","addr":"花蓮縣花蓮市民立里順興路12之7號","lng":121.62899,"lat":23.99194,"abc":"B","service":"居家服務","zones":["10015010","10015040","10015050","10015060","10015110"],"phone":"03-8310851","owner":"呂信雄","start":"20210101","end":"20261231"},{"name":"社團法人花蓮縣老人暨家庭關懷協會附設花蓮縣私立老家居家式服務類長期照顧服務機構","code":"1R1800001","type":"1","city":"10015","town":"10015010","addr":"花蓮縣花蓮市主農里中正路156號3樓","lng":121.597588,"lat":23.97073,"abc":"B","service":"居家服務","zones":["10015010","10015020","10015030","10015040","10015050","10015060","10015070","10015090","10015110","10015120","10015130"],"phone":"03-8330573","owner":"楊傑","start":"20210101","end":"20261231"},{"name":"花蓮縣私立舒漾居家式服務類長期照顧服務機構","code":"1X1800003","type":"1","city":"10015","town":"10015010","addr":"花蓮縣花蓮市國裕里36鄰富強路121號","lng":121.596817,"lat":23.997057,"abc":"B","service":"居家服務","zones":["10015010","10015040","10015050","10015110"],"phone":"03-8575071","owner":"楊秀花","start":"20210101","end":"20261231"},{"name":"佛教慈濟醫療財團法人附設花蓮縣私立花蓮慈濟居家式服務類長期照顧服務機構","code":"1U1800001","type":"1","city":"10015","town":"10015010","addr":"花蓮縣花蓮市國慶里11鄰中山路一段3巷11號","lng":121.592285,"lat":23.995729,"abc":"B","service":"居家服務","zones":["10015010","10015020","10015040","10015050","10015060","10015070","10015110","10015120"],"phone":"03-8561825#12109","owner":"釋證嚴","start":"20210101","end":"20261231"},{"name":"社團法人中華民國士林靈糧堂社會福利協會附設花蓮縣私立安馨居家式服務類長期照顧服務機構","code":"1R1800002","type":"1","city":"10015","town":"10015050","addr":"花蓮縣吉安鄉吉安村吉安路二段77巷41號2樓","lng":121.589005,"lat":23.96874,"abc":"B","service":"居家服務","zones":["10015010","10015030","10015040","10015050","10015100","10015130"],"phone":"03-8544030","owner":"丁家藴","start":"20210101","end":"20261231"},{"name":"有限責任臺灣第二照顧服務勞動合作社附設花蓮縣私立居家式服務類長期照顧服務機構","code":"1T1800001","type":"1","city":"10015","town":"10015010","addr":"花蓮縣花蓮市民勤里42鄰府前路5之10號","lng":121.620941,"lat":23.987741,"abc":"B","service":"居家服務","zones":["10015010","10015020","10015030","10015040","10015050","10015060","10015070","10015080","10015090","10015100","10015110","10015120","10015130"],"phone":"03-8230699#219","owner":"伍崑崙","start":"20210101","end":"20261231"},{"name":"花蓮縣卓溪鄉衛生所附設居家式服務類長期照顧服務機構","code":"1C1800003","type":"1","city":"10015","town":"10015130","addr":"花蓮縣卓溪鄉卓溪村6鄰中正65號","lng":121.304153,"lat":23.345932,"abc":"B","service":"居家服務","zones":["10015030","10015090","10015100","10015130"],"phone":"03-8882592","owner":"陳志偉","start":"20210101","end":"20261231"},{"name":"花蓮縣私立沛恩居家式服務類長期照顧服務機構","code":"1X1800004","type":"1","city":"10015","town":"10015050","addr":"花蓮縣吉安鄉勝安村自強路282及284號1樓","lng":121.588524,"lat":23.981699,"abc":"B","service":"居家服務","zones":["10015010","10015030","10015040","10015050","10015060","10015080","10015090","10015100","10015110","10015120","10015130"],"phone":"03-8236789","owner":"劉素珠","start":"20210101","end":"20261231"},{"name":"佛教慈濟醫療財團法人附設花蓮縣私立玉里慈濟居家長照機構","code":"1U1800002","type":"1","city":"10015","town":"10015030","addr":"花蓮縣玉里鎮國武里13鄰民權街1之1號","lng":121.318527,"lat":23.334661,"abc":"B","service":"居家服務","zones":["10015030","10015090","10015100","10015120","10015130"],"phone":"03-8882718*723或715","owner":"釋證嚴","start":"20210101","end":"20261231"},{"name":"花蓮縣私立真善美居家長照機構","code":"1X1800006","type":"1","city":"10015","town":"10015010","addr":"花蓮縣花蓮市國富里37鄰中央路三段828號2樓","lng":121.592049,"lat":23.992958,"abc":"B","service":"居家服務","zones":["10015010","10015040","10015050","10015110"],"phone":"03-8522066","owner":"楊文景","start":"20210101","end":"20261231"},{"name":"財團法人門諾社會福利慈善事業基金會","code":"BD1800007","type":"BD","city":"10015","town":"10015010","addr":"花蓮縣花蓮市民德里民權路4號","lng":121.622009,"lat":23.983217,"abc":"B","service":"營養餐飲服務","zones":["10015010","10015040","10015050","10015060","10015080","10015110","10015130"],"phone":"03-8338009","owner":"周朝國","start":"20200101","end":"20240630"},{"name":"森元居家物理治療所","code":"B41800003","type":"B4","city":"10015","town":"10015050","addr":"花蓮縣吉安鄉北昌村建昌路186號1樓","lng":121.591698,"lat":23.989391,"abc":"B","service":"專業照護服務","zones":["10015010","10015020","10015040","10015050","10015060","10015070","10015080","10015110","10015120"],"phone":"0955-584-882","owner":"蘇元煒","start":"20190220","end":"20261231"},{"name":"財團法人門諾社會福利慈善事業基金會附設花蓮縣私立花蓮綜合長照機構","code":"4S1800002","type":"4","city":"10015","town":"10015010","addr":"花蓮縣花蓮市民德里7鄰民權路4號","lng":121.622009,"lat":23.983217,"abc":"B","service":"居家服務","zones":["10015010","10015020","10015040","10015050","10015060","10015110","10015120"],"phone":"03-8338009","owner":"周朝國","start":"20210101","end":"20261231"},{"name":"財團法人門諾社會福利慈善事業基金會附設花蓮縣私立花蓮綜合長照機構","code":"4S1800002","type":"4","city":"10015","town":"10015010","addr":"花蓮縣花蓮市民德里7鄰民權路4號","lng":121.622009,"lat":23.983217,"abc":"B","service":"喘息服務","zones":["10015010","10015020","10015040","10015050","10015060","10015110","10015120"],"phone":"03-8338009","owner":"周朝國","start":"20190123","end":"20261231"},{"name":"花蓮縣私立富爾捷居家式服務類長期照顧服務機構","code":"1X1800001","type":"1","city":"10015","town":"10015040","addr":"花蓮縣新城鄉北埔村20鄰復興路255號","lng":121.602669,"lat":24.032141,"abc":"B","service":"居家服務","zones":["10015010","10015020","10015030","10015040","10015050","10015060","10015070","10015090","10015100","10015110","10015120","10015130"],"phone":"03-8314913","owner":"潘爾捷","start":"20210101","end":"20261231"},{"name":"財團法人門諾社會福利慈善事業基金會附設花蓮縣私立玉里綜合長照機構","code":"4S1800001","type":"4","city":"10015","town":"10015030","addr":"花蓮縣玉里鎮中城里20鄰更生路38號","lng":121.310509,"lat":23.329142,"abc":"B","service":"喘息服務","zones":["10015030","10015070","10015090","10015100","10015120","10015130"],"phone":"03-8980601","owner":"周朝國","start":"20190214","end":"20261231"},{"name":"財團法人一粒麥子社會福利慈善事業基金會附設花蓮縣私立有福居家式服務類長期照顧服務機構","code":"1S1800001","type":"1","city":"10015","town":"10015010","addr":"花蓮縣花蓮市民立里順興路12之7號","lng":121.62899,"lat":23.99194,"abc":"B","service":"喘息服務","zones":["10015010","10015040","10015050","10015060","10015110"],"phone":"03-8310851","owner":"呂信雄","start":"20190107","end":"20261231"},{"name":"花蓮縣私立舒漾居家式服務類長期照顧服務機構","code":"1X1800003","type":"1","city":"10015","town":"10015010","addr":"花蓮縣花蓮市國裕里36鄰富強路121號","lng":121.596817,"lat":23.997057,"abc":"B","service":"喘息服務","zones":["10015010","10015040","10015050","10015110"],"phone":"03-8575071","owner":"楊秀花","start":"20181228","end":"20261231"},{"name":"花蓮縣私立沛恩居家式服務類長期照顧服務機構","code":"1X1800004","type":"1","city":"10015","town":"10015050","addr":"花蓮縣吉安鄉勝安村自強路282及284號1樓","lng":121.588524,"lat":23.981699,"abc":"B","service":"喘息服務","zones":["10015010","10015030","10015040","10015050","10015060","10015080","10015090","10015100","10015110","10015120","10015130"],"phone":"03-8236789","owner":"劉素珠","start":"20181214","end":"20261231"},{"name":"花蓮縣卓溪鄉衛生所附設居家式服務類長期照顧服務機構","code":"1C1800003","type":"1","city":"10015","town":"10015130","addr":"花蓮縣卓溪鄉卓溪村6鄰中正65號","lng":121.304153,"lat":23.345932,"abc":"B","service":"喘息服務","zones":["10015030","10015090","10015100","10015130"],"phone":"03-8882592","owner":"陳志偉","start":"20190415","end":"20261231"},{"name":"社團法人中華民國士林靈糧堂社會福利協會附設花蓮縣私立安馨居家式服務類長期照顧服務機構","code":"1R1800002","type":"1","city":"10015","town":"10015050","addr":"花蓮縣吉安鄉吉安村吉安路二段77巷41號2樓","lng":121.589005,"lat":23.96874,"abc":"B","service":"喘息服務","zones":["10015010","10015030","10015040","10015050","10015100","10015130"],"phone":"03-8544030","owner":"丁家藴","start":"20190507","end":"20261231"},{"name":"佛教慈濟醫療財團法人附設花蓮縣私立玉里慈濟居家長照機構","code":"1U1800002","type":"1","city":"10015","town":"10015030","addr":"花蓮縣玉里鎮國武里13鄰民權街1之1號","lng":121.318527,"lat":23.334661,"abc":"B","service":"喘息服務","zones":["10015030","10015090","10015100","10015120","10015130"],"phone":"03-8882718*723或715","owner":"釋證嚴","start":"20190514","end":"20261231"},{"name":"花蓮縣私立真善美居家長照機構","code":"1X1800006","type":"1","city":"10015","town":"10015010","addr":"花蓮縣花蓮市國富里37鄰中央路三段828號2樓","lng":121.592049,"lat":23.992958,"abc":"B","service":"喘息服務","zones":["10015010","10015040","10015050","10015110"],"phone":"03-8522066","owner":"楊文景","start":"20190610","end":"20261231"},{"name":"國軍花蓮總醫院附設民眾診療服務處附設一般護理之家","code":"A31800001","type":"A3","city":"10015","town":"10015040","addr":"花蓮縣新城鄉嘉里村嘉里路163號","lng":121.607399,"lat":24.024429,"abc":"B","service":"喘息服務","zones":["10015010","10015020","10015030","10015040","10015050","10015060","10015070","10015080","10015090","10015100","10015110","10015120","10015130"],"phone":"03-8261473","owner":"張珍瑋","start":"20190415","end":"20261231","beds":100,"residents":49},{"name":"臺灣基督教門諾會醫療財團法人附設門諾壽豐護理之家","code":"A31800007","type":"A3","city":"10015","town":"10015060","addr":"花蓮縣壽豐鄉共和村魚池52號","lng":121.52578,"lat":23.869387,"abc":"B","service":"喘息服務","zones":["10015010","10015020","10015030","10015040","10015050","10015060","10015070","10015080","10015090","10015100","10015110","10015120","10015130"],"phone":"038664700","owner":"江筱蕙","start":"20181201","end":"20261231","beds":200,"residents":145},{"name":"財團法人門諾社會福利慈善事業基金會附設花蓮縣私立玉里綜合長照機構","code":"4S1800001","type":"4","city":"10015","town":"10015030","addr":"花蓮縣玉里鎮中城里20鄰更生路38號","lng":121.310509,"lat":23.329142,"abc":"B","service":"居家服務","zones":["10015030","10015070","10015090","10015100","10015120","10015130"],"phone":"03-8980601","owner":"周朝國","start":"20210101","end":"20261231"},{"name":"富爾捷居家護理所","code":"B11800009","type":"B1","city":"10015","town":"10015010","addr":"花蓮縣花蓮市海岸路47-1號","lng":121.633736,"lat":23.992308,"abc":"B","service":"交通接送服務","zones":["10015010","10015020","10015040","10015050","10015060","10015070","10015090","10015110","10015120"],"phone":"03-8314913","owner":"潘爾捷","start":"20210601","end":"20221231"},{"name":"臺灣基督教門諾會醫療財團法人門諾醫院","code":"B21800017","type":"B2","city":"10015","town":"10015010","addr":"花蓮縣花蓮市民權路44號","lng":121.629387,"lat":23.991854,"abc":"B","service":"專業照護服務","zones":["10015010","10015040","10015050","10015060","10015110"],"phone":"03-8241350","owner":"莊永鑣","start":"20190111","end":"20261231"},{"name":"花蓮縣太魯閣社會關懷協會(克尼布教會)","code":"BF1800043","type":"BF","city":"10015","town":"10015110","addr":"花蓮縣秀林鄉和平村72號","lng":121.740181,"lat":24.269772,"abc":"C","service":"巷弄長照站","zones":["10015110"],"phone":"03-8681151","owner":"徐玉美","start":"20190101","end":"20191231"},{"name":"花蓮縣原住民舒漾婦女關懷成長協會","code":"BF1800044","type":"BF","city":"10015","town":"10015110","addr":"花蓮縣秀林鄉秀林村秀林路10-1號","lng":121.653587,"lat":24.130423,"abc":"C","service":"巷弄長照站","zones":["10015110"],"phone":"03-8262660","owner":"待補","start":"20190101","end":"20191231"},{"name":"財團法人天主教會花蓮教區附設花蓮縣私立聲遠老人養護之家","code":"BD1800009","type":"BD","city":"10015","town":"10015040","addr":"花蓮縣新城鄉新城村博愛路31號","lng":121.651329,"lat":24.126612,"abc":"C","service":"巷弄長照站","zones":["10015040"],"phone":"03-8610075","owner":"待補","start":"20190101","end":"20191231"},{"name":"花蓮縣托瓦本全人關懷發展協會","code":"BF1800045","type":"BF","city":"10015","town":"10015010","addr":"花蓮縣花蓮市民孝里華東86之1號","lng":121.632637,"lat":24.007021,"abc":"C","service":"巷弄長照站","zones":["10015010"],"phone":"0937-166372","owner":"蔡憶萍","start":"20190101","end":"20191231"},{"name":"花蓮縣鳥踏石愛鄰關懷協會","code":"BF1800046","type":"BF","city":"10015","town":"10015010","addr":"花蓮縣花蓮市民孝里東興一街79巷20號1樓","lng":121.630585,"lat":24.003021,"abc":"C","service":"巷弄長照站","zones":["10015010"],"phone":"0937-467020","owner":"待補","start":"20190101","end":"20191231"},{"name":"財團法人天主教會花蓮教區(三棧天主堂)","code":"BD1800010","type":"BD","city":"10015","town":"10015110","addr":"花蓮縣秀林鄉景美村三77-2號","lng":121.61322,"lat":24.103563,"abc":"C","service":"巷弄長照站","zones":["10015010"],"phone":"03-8268537","owner":"待補","start":"20190101","end":"20191231"},{"name":"花蓮縣新秀原住民社區關懷協會","code":"BF1800047","type":"BF","city":"10015","town":"10015040","addr":"花蓮縣新城鄉康樂村大德街407號","lng":121.607742,"lat":24.043592,"abc":"C","service":"巷弄長照站","zones":["10015040"],"phone":"03-260865","owner":"待補","start":"20190101","end":"20191231"},{"name":"花蓮縣花蓮市原住民感恩關懷協會","code":"BF1800049","type":"BF","city":"10015","town":"10015010","addr":"花蓮縣花蓮市國強里豐村78-2號","lng":121.600136,"lat":24.001999,"abc":"C","service":"巷弄長照站","zones":["10015010"],"phone":"0926-571348","owner":"待補","start":"20190101","end":"20191231"},{"name":"花蓮縣原住民新部落發展協會","code":"BF1800050","type":"BF","city":"10015","town":"10015110","addr":"花蓮縣秀林鄉佳民村48-2號","lng":121.596161,"lat":24.056051,"abc":"C","service":"巷弄長照站","zones":["10015110"],"phone":"03-8262770","owner":"待補","start":"20190101","end":"20191231"},{"name":"花蓮縣花蓮市國福社區發展協會","code":"BF1800051","type":"BF","city":"10015","town":"10015010","addr":"花蓮縣花蓮市國福里沙基拉雅111號","lng":121.581863,"lat":24.010376,"abc":"C","service":"巷弄長照站","zones":["10015010"],"phone":"03-8563455","owner":"待補","start":"20190101","end":"20191231"},{"name":"花蓮縣吉安鄉南昌社區發展協會","code":"BF1800052","type":"BF","city":"10015","town":"10015050","addr":"花蓮縣吉安鄉南昌村文化七街62-1號","lng":121.579796,"lat":23.970366,"abc":"C","service":"巷弄長照站","zones":["10015050"],"phone":"03-8460089","owner":"待補","start":"20190101","end":"20191231"},{"name":"花蓮縣美雅麥方舟關懷協會","code":"BF1800053","type":"BF","city":"10015","town":"10015050","addr":"花蓮縣吉安鄉太昌村明義七街36號","lng":121.556633,"lat":23.993971,"abc":"C","service":"巷弄長照站","zones":["10015050"],"phone":"03-8561273","owner":"待補","start":"20190101","end":"20191231"},{"name":"花蓮縣秀林鄉水源社區發展協會","code":"BF1800054","type":"BF","city":"10015","town":"10015110","addr":"花蓮縣秀林鄉水源村98-1號","lng":121.553993,"lat":24.003756,"abc":"C","service":"巷弄長照站","zones":["10015110"],"phone":"0989-617526","owner":"待補","start":"20190101","end":"20191231"},{"name":"財團法人台灣基督長老教會阿美中會(南華教會)","code":"BD1800011","type":"BD","city":"10015","town":"10015050","addr":"花蓮縣吉安鄉南華村吉安路五段246號","lng":121.550476,"lat":23.954161,"abc":"C","service":"巷弄長照站","zones":["10015050"],"phone":"0987-487191","owner":"待補","start":"20190101","end":"20191231"},{"name":"花蓮縣原住民族教育文化與部落發展協會","code":"BF1800055","type":"BF","city":"10015","town":"10015060","addr":"花蓮縣壽豐鄉光榮村4鄰2街30號","lng":121.514832,"lat":23.881659,"abc":"C","service":"巷弄長照站","zones":["10015060"],"phone":"03-8652270","owner":"待補","start":"20190101","end":"20191231"},{"name":"花蓮縣太魯閣社會關懷協會","code":"BF1800056","type":"BF","city":"10015","town":"10015110","addr":"花蓮縣秀林鄉文蘭村2鄰17號-1","lng":121.507141,"lat":23.94985,"abc":"C","service":"巷弄長照站","zones":["10015110"],"phone":"038-641616","owner":"待補","start":"20190101","end":"20191231"},{"name":"花蓮縣壽豐鄉壽農社區發展協會","code":"BF1800057","type":"BF","city":"10015","town":"10015060","addr":"花蓮縣壽豐鄉壽豐村20號","lng":121.50145,"lat":23.867102,"abc":"C","service":"巷弄長照站","zones":["10015060"],"phone":"03-8656360","owner":"待補","start":"20190101","end":"20191231"},{"name":"財團法人天主教會花蓮教區(港口天主堂)","code":"BD1800012","type":"BD","city":"10015","town":"10015080","addr":"花蓮縣豐濱鄉港口村7鄰118號","lng":121.504326,"lat":23.474464,"abc":"C","service":"巷弄長照站","zones":["10015080"],"phone":"0978-395622","owner":"待補","start":"20190101","end":"20191231"},{"name":"花蓮縣秀林鄉慕谷慕魚護溪產業發展協會","code":"BF1800058","type":"BF","city":"10015","town":"10015110","addr":"花蓮縣秀林鄉銅門村5鄰榕樹56-2號","lng":121.502846,"lat":23.961365,"abc":"C","service":"巷弄長照站","zones":["10015110"],"phone":"03-8641877","owner":"待補","start":"20190101","end":"20191231"},{"name":"花蓮縣鳳林鎮山興社區發展協會","code":"BF1800059","type":"BF","city":"10015","town":"10015020","addr":"花蓮縣鳳林鎮山興里山文路2號","lng":121.498901,"lat":23.726706,"abc":"C","service":"巷弄長照站","zones":["10015020"],"phone":"03-8741008","owner":"待補","start":"20190101","end":"20191231"},{"name":"財團法人天主教會花蓮教區(靜浦天主堂)","code":"BD1800013","type":"BD","city":"10015","town":"10015080","addr":"花蓮縣豐濱鄉靜浦村2鄰218號","lng":121.498436,"lat":23.460745,"abc":"C","service":"巷弄長照站","zones":["10015080"],"phone":"089-852190","owner":"待補","start":"20190101","end":"20191231"},{"name":"花蓮縣壽豐鄉溪口社區發展協會","code":"BF1800060","type":"BF","city":"10015","town":"10015060","addr":"花蓮縣壽豐鄉溪口村9鄰溪口路103巷3號","lng":121.473351,"lat":23.820068,"abc":"C","service":"巷弄長照站","zones":["10015060"],"phone":"038-653855","owner":"待補","start":"20190101","end":"20191231"},{"name":"花蓮縣秀林鄉文教運動協會","code":"BF1800061","type":"BF","city":"10015","town":"10015110","addr":"花蓮縣秀林鄉秀林村3鄰民有64號","lng":121.652344,"lat":24.129076,"abc":"C","service":"巷弄長照站","zones":["10015110"],"phone":"0978-601526","owner":"待補","start":"20190101","end":"20191231"},{"name":"花蓮縣卓溪鄉崙山社區發展協會","code":"BF1800062","type":"BF","city":"10015","town":"10015130","addr":"花蓮縣卓溪鄉崙山村1鄰11號","lng":121.343452,"lat":23.439232,"abc":"C","service":"巷弄長照站","zones":["10015130"],"phone":"0933-998481","owner":"待補","start":"20190101","end":"20191231"},{"name":"財團法人天主教會花蓮教區(古風天主堂)","code":"BD1800014","type":"BD","city":"10015","town":"10015130","addr":"花蓮縣卓溪鄉古風村17鄰64-1號","lng":121.273506,"lat":23.250542,"abc":"C","service":"巷弄長照站","zones":["10015130"],"phone":"0965-120311","owner":"待補","start":"20190101","end":"20191231"},{"name":"花蓮縣原力全人發展協會","code":"BF1800063","type":"BF","city":"10015","town":"10015130","addr":"花蓮縣卓溪鄉卓清村1鄰清水13號","lng":121.272537,"lat":23.2775,"abc":"C","service":"巷弄長照站","zones":["10015130"],"phone":"0978392532","owner":"林泳浤","start":"20190101","end":"20191231"},{"name":"財團法人天主教會花蓮教區","code":"BD1800015","type":"BD","city":"10015","town":"10015130","addr":"花蓮縣卓溪鄉卓清村卓樂18號","lng":121.270271,"lat":23.29562,"abc":"C","service":"巷弄長照站","zones":["10015130"],"phone":"0985-928045","owner":"待補","start":"20190101","end":"20191231"},{"name":"花蓮縣卓溪鄉崙天社區發展協會","code":"BF1800064","type":"BF","city":"10015","town":"10015130","addr":"花蓮縣卓溪鄉古風村1鄰崙天20號","lng":121.264893,"lat":23.220173,"abc":"C","service":"巷弄長照站","zones":["10015130"],"phone":"03-8846108","owner":"待補","start":"20190101","end":"20191231"},{"name":"財團法人天主教會花蓮教區(萬寧天主堂)","code":"BD1800016","type":"BD","city":"10015","town":"10015100","addr":"花蓮縣富里鄉萬寧村5鄰鎮寧1號","lng":121.298988,"lat":23.253468,"abc":"C","service":"巷弄長照站","zones":["10015100"],"phone":"03-8830487","owner":"待補","start":"20190101","end":"20191231"},{"name":"花蓮縣達蘭埠文化農業產業推廣協會","code":"BF1800065","type":"BF","city":"10015","town":"10015100","addr":"花蓮縣富里鄉新興村東興109號","lng":121.28994,"lat":23.226114,"abc":"C","service":"巷弄長照站","zones":["10015100"],"phone":"03-8821089","owner":"待補","start":"20190101","end":"20191231"},{"name":"花蓮縣瑞穗鄉瑞祥社區發展協會","code":"BF1800066","type":"BF","city":"10015","town":"10015090","addr":"花蓮縣瑞穗鄉瑞祥村祥北路二段127號","lng":121.35881,"lat":23.499838,"abc":"C","service":"巷弄長照站","zones":["10015090"],"phone":"0981-880984","owner":"待補","start":"20190101","end":"20191231"},{"name":"財團法人台灣基督長老教會阿美中會","code":"BD1800017","type":"BD","city":"10015","town":"10015090","addr":"花蓮縣瑞穗鄉瑞美村中山路一段207號","lng":121.382431,"lat":23.495979,"abc":"C","service":"巷弄長照站","zones":["10015090"],"phone":"03-8811070","owner":"待補","start":"20190101","end":"20191231"},{"name":"花蓮縣旮馬亞發展協會","code":"BF1800067","type":"BF","city":"10015","town":"10015090","addr":"花蓮縣瑞穗鄉瑞良村中山路三段72號","lng":121.395042,"lat":23.492504,"abc":"C","service":"巷弄長照站","zones":["10015090"],"phone":"03-8870528","owner":"待補","start":"20190101","end":"20191231"},{"name":"花蓮縣丹群布農族文藝發展協會","code":"BF1800068","type":"BF","city":"10015","town":"10015120","addr":"花蓮縣萬榮鄉馬遠村9鄰210號","lng":121.369026,"lat":23.526426,"abc":"C","service":"巷弄長照站","zones":["10015120"],"phone":"0926-967958","owner":"待補","start":"20190101","end":"20191231"},{"name":"社團法人花蓮縣多加全人關懷協會","code":"BE1800016","type":"BE","city":"10015","town":"10015120","addr":"花蓮縣萬榮鄉明利村2鄰27之2號","lng":121.414085,"lat":23.710098,"abc":"C","service":"巷弄長照站","zones":["10015120"],"phone":"03-8751950","owner":"待補","start":"20190101","end":"20191231"},{"name":"財團法人天主教會花蓮教區(鳳信天主堂)","code":"BD1800018","type":"BD","city":"10015","town":"10015020","addr":"花蓮縣鳳林鎮鳳信里中正路一段120巷25號","lng":121.444,"lat":23.730112,"abc":"C","service":"巷弄長照站","zones":["10015020"],"phone":"03-8763703","owner":"待補","start":"20190101","end":"20191231"},{"name":"花蓮縣光復鄉馬佛社區發展協會","code":"BF1800069","type":"BF","city":"10015","town":"10015070","addr":"花蓮縣光復鄉西富村西富路9號","lng":121.428909,"lat":23.639759,"abc":"C","service":"巷弄長照站","zones":["10015070"],"phone":"0983-347164","owner":"待補","start":"20190101","end":"20191231"},{"name":"花蓮縣光復鄉大馬太鞍社區發展協會","code":"BF1800070","type":"BF","city":"10015","town":"10015070","addr":"花蓮縣光復鄉大同村中山路三段84號","lng":121.426598,"lat":23.671633,"abc":"C","service":"巷弄長照站","zones":["10015070"],"phone":"0935-150868","owner":"待補","start":"20190101","end":"20191231"},{"name":"花蓮縣阿美族吉伐塔罕文化生態產業發展協會","code":"BF1800071","type":"BF","city":"10015","town":"10015070","addr":"花蓮縣光復鄉大全村中山路一段168巷15號","lng":121.417542,"lat":23.650408,"abc":"C","service":"巷弄長照站","zones":["10015070"],"phone":"0917-698073","owner":"待補","start":"20190101","end":"20191231"},{"name":"花蓮縣光復鄉太巴塱社區營造協會","code":"BF1800072","type":"BF","city":"10015","town":"10015070","addr":"花蓮縣光復鄉南富村富愛街22號","lng":121.449638,"lat":23.656284,"abc":"C","service":"巷弄長照站","zones":["10015070"],"phone":"03-8703141","owner":"待補","start":"20190101","end":"20191231"},{"name":"花蓮縣原住民族文化產業建設協會","code":"BD1800019","type":"BD","city":"10015","town":"10015070","addr":"花蓮縣光復鄉南富村建國路二段178號","lng":121.448624,"lat":23.638172,"abc":"C","service":"巷弄長照站","zones":["10015070"],"phone":"0930-253207","owner":"待補","start":"20190101","end":"20191231"},{"name":"財團法人天主教會花蓮教區(富田天主堂)","code":"BD1800020","type":"BD","city":"10015","town":"10015070","addr":"花蓮縣光復鄉西富村富田一街16號","lng":121.447769,"lat":23.658873,"abc":"C","service":"巷弄長照站","zones":["10015070"],"phone":"03-8705110","owner":"待補","start":"20190101","end":"20191231"},{"name":"花蓮縣光復鄉嗨嘿哇社區全人關懷協會","code":"BF1800073","type":"BF","city":"10015","town":"10015070","addr":"花蓮縣光復鄉北富村中正路二段79號","lng":121.450699,"lat":23.658154,"abc":"C","service":"巷弄長照站","zones":["10015070"],"phone":"03-8701211","owner":"待補","start":"20190101","end":"20191231"},{"name":"財團法人天主教會花蓮教區(玉里天主堂)","code":"BD1800021","type":"BD","city":"10015","town":"10015030","addr":"花蓮縣玉里鎮泰昌里中山路二段166號","lng":121.314346,"lat":23.335941,"abc":"C","service":"巷弄長照站","zones":["10015030"],"phone":"03-8882824","owner":"待補","start":"20190101","end":"20191231"},{"name":"花蓮縣督旮薾社區營造協會","code":"BF1800074","type":"BF","city":"10015","town":"10015030","addr":"花蓮縣玉里鎮觀音里21鄰77號","lng":121.359917,"lat":23.399006,"abc":"C","service":"巷弄長照站","zones":["10015030"],"phone":"03-8851285","owner":"待補","start":"20190101","end":"20191231"},{"name":"花蓮縣玉里鎮泰林社區發展協會","code":"BF1800075","type":"BF","city":"10015","town":"10015030","addr":"花蓮縣玉里鎮春日里泰林5鄰65-1","lng":121.389191,"lat":23.44828,"abc":"C","service":"巷弄長照站","zones":["10015030"],"phone":"0966-584790","owner":"待補","start":"20190101","end":"20191231"},{"name":"財團法人天主教會花蓮教區(松浦天主堂)","code":"BD1800022","type":"BD","city":"10015","town":"10015030","addr":"花蓮縣玉里鎮松浦里5鄰71之6號","lng":121.368637,"lat":23.41855,"abc":"C","service":"巷弄長照站","zones":["10015030"],"phone":"03-8851918","owner":"待補","start":"20190101","end":"20191231"},{"name":"財團法人天主教會花蓮教區","code":"BD1800023","type":"BD","city":"10015","town":"10015030","addr":"花蓮縣玉里鎮德武里能雅79號","lng":121.40741,"lat":23.46693,"abc":"C","service":"巷弄長照站","zones":["10015030"],"phone":"0961-063337","owner":"待補","start":"20190101","end":"20191231"},{"name":"財團法人天主教會花蓮教區(樂合天主堂)","code":"BD1800024","type":"BD","city":"10015","town":"10015030","addr":"花蓮縣玉里鎮樂合里13鄰69號","lng":121.339386,"lat":23.323229,"abc":"C","service":"巷弄長照站","zones":["10015030"],"phone":"03-8887063","owner":"待補","start":"20190101","end":"20191231"},{"name":"財團法人天主教會花蓮教區(東豐天主堂)","code":"BD1800025","type":"BD","city":"10015","town":"10015030","addr":"花蓮縣玉里鎮東豐里棣芬7鄰51號","lng":121.345245,"lat":23.345222,"abc":"C","service":"巷弄長照站","zones":["10015030"],"phone":"03-8882749","owner":"待補","start":"20190101","end":"20191231"},{"name":"花蓮縣玉里鎮安通社區發展協會","code":"BF1800076","type":"BF","city":"10015","town":"10015030","addr":"花蓮縣玉里鎮樂合里8鄰安通57號","lng":121.338211,"lat":23.294661,"abc":"C","service":"巷弄長照站","zones":["10015030"],"phone":"0938-056285","owner":"待補","start":"20190101","end":"20191231"},{"name":"花蓮縣卓溪鄉山里社區發展協會","code":"BF1800077","type":"BF","city":"10015","town":"10015130","addr":"花蓮縣卓溪鄉立山村","lng":121.316765,"lat":23.433868,"abc":"C","service":"巷弄長照站","zones":["10015030"],"phone":"03-8842230","owner":"待補","start":"20190101","end":"20191231"},{"name":"財團法人一粒麥子社會福利慈善事業基金會","code":"BD1800026","type":"BD","city":"10015","town":"10015070","addr":"花蓮縣光復鄉中華路232巷12號","lng":121.422462,"lat":23.66671,"abc":"B","service":"營養餐飲服務","zones":["10015010","10015020","10015030","10015050","10015060","10015070","10015080","10015090","10015100","10015120","10015130"],"phone":"03-8704747","owner":"呂信雄","start":"20200101","end":"20240630"},{"name":"財團法人天主教會花蓮教區(春日天主堂)","code":"BD1800027","type":"BD","city":"10015","town":"10015030","addr":"花蓮縣玉里鎮春日里10鄰64號","lng":121.396095,"lat":23.454254,"abc":"C","service":"巷弄長照站","zones":["10015030"],"phone":"03-8875686","owner":"黃郁惠 ","start":"20190101","end":"20191231"},{"name":"花蓮縣私立康樂居家式服務類長期照顧服務機構","code":"1X1800007","type":"1","city":"10015","town":"10015010","addr":"花蓮縣花蓮市忠義三街13號","lng":121.606758,"lat":24.054211,"abc":"B","service":"居家服務","zones":["10015010","10015040","10015050","10015060","10015080","10015110"],"phone":"0972-244720","owner":"黃敏瑋","start":"20210101","end":"20261231"},{"name":"花蓮縣私立愛家居家長照機構","code":"1X1800008","type":"1","city":"10015","town":"10015050","addr":"花蓮縣吉安鄉中原路一段85號1樓、2樓","lng":121.59256,"lat":23.974316,"abc":"B","service":"喘息服務","zones":["10015010","10015020","10015030","10015040","10015050","10015060","10015070","10015090","10015100","10015110","10015120","10015130"],"phone":"0919251477","owner":"張兆賢","start":"20190923","end":"20261231"},{"name":"花蓮縣私立康樂居家式服務類長期照顧服務機構","code":"1X1800007","type":"1","city":"10015","town":"10015010","addr":"花蓮縣花蓮市忠義三街13號","lng":121.606758,"lat":24.054211,"abc":"B","service":"喘息服務","zones":["10015010","10015040","10015050","10015060","10015080","10015110"],"phone":"0972-244720","owner":"黃敏瑋","start":"20190923","end":"20261231"},{"name":"衛生福利部東區老人之家","code":"A11800023","type":"A1","city":"10015","town":"10015010","addr":"花蓮縣花蓮市民立里民權路125號","lng":121.626877,"lat":23.989513,"abc":"B","service":"日間照顧服務(BB)","zones":["10015010","10015040","10015050"],"phone":"03-8509228","owner":"宋冀寧","start":"20230101","end":"20261231","beds":300,"residents":241},{"name":"佛教慈濟醫療財團法人附設私立花蓮慈濟社區長照機構","code":"2U1800002","type":"2","city":"10015","town":"10015010","addr":"花蓮縣花蓮市中山路一段3巷25弄36號","lng":121.590256,"lat":23.99551,"abc":"B","service":"日間照顧服務(BB)","zones":["10015010","10015040","10015050","10015060"],"phone":"03-8561825分機15280","owner":"釋證嚴","start":"20230101","end":"20261231"},{"name":"光鹽診所","code":"B21800026","type":"B2","city":"10015","town":"10015050","addr":"花蓮縣吉安鄉慶豐村中山路3段281號","lng":121.570686,"lat":23.977709,"abc":"B","service":"居家失能個案家庭醫師照護服務","zones":["10015050"],"phone":"03-8534305","owner":"陳競華","start":"20190829","end":"20261231"},{"name":"嗎哪診所","code":"B21800028","type":"B2","city":"10015","town":"10015020","addr":"花蓮縣鳳林鎮林榮里林榮路169號1樓","lng":121.453461,"lat":23.800709,"abc":"B","service":"居家失能個案家庭醫師照護服務","zones":["10015020"],"phone":"03-8772780","owner":"蘇長妹","start":"20190902","end":"20261231"},{"name":"安台診所","code":"B21800029","type":"B2","city":"10015","town":"10015040","addr":"花蓮縣新城鄉北埔村北埔路52號","lng":121.606529,"lat":24.02738,"abc":"B","service":"居家失能個案家庭醫師照護服務","zones":["10015040"],"phone":"03-8261457","owner":"吳昌榮","start":"20190910","end":"20261231"},{"name":"花蓮縣壽豐鄉衛生所","code":"B21800030","type":"B2","city":"10015","town":"10015060","addr":"花蓮縣壽豐鄉壽豐村公園路28巷10號","lng":121.507195,"lat":23.868696,"abc":"B","service":"居家失能個案家庭醫師照護服務","zones":["10015060"],"phone":"03-8652101","owner":"張聰仁","start":"20190910","end":"20261231"},{"name":"花蓮縣萬榮鄉衛生所","code":"B21800031","type":"B2","city":"10015","town":"10015120","addr":"花蓮縣萬榮鄉萬榮村1鄰12號","lng":121.409164,"lat":23.715578,"abc":"B","service":"居家失能個案家庭醫師照護服務","zones":["10015120"],"phone":"03-8751651","owner":"蔡佳穎","start":"20190911","end":"20261231"},{"name":"花蓮縣鳳林鎮衛生所","code":"B21800032","type":"B2","city":"10015","town":"10015020","addr":"花蓮縣鳳林鎮鳳智里公正街8-1號","lng":121.45137,"lat":23.745371,"abc":"B","service":"居家失能個案家庭醫師照護服務","zones":["10015020"],"phone":"03-8761116","owner":"林志雄","start":"20190911","end":"20261231"},{"name":"中正診所","code":"B21800033","type":"B2","city":"10015","town":"10015010","addr":"花蓮縣花蓮市主安里中正路172號","lng":121.598122,"lat":23.97101,"abc":"B","service":"居家失能個案家庭醫師照護服務","zones":["10015010"],"phone":"03-8316655","owner":"林佩樺","start":"20190917","end":"20261231"},{"name":"張海山診所","code":"B21800034","type":"B2","city":"10015","town":"10015010","addr":"花蓮縣花蓮市主安里中正路191號","lng":121.598923,"lat":23.971859,"abc":"B","service":"居家失能個案家庭醫師照護服務","zones":["10015010"],"phone":"03-8353777","owner":"張海山","start":"20190918","end":"20261231"},{"name":"悅增身心診所","code":"B21800035","type":"B2","city":"10015","town":"10015010","addr":"花蓮縣花蓮市主權里中華路435-6號1樓","lng":121.595085,"lat":23.974579,"abc":"B","service":"居家失能個案家庭醫師照護服務","zones":["10015010"],"phone":"03-8321805","owner":"林岳增","start":"20190925","end":"20261231"},{"name":"花蓮縣卓溪鄉衛生所","code":"B21800036","type":"B2","city":"10015","town":"10015130","addr":"花蓮縣卓溪鄉卓溪村中正65號","lng":121.304192,"lat":23.345991,"abc":"B","service":"居家失能個案家庭醫師照護服務","zones":["10015130"],"phone":"03-8883977","owner":"陳志偉","start":"20190925","end":"20261231"},{"name":"悅思身心診所","code":"B21800037","type":"B2","city":"10015","town":"10015050","addr":"花蓮縣吉安鄉永安村建國路2段213號","lng":121.576698,"lat":23.992186,"abc":"B","service":"居家失能個案家庭醫師照護服務","zones":["10015050"],"phone":"03-8460436","owner":"劉邦垠","start":"20190925","end":"20261231"},{"name":"曾內兒科診所","code":"B21800038","type":"B2","city":"10015","town":"10015010","addr":"花蓮縣花蓮市主和里中福路108號","lng":121.602638,"lat":23.97155,"abc":"B","service":"居家失能個案家庭醫師照護服務","zones":["10015010"],"phone":"03-8335527","owner":"曾寧遠","start":"20190925","end":"20261231"},{"name":"禾心診所","code":"B21800039","type":"B2","city":"10015","town":"10015060","addr":"花蓮縣壽豐鄉豐山村中山路225號","lng":121.495888,"lat":23.849617,"abc":"B","service":"居家失能個案家庭醫師照護服務","zones":["10015060"],"phone":"03-8640020","owner":"劉忠政","start":"20190925","end":"20261231"},{"name":"至善診所","code":"B21800040","type":"B2","city":"10015","town":"10015010","addr":"花蓮縣花蓮市主農里中正路46號","lng":121.59549,"lat":23.969254,"abc":"B","service":"居家失能個案家庭醫師照護服務","zones":["10015010"],"phone":"03-8338006","owner":"鄧彬友","start":"20191001","end":"20261231"},{"name":"花蓮縣瑞穗鄉衛生所","code":"B21800041","type":"B2","city":"10015","town":"10015090","addr":"花蓮縣瑞穗鄉瑞穗村民生街75號","lng":121.37896,"lat":23.499786,"abc":"B","service":"居家失能個案家庭醫師照護服務","zones":["10015090"],"phone":"03-8872045","owner":"吳大志","start":"20191009","end":"20261231"},{"name":"呂小兒科診所","code":"B21800042","type":"B2","city":"10015","town":"10015010","addr":"花蓮縣花蓮市主勤里博愛街201號","lng":121.606171,"lat":23.977482,"abc":"B","service":"居家失能個案家庭醫師照護服務","zones":["10015010"],"phone":"03-8329341","owner":"呂賢權","start":"20191015","end":"20261231"},{"name":"花蓮縣新城鄉衛生所","code":"B21800043","type":"B2","city":"10015","town":"10015040","addr":"花蓮縣新城鄉北埔村北埔路160號","lng":121.605263,"lat":24.030874,"abc":"B","service":"居家失能個案家庭醫師照護服務","zones":["10015040"],"phone":"03-8266781","owner":"許木嶺","start":"20191017","end":"20261231"},{"name":"全人診所","code":"B21800044","type":"B2","city":"10015","town":"10015010","addr":"花蓮縣花蓮市主學里中福路158號","lng":121.60173,"lat":23.972656,"abc":"B","service":"居家失能個案家庭醫師照護服務","zones":["10015010"],"phone":"03-8358568","owner":"王德隆","start":"20191017","end":"20261231"},{"name":"蔣博文復健科診所","code":"B21800045","type":"B2","city":"10015","town":"10015010","addr":"花蓮縣花蓮市民立里中美路172號","lng":121.625748,"lat":23.990999,"abc":"B","service":"居家失能個案家庭醫師照護服務","zones":["10015010"],"phone":"03-8227128","owner":"蔣博文","start":"20191018","end":"20261231"},{"name":"中心診所","code":"B21800046","type":"B2","city":"10015","town":"10015050","addr":"花蓮縣吉安鄉北昌村中央路三段566號","lng":121.58931,"lat":23.988827,"abc":"B","service":"居家失能個案家庭醫師照護服務","zones":["10015050"],"phone":"03 -8460656","owner":"汪德欣","start":"20191022","end":"20261231"},{"name":"富原診所","code":"B21800047","type":"B2","city":"10015","town":"10015090","addr":"花蓮縣瑞穗鄉富源村中正路156號","lng":121.376511,"lat":23.577314,"abc":"B","service":"居家失能個案家庭醫師照護服務","zones":["10015090"],"phone":"03-8812111","owner":"戴豐秋","start":"20191023","end":"20261231"},{"name":"宏卿診所","code":"B21800049","type":"B2","city":"10015","town":"10015010","addr":"花蓮縣花蓮市國光里林森路417, 419號","lng":121.609085,"lat":23.984438,"abc":"B","service":"居家失能個案家庭醫師照護服務","zones":["10015010"],"phone":"03-8342233","owner":"鄒永宏","start":"20191030","end":"20261231"},{"name":"吳文揚診所","code":"B21800050","type":"B2","city":"10015","town":"10015010","addr":"花蓮縣花蓮市國光里林森路258-3號","lng":121.607483,"lat":23.982595,"abc":"B","service":"居家失能個案家庭醫師照護服務","zones":["10015010"],"phone":"03-8355586","owner":"吳文揚","start":"20191112","end":"20261231"},{"name":"嘉光耳鼻喉科診所","code":"B21800051","type":"B2","city":"10015","town":"10015010","addr":"花蓮縣花蓮市國光里明禮路71-5號","lng":121.608307,"lat":23.982302,"abc":"B","service":"居家失能個案家庭醫師照護服務","zones":["10015010"],"phone":"03-8341440","owner":"黃啟嘉","start":"20191112","end":"20261231"},{"name":"花蓮縣私立挪亞方舟社區式服務類長期照顧服務機構","code":"2X1800017","type":"2","city":"10015","town":"10015050","addr":"花蓮縣吉安鄉永興村吉豐路3段601巷16號","lng":121.553635,"lat":23.947001,"abc":"B","service":"家庭托顧服務(BC)","zones":["10015010","10015050","10015060"],"phone":"0915-021030","owner":"鮑招香","start":"20200201","end":"20261231"},{"name":"社團法人花蓮縣老人暨家庭關懷協會","code":"BE1800017","type":"BE","city":"10015","town":"10015010","addr":"花蓮縣花蓮市中華路486號","lng":121.592804,"lat":23.974632,"abc":"B","service":"交通接送服務","zones":["10015010","10015040","10015050","10015060","10015110"],"phone":"038330522","owner":"江瑞庭","start":"20210601","end":"20221231"},{"name":"花蓮縣秀林鄉衛生所","code":"B21800052","type":"B2","city":"10015","town":"10015110","addr":"花蓮縣秀林鄉秀林村88號","lng":121.633369,"lat":24.126902,"abc":"B","service":"居家失能個案家庭醫師照護服務","zones":["10015110"],"phone":"038612122","owner":"田惠文","start":"20191115","end":"20261231"},{"name":"康寧診所","code":"B21800053","type":"B2","city":"10015","town":"10015050","addr":"花蓮縣吉安鄉慶豐村中山路3段386號","lng":121.568855,"lat":23.979095,"abc":"B","service":"居家失能個案家庭醫師照護服務","zones":["10015050"],"phone":"03-8530910","owner":"楊代雲","start":"20191118","end":"20261231"},{"name":"花蓮縣玉里鎮衛生所","code":"B21800054","type":"B2","city":"10015","town":"10015030","addr":"花蓮縣玉里鎮泰昌里中正路152號","lng":121.314919,"lat":23.336409,"abc":"B","service":"居家失能個案家庭醫師照護服務","zones":["10015030"],"phone":"038882046","owner":"曹郁文","start":"20250501","end":"20261231"},{"name":"張曉昇診所","code":"B21800056","type":"B2","city":"10015","town":"10015050","addr":"花蓮縣吉安鄉永安村建國路2段223-1號","lng":121.57637,"lat":23.992216,"abc":"B","service":"居家失能個案家庭醫師照護服務","zones":["10015050"],"phone":"03-8576771","owner":"張曉昇","start":"20191204","end":"20261231"},{"name":"民安復健科診所","code":"B21800058","type":"B2","city":"10015","town":"10015010","addr":"花蓮縣花蓮市國光里林森路258-3號","lng":121.607483,"lat":23.982595,"abc":"B","service":"居家失能個案家庭醫師照護服務","zones":["10015010"],"phone":"03-8355586","owner":"陳穎婷","start":"20191212","end":"20261231"},{"name":"何裕鈞骨外科診所","code":"B21800060","type":"B2","city":"10015","town":"10015010","addr":"花蓮縣花蓮市中正路3號","lng":121.59462,"lat":23.969053,"abc":"B","service":"居家失能個案家庭醫師照護服務","zones":["10015010"],"phone":"03-8352211","owner":"何裕鈞","start":"20191220","end":"20261231"},{"name":"仁洲內兒科診所","code":"B21800061","type":"B2","city":"10015","town":"10015050","addr":"花蓮縣吉安鄉仁里村中正路1段47號","lng":121.593353,"lat":23.967516,"abc":"B","service":"居家失能個案家庭醫師照護服務","zones":["10015050"],"phone":"03-8529132","owner":"陳英洲","start":"20191220","end":"20261231"},{"name":"花蓮縣私立悅昇居家長照機構","code":"1X1800009","type":"1","city":"10015","town":"10015050","addr":"花蓮縣吉安鄉東昌村海岸路57號1樓","lng":121.591148,"lat":23.96261,"abc":"B","service":"居家服務","zones":["10015010","10015020","10015030","10015040","10015050","10015060","10015070","10015080","10015090","10015100","10015110","10015120","10015130"],"phone":"0988-553303","owner":"賴麗京","start":"20210101","end":"20261231"},{"name":"花蓮縣私立悅昇居家長照機構","code":"1X1800009","type":"1","city":"10015","town":"10015050","addr":"花蓮縣吉安鄉東昌村海岸路57號1樓","lng":121.591148,"lat":23.96261,"abc":"B","service":"喘息服務","zones":["10015010","10015020","10015030","10015040","10015050","10015060","10015070","10015080","10015090","10015100","10015110","10015120","10015130"],"phone":"0988-553303","owner":"賴麗京","start":"20230101","end":"20261231"},{"name":"花蓮縣光復鄉衛生所","code":"B21800064","type":"B2","city":"10015","town":"10015070","addr":"花蓮縣光復鄉大馬村中學街158號","lng":121.425941,"lat":23.671898,"abc":"B","service":"居家失能個案家庭醫師照護服務","zones":["10015070"],"phone":"03-8701114","owner":"林春孝","start":"20200213","end":"20261231"},{"name":"福康診所","code":"B21800065","type":"B2","city":"10015","town":"10015050","addr":"花蓮縣吉安鄉吉安村吉安路二段41號","lng":121.561607,"lat":23.971294,"abc":"B","service":"居家失能個案家庭醫師照護服務","zones":["10015010","10015050"],"phone":"03-8547668","owner":"蔡爵任","start":"20200213","end":"20261231"},{"name":"花蓮縣私立恒好居家式服務類長期照顧服務機構","code":"1X1800011","type":"1","city":"10015","town":"10015010","addr":"花蓮縣花蓮市國富里國富二街157號","lng":121.593643,"lat":23.991074,"abc":"B","service":"居家服務","zones":["10015010","10015020","10015030","10015040","10015050","10015060","10015070","10015080","10015090","10015100","10015110","10015120","10015130"],"phone":"03-8335516","owner":"沈雅芳","start":"20210101","end":"20261231"},{"name":"有限責任花蓮縣芥菜種會社區照顧服務勞動合作社私立芥菜種會居家長照機構","code":"1T1800002","type":"1","city":"10015","town":"10015040","addr":"花蓮縣新城鄉北埔村光復路491之21號","lng":121.604141,"lat":24.03763,"abc":"B","service":"喘息服務","zones":["10015010","10015030","10015040","10015050","10015060","10015090","10015110"],"phone":"038263638","owner":"鍾哲爵","start":"20230101","end":"20261231"},{"name":"紅葉文化健康站","code":"BF1800078","type":"BF","city":"10015","town":"10015120","addr":"花蓮縣萬榮鄉紅葉村1鄰9號","lng":121.344643,"lat":23.495939,"abc":"C","service":"巷弄長照站","zones":["10015120"],"phone":"03-8876930","owner":"黃德誠","start":"20200101","end":"20201231"},{"name":"支亞干文化健康站","code":"BF1800079","type":"BF","city":"10015","town":"10015120","addr":"花蓮縣萬榮鄉西林村8鄰127號","lng":121.441818,"lat":23.809507,"abc":"C","service":"巷弄長照站","zones":["10015120"],"phone":"03-8772032","owner":"張小萍","start":"20200101","end":"20201231"},{"name":"摩里沙卡文化健康站","code":"BF1800080","type":"BF","city":"10015","town":"10015120","addr":"花蓮縣萬榮鄉萬榮村1鄰8號","lng":121.410149,"lat":23.71446,"abc":"C","service":"巷弄長照站","zones":["10015120"],"phone":"03-8751346","owner":"伍曉凌","start":"20200101","end":"20201231"},{"name":"道拉斯文化健康站","code":"BF1800081","type":"BF","city":"10015","town":"10015110","addr":"花蓮縣秀林鄉秀林村秀林路75號","lng":121.623421,"lat":24.118567,"abc":"C","service":"巷弄長照站","zones":["10015110"],"phone":"038-611599","owner":"廖慧玲","start":"20200101","end":"20201231"},{"name":"銅門文化健康站","code":"BF1800082","type":"BF","city":"10015","town":"10015110","addr":"花蓮縣秀林鄉銅門村9鄰56號","lng":121.503136,"lat":23.961596,"abc":"C","service":"巷弄長照站","zones":["10015110"],"phone":"03-8641057","owner":"范竣","start":"20200101","end":"20201231"},{"name":"達吉利文化健康站","code":"BF1800083","type":"BF","city":"10015","town":"10015110","addr":"花蓮縣秀林鄉崇德村120號","lng":121.650612,"lat":24.153894,"abc":"C","service":"巷弄長照站","zones":["10015110"],"phone":"03-8316290","owner":"李季生","start":"20200101","end":"20201231"},{"name":"長良文化健康站","code":"BF1800084","type":"BF","city":"10015","town":"10015030","addr":"花蓮縣玉里鎮長良里長良180-1號","lng":121.286667,"lat":23.285467,"abc":"C","service":"巷弄長照站","zones":["10015030"],"phone":"0911-332-677","owner":"曾雅茹","start":"20200101","end":"20201231"},{"name":"豐富文化健康站","code":"BF1800085","type":"BF","city":"10015","town":"10015080","addr":"花蓮縣豐濱鄉豐濱村26鄰71號","lng":121.522148,"lat":23.598196,"abc":"C","service":"巷弄長照站","zones":["10015080"],"phone":"0922-167969","owner":"鄭秀芳","start":"20200101","end":"20201231"},{"name":"磯崎文化健康站","code":"BF1800086","type":"BF","city":"10015","town":"10015080","addr":"花蓮縣豐濱鄉磯崎村49號","lng":121.556526,"lat":23.738129,"abc":"C","service":"巷弄長照站","zones":["10015080"],"phone":"0958-761230","owner":"洪清一","start":"20200101","end":"20201231"},{"name":"迦納納文化健康站","code":"BF1800087","type":"BF","city":"10015","town":"10015090","addr":"花蓮縣瑞穗鄉舞鶴村10鄰227號","lng":121.366531,"lat":23.46505,"abc":"C","service":"巷弄長照站","zones":["10015090"],"phone":"0919-906621","owner":"黃正宏","start":"20200101","end":"20201231"},{"name":"奇美文化健康站","code":"BF1800088","type":"BF","city":"10015","town":"10015090","addr":"花蓮縣瑞穗鄉奇美村16號","lng":121.446609,"lat":23.494244,"abc":"C","service":"巷弄長照站","zones":["10015090"],"phone":"0933-998-164","owner":"鍾薇琳","start":"20200101","end":"20201231"},{"name":"拉吉禾干文化健康站","code":"BF1800089","type":"BF","city":"10015","town":"10015090","addr":"花蓮縣瑞穗鄉富興村14鄰新興路162-2號","lng":121.386177,"lat":23.580244,"abc":"C","service":"巷弄長照站","zones":["10015090"],"phone":"03-8811857","owner":"林玉芬","start":"20200101","end":"20201231"},{"name":"吉拉米代文化健康站","code":"BF1800090","type":"BF","city":"10015","town":"10015100","addr":"花蓮縣富里鄉豐南村9鄰新富32號","lng":121.270226,"lat":23.142199,"abc":"C","service":"巷弄長照站","zones":["10015100"],"phone":"03-8832880","owner":"驣莫言．基鬧","start":"20200101","end":"20201231"},{"name":"基拉歌賽文化健康站","code":"BF1800091","type":"BF","city":"10015","town":"10015100","addr":"花蓮縣富里鄉東里村30鄰復興1-5號","lng":121.300041,"lat":23.260098,"abc":"C","service":"巷弄長照站","zones":["10015100"],"phone":"03-8821503","owner":"張英妹","start":"20200101","end":"20201231"},{"name":"加里洞文化健康站","code":"BF1800092","type":"BF","city":"10015","town":"10015070","addr":"花蓮縣光復鄉東富村東富路92巷2之1號","lng":121.488251,"lat":23.695,"abc":"C","service":"巷弄長照站","zones":["10015070"],"phone":"03-8702988","owner":"林惠萍","start":"20200101","end":"20201231"},{"name":"共和文化健康站","code":"BF1800093","type":"BF","city":"10015","town":"10015060","addr":"花蓮縣壽豐鄉農墾二街24號","lng":121.512383,"lat":23.868488,"abc":"C","service":"巷弄長照站","zones":["10015060"],"phone":"0932-339-488","owner":"林秋子","start":"20200101","end":"20201231"},{"name":"博愛新村文化健康站","code":"BF1800094","type":"BF","city":"10015","town":"10015050","addr":"花蓮縣吉安鄉干城村博愛街11巷21號","lng":121.525742,"lat":23.949352,"abc":"C","service":"巷弄長照站","zones":["10015050"],"phone":"03-8521700","owner":"王梅玲","start":"20200101","end":"20201231"},{"name":"宜昌文化健康站","code":"BF1800095","type":"BF","city":"10015","town":"10015050","addr":"花蓮縣吉安鄉中華路二段167號","lng":121.582329,"lat":23.973433,"abc":"C","service":"巷弄長照站","zones":["10015050"],"phone":"0928-876-787","owner":"林秀英","start":"20200101","end":"20201231"},{"name":"仁安文化健康站","code":"BF1800096","type":"BF","city":"10015","town":"10015050","addr":"花蓮縣吉安鄉南海三街57號","lng":121.592995,"lat":23.953779,"abc":"C","service":"巷弄長照站","zones":["10015050"],"phone":"0981-900-480","owner":"林靜怡","start":"20200101","end":"20201231"},{"name":"Cikasuan文化健康站","code":"BF1800097","type":"BF","city":"10015","town":"10015050","addr":"花蓮縣吉安鄉太昌村明仁三街825巷10號","lng":121.557083,"lat":23.992035,"abc":"C","service":"巷弄長照站","zones":["10015050"],"phone":"0920-536-297","owner":"李正","start":"20200101","end":"20201231"},{"name":"努米達文化健康站","code":"BF1800098","type":"BF","city":"10015","town":"10015050","addr":"花蓮縣吉安鄉吉祥六街52巷9號","lng":121.583275,"lat":23.975721,"abc":"C","service":"巷弄長照站","zones":["10015050"],"phone":"0932-183-013","owner":"周義雄","start":"20200101","end":"20201231"},{"name":"葉日昇診所","code":"B21800079","type":"B2","city":"10015","town":"10015070","addr":"花蓮縣光復鄉大安村忠孝路100號","lng":121.425339,"lat":23.664732,"abc":"B","service":"居家失能個案家庭醫師照護服務","zones":["10015020","10015070","10015090","10015120"],"phone":"03-8700182","owner":"葉日昇","start":"20200505","end":"20261231"},{"name":"幼康診所","code":"B21800080","type":"B2","city":"10015","town":"10015030","addr":"花蓮縣玉里鎮國武里興國路一段259號","lng":121.319595,"lat":23.333344,"abc":"B","service":"居家失能個案家庭醫師照護服務","zones":["10015030"],"phone":"03-8881895","owner":"金岳","start":"20200514","end":"20261231"},{"name":"財團法人一粒麥子社會福利慈善事業基金會","code":"BD1800026","type":"BD","city":"10015","town":"10015070","addr":"花蓮縣光復鄉中華路232巷12號","lng":121.422462,"lat":23.66671,"abc":"B","service":"交通接送服務","zones":["10015010","10015020","10015030","10015040","10015050","10015060","10015070","10015080","10015090","10015100","10015110","10015120","10015130"],"phone":"03-8704747","owner":"呂信雄","start":"20220101","end":"20221231"},{"name":"福田耳鼻喉科診所","code":"B21800082","type":"B2","city":"10015","town":"10015050","addr":"花蓮縣吉安鄉北昌村建國路1段65號","lng":121.594437,"lat":23.98502,"abc":"B","service":"居家失能個案家庭醫師照護服務","zones":["10015050"],"phone":"03-8577823","owner":"劉正瑩","start":"20200618","end":"20261231"},{"name":"佛教慈濟醫療財團法人附設玉里慈濟居家護理所","code":"B11800026","type":"B1","city":"10015","town":"10015030","addr":"花蓮縣玉里鎮民權街1之1號","lng":121.318527,"lat":23.334661,"abc":"B","service":"專業照護服務","zones":["10015030"],"phone":"8882718#606","owner":"葉珈妤","start":"20200729","end":"20261231"},{"name":"花蓮縣私立永護寧居家長照機構","code":"1X1800014","type":"1","city":"10015","town":"10015010","addr":"花蓮縣花蓮市國聯里商校街236號1樓","lng":121.599419,"lat":23.986841,"abc":"B","service":"喘息服務","zones":["10015010","10015040","10015050","10015060","10015110"],"phone":"0983-106316","owner":"梁誌誠","start":"20230101","end":"20261231"},{"name":"花蓮縣私立蒲心居家長照機構","code":"1X1800015","type":"1","city":"10015","town":"10015010","addr":"花蓮縣花蓮市主農里重慶路1號","lng":121.598831,"lat":23.96594,"abc":"B","service":"喘息服務","zones":["10015010","10015030","10015040","10015050","10015060","10015100","10015110","10015130"],"phone":"0989-817187","owner":"張竣智","start":"20230101","end":"20261231"},{"name":"花蓮縣私立永護寧居家長照機構","code":"1X1800014","type":"1","city":"10015","town":"10015010","addr":"花蓮縣花蓮市國聯里商校街236號1樓","lng":121.599419,"lat":23.986841,"abc":"B","service":"居家服務","zones":["10015010","10015040","10015050","10015060","10015110"],"phone":"0983-106316","owner":"梁誌誠","start":"20210101","end":"20261231"},{"name":"花蓮縣私立蒲心居家長照機構","code":"1X1800015","type":"1","city":"10015","town":"10015010","addr":"花蓮縣花蓮市主農里重慶路1號","lng":121.598831,"lat":23.96594,"abc":"B","service":"居家服務","zones":["10015010","10015030","10015040","10015050","10015060","10015100","10015110","10015130"],"phone":"0989-817187","owner":"張竣智","start":"20210101","end":"20261231"},{"name":"富爾捷企業有限公司私立富沐居家長照機構","code":"1V1800001","type":"1","city":"10015","town":"10015040","addr":"花蓮縣新城鄉北埔村復興路257號1樓至3樓","lng":121.602676,"lat":24.03216,"abc":"B","service":"居家服務","zones":["10015010","10015020","10015030","10015040","10015050","10015060","10015070","10015090","10015100","10015110","10015120","10015130"],"phone":"038260272","owner":"林冠汝","start":"20210101","end":"20261231"},{"name":"花蓮縣私立愛家居家長照機構","code":"1X1800008","type":"1","city":"10015","town":"10015050","addr":"花蓮縣吉安鄉中原路一段85號1樓、2樓","lng":121.59256,"lat":23.974316,"abc":"B","service":"居家服務","zones":["10015010","10015020","10015030","10015040","10015050","10015060","10015070","10015090","10015100","10015110","10015120","10015130"],"phone":"0919251477","owner":"張兆賢","start":"20210101","end":"20261231"},{"name":"廣鄉長照社團法人附設私立慈輝住宿長照機構","code":"3L1800001","type":"3","city":"10015","town":"10015110","addr":"花蓮縣秀林鄉景美村加灣17之33號","lng":121.606186,"lat":24.075447,"abc":"B","service":"喘息服務","zones":["10015010","10015020","10015030","10015040","10015050","10015060","10015070","10015080","10015090","10015100","10015110","10015120","10015130"],"phone":"03-8264597","owner":"陳錫欽","start":"20200907","end":"20261231","beds":49,"residents":48},{"name":"財團法人一粒麥子社會福利慈善事業基金會附設花蓮縣私立有福居家式服務類長期照顧服務機構","code":"1S1800001","type":"1","city":"10015","town":"10015010","addr":"花蓮縣花蓮市民立里順興路12之7號","lng":121.62899,"lat":23.99194,"abc":"B","service":"到宅沐浴車服務","zones":["10015010","10015040","10015050","10015060","10015110"],"phone":"03-8310851","owner":"呂信雄","start":"20210101","end":"20261231"},{"name":"佛教慈濟醫療財團法人花蓮慈濟醫院","code":"B21800004","type":"B2","city":"10015","town":"10015010","addr":"花蓮縣花蓮市民勤里中央路三段707號","lng":121.592545,"lat":23.996204,"abc":"B","service":"專業照護服務","zones":["10015010","10015040","10015050"],"phone":"03-8465020","owner":"林欣榮","start":"20181201","end":"20261231"},{"name":"財團法人門諾社會福利慈善事業基金會附設花蓮縣私立壽豐社區長照機構","code":"2S1800003","type":"2","city":"10015","town":"10015060","addr":"花蓮縣壽豐鄉志學村中山路三段80號一樓","lng":121.53096,"lat":23.909409,"abc":"B","service":"日間照顧服務(BB)","zones":["10015050","10015060"],"phone":"03-8662100","owner":"周朝國","start":"20230101","end":"20261231"},{"name":"花蓮縣私立恒好居家式服務類長期照顧服務機構","code":"1X1800011","type":"1","city":"10015","town":"10015010","addr":"花蓮縣花蓮市國富里國富二街157號","lng":121.593643,"lat":23.991074,"abc":"B","service":"喘息服務","zones":["10015010","10015020","10015030","10015040","10015050","10015060","10015070","10015080","10015090","10015100","10015110","10015120","10015130"],"phone":"03-8335516","owner":"沈雅芳","start":"20230101","end":"20261231"},{"name":"花蓮縣橘色照護協會附設花蓮縣私立橘色社區長照機構","code":"2N1800001","type":"2","city":"10015","town":"10015010","addr":"花蓮縣花蓮市國裕里富裕二街17號","lng":121.599098,"lat":23.992908,"abc":"B","service":"日間照顧服務(BB)","zones":["10015010","10015040","10015050","10015110"],"phone":"03-8462268","owner":"蘇意舜","start":"20230101","end":"20261231"},{"name":"國軍退除役官兵輔導委員會花蓮榮譽國民之家附設山青社區長照機構","code":"2F1800005","type":"2","city":"10015","town":"10015010","addr":"花蓮縣花蓮市府前路29號","lng":121.618164,"lat":24.001747,"abc":"B","service":"日間照顧服務(BB)","zones":["10015010","10015040","10015050"],"phone":"03-8246357","owner":"游文勇","start":"20230101","end":"20261231"},{"name":"陳耳鼻喉科診所","code":"B21800086","type":"B2","city":"10015","town":"10015010","addr":"花蓮縣花蓮市主商里光復街15號","lng":121.608681,"lat":23.975239,"abc":"B","service":"居家失能個案家庭醫師照護服務","zones":["10015010","10015050"],"phone":"03-8322878","owner":"陳維文","start":"20210324","end":"20261231"},{"name":"社團法人花蓮縣脊髓損傷福利協進會","code":"BE1800018","type":"BE","city":"10015","town":"10015010","addr":"花蓮縣花蓮市民立里順興路3號5樓","lng":121.62941,"lat":23.991112,"abc":"B","service":"交通接送服務","zones":["10015010","10015050"],"phone":"038230157","owner":"彭儀珠","start":"20210601","end":"20211231"},{"name":"社團法人花蓮縣脊髓損傷福利協進會","code":"BE1800018","type":"BE","city":"10015","town":"10015010","addr":"花蓮縣花蓮市民立里順興路3號5樓","lng":121.62941,"lat":23.991112,"abc":"B","service":"交通接送服務","zones":["10015010","10015050"],"phone":"038230157","owner":"彭儀珠","start":"20210601","end":"20221231"},{"name":"慈田診所","code":"B21800087","type":"B2","city":"10015","town":"10015010","addr":"花蓮縣花蓮市主工里中華路190號","lng":121.602547,"lat":23.97558,"abc":"B","service":"居家失能個案家庭醫師照護服務","zones":["10015010","10015060","10015080"],"phone":"03-8316818","owner":"陳俊興","start":"20210602","end":"20261231"},{"name":"花蓮縣私立仁康社區式服務類長期照顧服務機構","code":"2X1800022","type":"2","city":"10015","town":"10015010","addr":"花蓮縣花蓮市國治里12鄰新港街11巷7號","lng":121.607422,"lat":23.977816,"abc":"B","service":"家庭托顧服務(BC)","zones":["10015010","10015040","10015050","10015110"],"phone":"0932-138710","owner":"鍾仁哲","start":"20210601","end":"20261231"},{"name":"富爾捷企業有限公司私立富沐居家長照機構","code":"1V1800001","type":"1","city":"10015","town":"10015040","addr":"花蓮縣新城鄉北埔村復興路257號1樓至3樓","lng":121.602676,"lat":24.03216,"abc":"B","service":"喘息服務","zones":["10015010","10015020","10015030","10015040","10015050","10015060","10015070","10015090","10015100","10015110","10015120","10015130"],"phone":"038260272","owner":"林冠汝","start":"20210624","end":"20261231"},{"name":"富爾捷居家護理所","code":"B11800009","type":"B1","city":"10015","town":"10015010","addr":"花蓮縣花蓮市海岸路47-1號","lng":121.633736,"lat":23.992308,"abc":"B","service":"喘息服務","zones":["10015010","10015020","10015030","10015040","10015050","10015060","10015070","10015090","10015100","10015110","10015120","10015130"],"phone":"03-8314913","owner":"潘爾捷","start":"20260601","end":"20261231"},{"name":"花蓮縣私立肯兆固居家式服務類長期照顧服務機構","code":"1X1800020","type":"1","city":"10015","town":"10015050","addr":"花蓮縣吉安鄉南昌村文化7街20號","lng":121.581093,"lat":23.971849,"abc":"B","service":"居家服務","zones":["10015010","10015020","10015030","10015040","10015050","10015060","10015070","10015080","10015090","10015100","10015110","10015120","10015130"],"phone":"0989017723","owner":"貢慶安","start":"20210713","end":"20261231"},{"name":"花蓮縣私立肯兆固居家式服務類長期照顧服務機構","code":"1X1800020","type":"1","city":"10015","town":"10015050","addr":"花蓮縣吉安鄉南昌村文化7街20號","lng":121.581093,"lat":23.971849,"abc":"B","service":"喘息服務","zones":["10015010","10015020","10015030","10015040","10015050","10015060","10015070","10015080","10015090","10015100","10015110","10015120","10015130"],"phone":"0989017723","owner":"貢慶安","start":"20210719","end":"20261231"},{"name":"光祐有限公司附設花蓮縣光祐私立居家式服務類長期照顧服務機構","code":"1R1800004","type":"1","city":"10015","town":"10015010","addr":"花蓮縣花蓮市國聯里國聯三路53號9樓之1","lng":121.604424,"lat":23.990738,"abc":"B","service":"居家服務","zones":["10015010","10015040","10015050","10015060"],"phone":"0985262176","owner":"劉俋陞","start":"20210726","end":"20261231"},{"name":"花蓮縣私立富爾捷居家式服務類長期照顧服務機構","code":"1X1800001","type":"1","city":"10015","town":"10015040","addr":"花蓮縣新城鄉北埔村20鄰復興路255號","lng":121.602669,"lat":24.032141,"abc":"B","service":"營養餐飲服務","zones":["10015040"],"phone":"03-8314913","owner":"潘爾捷","start":"20220101","end":"20221231"},{"name":"富爾捷企業有限公司私立富沐居家長照機構","code":"1V1800001","type":"1","city":"10015","town":"10015040","addr":"花蓮縣新城鄉北埔村復興路257號1樓至3樓","lng":121.602676,"lat":24.03216,"abc":"B","service":"營養餐飲服務","zones":["10015010"],"phone":"038260272","owner":"林冠汝","start":"20220101","end":"20221231"},{"name":"花蓮縣萬榮鄉紅葉社區發展協會","code":"BF1800010","type":"BF","city":"10015","town":"10015120","addr":"花蓮縣萬榮鄉萬榮村紅葉9號","lng":121.410042,"lat":23.714275,"abc":"B","service":"營養餐飲服務","zones":["10015120"],"phone":"03-8876930","owner":"黃德誠","start":"20220101","end":"20240630"},{"name":"花蓮縣橘色照護協會附設花蓮縣私立橘色社區長照機構","code":"2N1800001","type":"2","city":"10015","town":"10015010","addr":"花蓮縣花蓮市國裕里富裕二街17號","lng":121.599098,"lat":23.992908,"abc":"B","service":"喘息服務","zones":["10015010","10015040","10015050","10015110"],"phone":"03-8462268","owner":"蘇意舜","start":"20210806","end":"20261231"},{"name":"財團法人一粒麥子社會福利慈善事業基金會附設花蓮縣私立光福綜合式服務類長期照顧服務機構","code":"4S1800003","type":"4","city":"10015","town":"10015070","addr":"花蓮縣光復鄉大華村12鄰中華路192號","lng":121.422958,"lat":23.666571,"abc":"B","service":"日間照顧服務(BB)","zones":["10015020","10015070","10015090","10015120"],"phone":"03-8705470","owner":"呂信雄","start":"20230101","end":"20261231"},{"name":"光祐有限公司附設花蓮縣光祐私立居家式服務類長期照顧服務機構","code":"1R1800004","type":"1","city":"10015","town":"10015010","addr":"花蓮縣花蓮市國聯里國聯三路53號9樓之1","lng":121.604424,"lat":23.990738,"abc":"B","service":"喘息服務","zones":["10015010","10015040","10015050","10015060"],"phone":"0985262176","owner":"劉俋陞","start":"20220101","end":"20261231"},{"name":"花蓮縣私立恩佑社區式服務類長期照顧服務機構","code":"2X1800023","type":"2","city":"10015","town":"10015050","addr":"花蓮縣吉安鄉仁和村22鄰南海八街202巷16號","lng":121.588043,"lat":23.946243,"abc":"B","service":"家庭托顧服務(BC)","zones":["10","10015050"],"phone":"0988785036","owner":"馮佩純","start":"20220101","end":"20261231"},{"name":"宏恩診所","code":"B21800089","type":"B2","city":"10015","town":"10015010","addr":"花蓮縣花蓮市主工里和平路500號","lng":121.601234,"lat":23.97703,"abc":"B","service":"居家失能個案家庭醫師照護服務","zones":["10015010","10015050"],"phone":"03-8328406","owner":"李武寬","start":"20220114","end":"20261231"},{"name":"珍幸福診所","code":"B21800090","type":"B2","city":"10015","town":"10015010","addr":"花蓮縣花蓮市主學里中正路296號","lng":121.601662,"lat":23.973307,"abc":"B","service":"居家失能個案家庭醫師照護服務","zones":["10015010","10015050"],"phone":"03-8328291","owner":"曾國宏","start":"20220114","end":"20261231"},{"name":"花蓮縣私立敬親居家長照機構","code":"1X1800024","type":"1","city":"10015","town":"10015050","addr":"花蓮縣吉安鄉北昌村自強路606號1-2樓","lng":121.593132,"lat":23.987984,"abc":"B","service":"居家服務","zones":["10015010","10015040","10015050","10015110"],"phone":"03-8465858","owner":"許崇銘","start":"20220117","end":"20261231"},{"name":"財團法人一粒麥子社會福利慈善事業基金會附設花蓮縣私立光福綜合式服務類長期照顧服務機構","code":"4S1800003","type":"4","city":"10015","town":"10015070","addr":"花蓮縣光復鄉大華村12鄰中華路192號","lng":121.422958,"lat":23.666571,"abc":"B","service":"居家服務","zones":["10015030","10015070","10015080","10015090","10015100","10015120","10015130"],"phone":"03-8705470","owner":"呂信雄","start":"20220101","end":"20261231"},{"name":"財團法人一粒麥子社會福利慈善事業基金會附設花蓮縣私立光福綜合式服務類長期照顧服務機構","code":"4S1800003","type":"4","city":"10015","town":"10015070","addr":"花蓮縣光復鄉大華村12鄰中華路192號","lng":121.422958,"lat":23.666571,"abc":"B","service":"喘息服務","zones":["10015030","10015070","10015080","10015090","10015100","10015120","10015130"],"phone":"03-8705470","owner":"呂信雄","start":"20220101","end":"20261231"},{"name":"花蓮縣私立心安家居家長照機構","code":"1X1800025","type":"1","city":"10015","town":"10015010","addr":"花蓮縣花蓮市民族里復興街21號2樓之1","lng":121.617706,"lat":23.98254,"abc":"B","service":"居家服務","zones":["10015010","10015020","10015040","10015050","10015060","10015070","10015110","10015120"],"phone":"03-8230530","owner":"貢韶辰","start":"20220216","end":"20261231"},{"name":"花蓮縣私立康樂心居老人長期照顧中心(養護型)","code":"A11800029","type":"A1","city":"10015","town":"10015040","addr":"花蓮縣新城鄉康樂村康樂路698巷11號1樓及2樓","lng":121.606758,"lat":24.054211,"abc":"B","service":"喘息服務","zones":["10015010","10015020","10015030","10015040","10015050","10015060","10015070","10015080","10015090","10015100","10015110","10015120","10015130"],"phone":"03-8261255","owner":"黃敏瑋","start":"20220315","end":"20261231","beds":49,"residents":46},{"name":"盧雲亮診所","code":"B21800091","type":"B2","city":"10015","town":"10015030","addr":"花蓮縣玉里鎮中城里大同路89號","lng":121.31279,"lat":23.327456,"abc":"B","service":"居家失能個案家庭醫師照護服務","zones":["10015030","10015100","10015130"],"phone":"03-8886000","owner":"盧雲亮","start":"20220324","end":"20261231"},{"name":"花蓮縣私立敬親居家長照機構","code":"1X1800024","type":"1","city":"10015","town":"10015050","addr":"花蓮縣吉安鄉北昌村自強路606號1-2樓","lng":121.593132,"lat":23.987984,"abc":"B","service":"喘息服務","zones":["10015010","10015040","10015050","10015110"],"phone":"03-8465858","owner":"許崇銘","start":"20220420","end":"20261231"},{"name":"花蓮縣私立窩心居家長照機構","code":"1X1800026","type":"1","city":"10015","town":"10015010","addr":"花蓮縣花蓮市國盛里國盛四街92號","lng":121.59935,"lat":23.98654,"abc":"B","service":"居家服務","zones":["10015010","10015040","10015050","10015060","10015110"],"phone":"03-8315575","owner":"林玫君","start":"20220512","end":"20261231"},{"name":"花蓮縣私立富爾捷居家式服務類長期照顧服務機構","code":"1X1800001","type":"1","city":"10015","town":"10015040","addr":"花蓮縣新城鄉北埔村20鄰復興路255號","lng":121.602669,"lat":24.032141,"abc":"B","service":"到宅沐浴車服務","zones":["10015010","10015040","10015050","10015060","10015110"],"phone":"03-8314913","owner":"潘爾捷","start":"20210101","end":"20261231"},{"name":"社團法人中華長照協會附設花蓮縣私立永樂居家長照機構","code":"1R1800005","type":"1","city":"10015","town":"10015010","addr":"花蓮縣花蓮市國富里中山路719號1至2樓","lng":121.598045,"lat":23.991226,"abc":"B","service":"居家服務","zones":["10015010","10015040","10015050","10015060","10015110"],"phone":"03-8461038","owner":"金浩鑫","start":"20220513","end":"20261231"},{"name":"佳愛科技居家照護有限公司附設花蓮縣私立一鍵通居家長照機構","code":"1R1800006","type":"1","city":"10015","town":"10015010","addr":"花蓮縣花蓮市民族里復興街21號3樓之1","lng":121.567757,"lat":23.980198,"abc":"B","service":"居家服務","zones":["10015010","10015040","10015050","10015060","10015080"],"phone":"0919-286230","owner":"貢睿伶","start":"20220621","end":"20261231"},{"name":"花蓮縣私立窩心居家長照機構","code":"1X1800026","type":"1","city":"10015","town":"10015010","addr":"花蓮縣花蓮市國盛里國盛四街92號","lng":121.59935,"lat":23.98654,"abc":"B","service":"喘息服務","zones":["10015010","10015040","10015050","10015060","10015110"],"phone":"03-8315575","owner":"林玫君","start":"20220706","end":"20261231"},{"name":"民安復健科診所","code":"B21800058","type":"B2","city":"10015","town":"10015010","addr":"花蓮縣花蓮市國光里林森路258-3號","lng":121.607483,"lat":23.982595,"abc":"B","service":"專業照護服務","zones":["10015010","10015050"],"phone":"03-8355586","owner":"陳穎婷","start":"20220728","end":"20261231"},{"name":"花蓮縣私立佑安居家長照機構","code":"1X1800027","type":"1","city":"10015","town":"10015040","addr":"花蓮縣新城鄉光復路497之3號","lng":121.60363,"lat":24.036715,"abc":"B","service":"居家服務","zones":["10015010","10015040","10015050","10015060","10015110"],"phone":"03-8262598","owner":"黃振斌","start":"20220803","end":"20261231"},{"name":"花蓮縣私立宏福居家長照機構","code":"1X1800028","type":"1","city":"10015","town":"10015010","addr":"花蓮縣花蓮市國聯里國興三街56號","lng":121.60347,"lat":23.989401,"abc":"B","service":"居家服務","zones":["10015010","10015040","10015050","10015060","10015100","10015110"],"phone":"0921-170996","owner":"李依宸","start":"20220810","end":"20261231"},{"name":"花蓮縣私立陸陸居家長照機構","code":"1X1800030","type":"1","city":"10015","town":"10015010","addr":"花蓮縣花蓮市明心街1-32號","lng":121.593323,"lat":23.992998,"abc":"B","service":"居家服務","zones":["10015010","10015040","10015050","10015060","10015110"],"phone":"038566919","owner":"周思萍","start":"20220825","end":"20261231"},{"name":"賦能居家護理所","code":"B11800032","type":"B1","city":"10015","town":"10015050","addr":"花蓮縣吉安鄉太昌村明義七街111號","lng":121.555473,"lat":23.990576,"abc":"B","service":"專業照護服務","zones":["10015010","10015020","10015030","10015040","10015050","10015060","10015070","10015080","10015090","10015100","10015110","10015120","10015130"],"phone":"0981638119","owner":"蓃拜‧督希","start":"20220825","end":"20261231"},{"name":"社團法人中華長照協會附設花蓮縣私立永樂居家長照機構","code":"1R1800005","type":"1","city":"10015","town":"10015010","addr":"花蓮縣花蓮市國富里中山路719號1至2樓","lng":121.598045,"lat":23.991226,"abc":"B","service":"喘息服務","zones":["10015010","10015040","10015050","10015060","10015110"],"phone":"03-8461038","owner":"金浩鑫","start":"20220830","end":"20261231"},{"name":"花蓮縣私立安家居家長照機構","code":"1X1800029","type":"1","city":"10015","town":"10015040","addr":"花蓮縣新城鄉光復路501之15號","lng":121.603401,"lat":24.038374,"abc":"B","service":"居家服務","zones":["10015010","10015030","10015040","10015050","10015060","10015070","10015090","10015110"],"phone":"0911273581","owner":"曾美雲","start":"20220906","end":"20261231"},{"name":"有限責任花蓮縣芥菜種會社區照顧服務勞動合作社私立芥菜種會居家長照機構","code":"1T1800002","type":"1","city":"10015","town":"10015040","addr":"花蓮縣新城鄉北埔村光復路491之21號","lng":121.604141,"lat":24.03763,"abc":"B","service":"居家服務","zones":["10015010","10015030","10015040","10015050","10015060","10015090","10015110"],"phone":"038263638","owner":"鍾哲爵","start":"20220801","end":"20261231"},{"name":"花蓮縣私立佑安居家長照機構","code":"1X1800027","type":"1","city":"10015","town":"10015040","addr":"花蓮縣新城鄉光復路497之3號","lng":121.60363,"lat":24.036715,"abc":"B","service":"喘息服務","zones":["10015010","10015040","10015050","10015060","10015110"],"phone":"03-8262598","owner":"黃振斌","start":"20220922","end":"20261231"},{"name":"花蓮縣私立宏福居家長照機構","code":"1X1800028","type":"1","city":"10015","town":"10015010","addr":"花蓮縣花蓮市國聯里國興三街56號","lng":121.60347,"lat":23.989401,"abc":"B","service":"喘息服務","zones":["10015010","10015040","10015050","10015060","10015100","10015110"],"phone":"0921-170996","owner":"李依宸","start":"20221003","end":"20261231"},{"name":"花蓮縣私立陸陸居家長照機構","code":"1X1800030","type":"1","city":"10015","town":"10015010","addr":"花蓮縣花蓮市明心街1-32號","lng":121.593323,"lat":23.992998,"abc":"B","service":"喘息服務","zones":["10015010","10015040","10015050","10015060","10015110"],"phone":"038566919","owner":"周思萍","start":"20221018","end":"20261231"},{"name":"花蓮縣私立心安家居家長照機構","code":"1X1800025","type":"1","city":"10015","town":"10015010","addr":"花蓮縣花蓮市民族里復興街21號2樓之1","lng":121.617706,"lat":23.98254,"abc":"B","service":"喘息服務","zones":["10015010","10015020","10015040","10015050","10015060","10015070","10015110","10015120"],"phone":"03-8230530","owner":"貢韶辰","start":"20220819","end":"20261231"},{"name":"花蓮縣私立安家居家長照機構","code":"1X1800029","type":"1","city":"10015","town":"10015040","addr":"花蓮縣新城鄉光復路501之15號","lng":121.603401,"lat":24.038374,"abc":"B","service":"喘息服務","zones":["10015010","10015030","10015040","10015050","10015060","10015070","10015090","10015110"],"phone":"0911273581","owner":"曾美雲","start":"20221107","end":"20261231"},{"name":"花蓮縣私立福田健康居家長照機構","code":"1X1800031","type":"1","city":"10015","town":"10015010","addr":"花蓮縣花蓮市國富里國富二街101號1樓","lng":121.594925,"lat":23.989643,"abc":"B","service":"居家服務","zones":["10015010","10015040","10015050","10015060"],"phone":"03-8522116","owner":"黃楚云","start":"20221202","end":"20261231"},{"name":"花蓮縣富里鄉衛生所","code":"B21800010","type":"B2","city":"10015","town":"10015100","addr":"花蓮縣富里鄉富里村中山路203號","lng":121.248901,"lat":23.178534,"abc":"A","service":"個案管理服務","zones":["10015100"],"phone":"03-8831029","owner":"林大慶","start":"20230101","end":"20261231"},{"name":"花蓮縣私立福田健康居家長照機構","code":"1X1800031","type":"1","city":"10015","town":"10015010","addr":"花蓮縣花蓮市國富里國富二街101號1樓","lng":121.594925,"lat":23.989643,"abc":"B","service":"喘息服務","zones":["10015010","10015040","10015050","10015060"],"phone":"03-8522116","owner":"黃楚云","start":"20230101","end":"20261231"},{"name":"衛生福利部花蓮醫院","code":"B21800003","type":"B2","city":"10015","town":"10015010","addr":"花蓮縣花蓮市民立里中正路600號","lng":121.611183,"lat":23.979429,"abc":"A","service":"個案管理服務","zones":["10015010"],"phone":"03-8358141#3159","owner":"楊南屏 ","start":"20230101","end":"20240630"},{"name":"佳愛科技居家照護有限公司附設花蓮縣私立一鍵通居家長照機構","code":"1R1800006","type":"1","city":"10015","town":"10015010","addr":"花蓮縣花蓮市民族里復興街21號3樓之1","lng":121.567757,"lat":23.980198,"abc":"B","service":"喘息服務","zones":["10015010","10015040","10015050","10015060","10015080"],"phone":"0919-286230","owner":"貢睿伶","start":"20230101","end":"20261231"},{"name":"水源診所","code":"B21800092","type":"B2","city":"10015","town":"10015110","addr":"花蓮縣秀林鄉水源村17號","lng":121.552689,"lat":24.00391,"abc":"B","service":"居家失能個案家庭醫師照護服務","zones":["10015010","10015040","10015050","10015110"],"phone":"03-8580501","owner":"吳尚軒","start":"20230106","end":"20261231"},{"name":"佛教慈濟醫療財團法人花蓮慈濟醫院","code":"B21800004","type":"B2","city":"10015","town":"10015010","addr":"花蓮縣花蓮市民勤里中央路三段707號","lng":121.592545,"lat":23.996204,"abc":"A","service":"個案管理服務","zones":["10015010"],"phone":"03-8465020","owner":"林欣榮","start":"20230101","end":"20261231"},{"name":"花蓮縣鳳林鎮衛生所","code":"B21800007","type":"B2","city":"10015","town":"10015020","addr":"花蓮縣鳳林鎮鳳智里公正街8之1號","lng":121.451828,"lat":23.745377,"abc":"A","service":"個案管理服務","zones":["10015020"],"phone":"03-8761116","owner":"林志雄","start":"20230101","end":"20261231"},{"name":"花蓮縣秀林鄉衛生所","code":"B21800001","type":"B2","city":"10015","town":"10015110","addr":"花蓮縣秀林鄉秀林村秀林90號","lng":121.624306,"lat":24.118256,"abc":"A","service":"個案管理服務","zones":["10015110"],"phone":"03-8612123","owner":"田惠文","start":"20230101","end":"20261231"},{"name":"佛教慈濟醫療財團法人花蓮慈濟醫院","code":"B21800004","type":"B2","city":"10015","town":"10015010","addr":"花蓮縣花蓮市民勤里中央路三段707號","lng":121.592545,"lat":23.996204,"abc":"B","service":"社區式交通接送服務(BD03)","zones":["10015010"],"phone":"03-8465020","owner":"林欣榮","start":"20230101","end":"20261231"},{"name":"花蓮縣秀林鄉衛生所","code":"B21800001","type":"B2","city":"10015","town":"10015110","addr":"花蓮縣秀林鄉秀林村秀林90號","lng":121.624306,"lat":24.118256,"abc":"B","service":"社區式交通接送服務(BD03)","zones":["10015040","10015110"],"phone":"03-8612123","owner":"田惠文","start":"20230101","end":"20261231"},{"name":"花蓮縣富里鄉衛生所","code":"B21800010","type":"B2","city":"10015","town":"10015100","addr":"花蓮縣富里鄉富里村中山路203號","lng":121.248901,"lat":23.178534,"abc":"B","service":"社區式交通接送服務(BD03)","zones":["10015100"],"phone":"03-8831029","owner":"林大慶","start":"20230101","end":"20261231"},{"name":"花蓮縣鳳林鎮衛生所","code":"B21800007","type":"B2","city":"10015","town":"10015020","addr":"花蓮縣鳳林鎮鳳智里公正街8之1號","lng":121.451828,"lat":23.745377,"abc":"B","service":"社區式交通接送服務(BD03)","zones":["10015020"],"phone":"03-8761116","owner":"林志雄","start":"20230101","end":"20261231"},{"name":"花蓮縣瑞穗鄉衛生所","code":"B21800009","type":"B2","city":"10015","town":"10015090","addr":"花蓮縣瑞穗鄉瑞穗村民生街75號","lng":121.379059,"lat":23.499771,"abc":"A","service":"個案管理服務","zones":["10015090"],"phone":"03-8872045","owner":"吳大志","start":"20230101","end":"20261231"},{"name":"花蓮縣瑞穗鄉衛生所","code":"B21800009","type":"B2","city":"10015","town":"10015090","addr":"花蓮縣瑞穗鄉瑞穗村民生街75號","lng":121.379059,"lat":23.499771,"abc":"B","service":"社區式交通接送服務(BD03)","zones":["10015090"],"phone":"03-8872045","owner":"吳大志","start":"20230101","end":"20261231"},{"name":"花蓮縣萬榮鄉衛生所","code":"B21800008","type":"B2","city":"10015","town":"10015120","addr":"花蓮縣萬榮鄉萬榮村萬榮16號","lng":121.409637,"lat":23.715176,"abc":"A","service":"個案管理服務","zones":["10015120"],"phone":"03-8751651","owner":"王傑熙","start":"20230101","end":"20261231"},{"name":"花蓮縣萬榮鄉衛生所","code":"B21800008","type":"B2","city":"10015","town":"10015120","addr":"花蓮縣萬榮鄉萬榮村萬榮16號","lng":121.409637,"lat":23.715176,"abc":"B","service":"社區式交通接送服務(BD03)","zones":["10015020","10015070","10015120"],"phone":"03-8751651","owner":"王傑熙","start":"20230101","end":"20261231"},{"name":"信德診所","code":"B21800093","type":"B2","city":"10015","town":"10015060","addr":"花蓮縣壽豐鄉志學村中山路三段76號","lng":121.530884,"lat":23.909351,"abc":"B","service":"居家失能個案家庭醫師照護服務","zones":["10015050","10015060","10015110"],"phone":"03-8662806","owner":"程文爵","start":"20230110","end":"20261231"},{"name":"國軍花蓮總醫院附設民眾診療服務處","code":"B21800002","type":"B2","city":"10015","town":"10015040","addr":"花蓮縣新城鄉嘉里村嘉里路163號","lng":121.606476,"lat":24.02494,"abc":"A","service":"個案管理服務","zones":["10015040"],"phone":"03-8263151#815876","owner":"呂紹琦","start":"20230101","end":"20261231"},{"name":"國軍花蓮總醫院附設民眾診療服務處","code":"B21800002","type":"B2","city":"10015","town":"10015040","addr":"花蓮縣新城鄉嘉里村嘉里路163號","lng":121.606476,"lat":24.02494,"abc":"B","service":"社區式交通接送服務(BD03)","zones":["10015040"],"phone":"03-8263151#815876","owner":"呂紹琦","start":"20230101","end":"20261231"},{"name":"富爾捷居家護理所","code":"B11800009","type":"B1","city":"10015","town":"10015010","addr":"花蓮縣花蓮市海岸路47-1號","lng":121.633736,"lat":23.992308,"abc":"B","service":"社區式交通接送服務(BD03)","zones":["10015010","10015020","10015030","10015040","10015050","10015060","10015070","10015090","10015100","10015110","10015120","10015130"],"phone":"03-8314913","owner":"潘爾捷","start":"20230101","end":"20261231"},{"name":"花蓮縣私立真心社區式服務類長期照顧服務機構","code":"2X1800025","type":"2","city":"10015","town":"10015050","addr":"花蓮縣吉安鄉太昌村明義七街133號","lng":121.555153,"lat":23.990189,"abc":"B","service":"家庭托顧服務(BC)","zones":["10","10015010","10015040","10015050","10015060","10015110","15","5"],"phone":"0956938053","owner":"方美珍","start":"20230101","end":"20261231"},{"name":"財團法人一粒麥子社會福利慈善事業基金會","code":"BD1800026","type":"BD","city":"10015","town":"10015070","addr":"花蓮縣光復鄉中華路232巷12號","lng":121.422462,"lat":23.66671,"abc":"B","service":"社區式交通接送服務(BD03)","zones":["10015010","10015020","10015030","10015040","10015050","10015060","10015070","10015080","10015090","10015100","10015110","10015120","10015130"],"phone":"03-8704747","owner":"呂信雄","start":"20230101","end":"20261231"},{"name":"臺灣基督教門諾會醫療財團法人門諾醫院","code":"B21800017","type":"B2","city":"10015","town":"10015010","addr":"花蓮縣花蓮市民權路44號","lng":121.629387,"lat":23.991854,"abc":"A","service":"個案管理服務","zones":["10015010","10015050","10015130"],"phone":"03-8241350","owner":"莊永鑣","start":"20230101","end":"20261231"},{"name":"臺灣基督教門諾會醫療財團法人門諾醫院","code":"B21800017","type":"B2","city":"10015","town":"10015010","addr":"花蓮縣花蓮市民權路44號","lng":121.629387,"lat":23.991854,"abc":"B","service":"社區式交通接送服務(BD03)","zones":["10015010","10015030","10015040","10015050","10015130"],"phone":"03-8241350","owner":"莊永鑣","start":"20230101","end":"20261231"},{"name":"社團法人花蓮縣老人暨家庭關懷協會","code":"BE1800017","type":"BE","city":"10015","town":"10015010","addr":"花蓮縣花蓮市中華路486號","lng":121.592804,"lat":23.974632,"abc":"B","service":"交通接送服務","zones":["10015010","10015040","10015050","10015060","10015110"],"phone":"038330522","owner":"江瑞庭","start":"20230101","end":"20240630"},{"name":"社團法人花蓮縣脊髓損傷福利協進會","code":"BE1800018","type":"BE","city":"10015","town":"10015010","addr":"花蓮縣花蓮市民立里順興路3號5樓","lng":121.62941,"lat":23.991112,"abc":"B","service":"交通接送服務","zones":["10015010","10015050"],"phone":"038230157","owner":"彭儀珠","start":"20230101","end":"20240630"},{"name":"財團法人門諾社會福利慈善事業基金會","code":"BD1800007","type":"BD","city":"10015","town":"10015010","addr":"花蓮縣花蓮市民德里民權路4號","lng":121.622009,"lat":23.983217,"abc":"A","service":"個案管理服務","zones":["10015030"],"phone":"03-8338009","owner":"周朝國","start":"20230101","end":"20261231"},{"name":"財團法人門諾社會福利慈善事業基金會","code":"BD1800007","type":"BD","city":"10015","town":"10015010","addr":"花蓮縣花蓮市民德里民權路4號","lng":121.622009,"lat":23.983217,"abc":"B","service":"社區式交通接送服務(BD03)","zones":["10015010","10015020","10015030","10015040","10015050","10015060","10015070","10015080","10015090","10015100","10015110","10015120","10015130"],"phone":"03-8338009","owner":"周朝國","start":"20230101","end":"20261231"},{"name":"廣鄉長照社團法人附設私立明心住宿長照機構","code":"3L1800002","type":"3","city":"10015","town":"10015010","addr":"花蓮縣花蓮市國安里14鄰明心街1之43號","lng":121.605415,"lat":23.985334,"abc":"B","service":"喘息服務","zones":["10015010","10015020","10015030","10015040","10015050","10015060","10015070","10015080","10015090","10015100","10015110","10015120","10015130"],"phone":"03-8322702","owner":"陳錫欽","start":"20230203","end":"20261231","beds":70,"residents":68},{"name":"社團法人花蓮縣老人暨家庭關懷協會附設花蓮縣私立老家社區長照機構","code":"2R1800003","type":"2","city":"10015","town":"10015010","addr":"花蓮縣花蓮市主農里21鄰中正路156號2樓","lng":121.597725,"lat":23.970713,"abc":"B","service":"日間照顧服務(BB)","zones":["10015010","10015040","10015050","10015060","10015110"],"phone":"(03)832-0007","owner":"楊傑","start":"20230209","end":"20261231"},{"name":"社團法人花蓮縣老人暨家庭關懷協會附設花蓮縣私立老家社區長照機構","code":"2R1800003","type":"2","city":"10015","town":"10015010","addr":"花蓮縣花蓮市主農里21鄰中正路156號2樓","lng":121.597725,"lat":23.970713,"abc":"B","service":"喘息服務","zones":["10015010","10015040","10015050","10015060","10015110"],"phone":"(03)832-0007","owner":"楊傑","start":"20230209","end":"20261231"},{"name":"臺灣基督教門諾會醫療財團法人門諾醫院壽豐分院","code":"B21800019","type":"B2","city":"10015","town":"10015060","addr":"花蓮縣壽豐鄉共和村魚池52號","lng":121.52578,"lat":23.869387,"abc":"A","service":"個案管理服務","zones":["10015060"],"phone":"03-8664600#2244","owner":"王迺燕","start":"20230101","end":"20261231"},{"name":"臺灣基督教門諾會醫療財團法人門諾醫院壽豐分院","code":"B21800019","type":"B2","city":"10015","town":"10015060","addr":"花蓮縣壽豐鄉共和村魚池52號","lng":121.52578,"lat":23.869387,"abc":"B","service":"社區式交通接送服務(BD03)","zones":["10015060"],"phone":"03-8664600#2244","owner":"王迺燕","start":"20230101","end":"20261231"},{"name":"花蓮縣私立有愛居家長照機構","code":"1X1800032","type":"1","city":"10015","town":"10015010","addr":"花蓮縣花蓮市民運里忠義二街49號","lng":121.632004,"lat":23.994444,"abc":"B","service":"喘息服務","zones":["10015010","10015020","10015030","10015040","10015050","10015060","10015070","10015090","10015110","10015120","10015130"],"phone":"03-8220750","owner":"胡英妹","start":"20230215","end":"20261231"},{"name":"花蓮縣私立有愛居家長照機構","code":"1X1800032","type":"1","city":"10015","town":"10015010","addr":"花蓮縣花蓮市民運里忠義二街49號","lng":121.632004,"lat":23.994444,"abc":"B","service":"居家服務","zones":["10015010","10015020","10015030","10015040","10015050","10015060","10015070","10015090","10015110","10015120","10015130"],"phone":"03-8220750","owner":"胡英妹","start":"20230215","end":"20261231"},{"name":"花蓮縣花蓮市衛生所","code":"B21800094","type":"B2","city":"10015","town":"10015010","addr":"花蓮縣花蓮市民勤里新興路200號","lng":121.617149,"lat":23.991432,"abc":"B","service":"居家失能個案家庭醫師照護服務","zones":["10015010"],"phone":"03-8230232","owner":"胡易多","start":"20230301","end":"20261231"},{"name":"花蓮縣花蓮市衛生所","code":"B21800094","type":"B2","city":"10015","town":"10015010","addr":"花蓮縣花蓮市民勤里新興路200號","lng":121.617149,"lat":23.991432,"abc":"B","service":"專業照護服務","zones":["10015010"],"phone":"03-8230232","owner":"胡易多","start":"20230306","end":"20261231"},{"name":"花蓮縣吉安鄉衛生所","code":"B21800095","type":"B2","city":"10015","town":"10015050","addr":"花蓮縣吉安鄉吉安村吉安路二段132號","lng":121.56385,"lat":23.973806,"abc":"B","service":"居家失能個案家庭醫師照護服務","zones":["10015050"],"phone":"03-8521113","owner":"胡申言","start":"20230313","end":"20261231"},{"name":"花蓮縣吉安鄉衛生所","code":"B21800095","type":"B2","city":"10015","town":"10015050","addr":"花蓮縣吉安鄉吉安村吉安路二段132號","lng":121.56385,"lat":23.973806,"abc":"B","service":"專業照護服務","zones":["10015050"],"phone":"03-8521113","owner":"胡申言","start":"20230314","end":"20261231"},{"name":"花蓮縣光復鄉衛生所","code":"B21800096","type":"B2","city":"10015","town":"10015070","addr":"花蓮縣光復鄉大馬村中學街158號","lng":121.425941,"lat":23.671898,"abc":"A","service":"個案管理服務","zones":["10015070"],"phone":"03-8704955","owner":"林春孝","start":"20230224","end":"20261231"},{"name":"社團法人中華廣博長照發展協會","code":"BE1800020","type":"BE","city":"10015","town":"10015050","addr":"花蓮縣吉安鄉南昌村文化七街20號","lng":121.580978,"lat":23.971861,"abc":"B","service":"交通接送服務","zones":["10015010","10015020","10015030","10015040","10015050","10015060","10015070","10015080","10015090","10015100","10015110","10015120","10015130"],"phone":"03-8530330","owner":"江瓊菁","start":"20230330","end":"20240630"},{"name":"周耳鼻喉科診所","code":"B21800098","type":"B2","city":"10015","town":"10015010","addr":"花蓮縣花蓮市國富里中山路747號","lng":121.597679,"lat":23.991695,"abc":"B","service":"居家失能個案家庭醫師照護服務","zones":["10015010"],"phone":"03-8568801","owner":"周朝雄","start":"20230118","end":"20261231"},{"name":"花蓮縣私立馬嚕蘇厚社區式服務類長期照顧服務機構","code":"2X1800026","type":"2","city":"10015","town":"10015110","addr":"花蓮縣秀林鄉水源村4鄰41之2號","lng":121.550156,"lat":24.004745,"abc":"B","service":"家庭托顧服務(BC)","zones":["10","10015010","10015040","10015050","10015110","15","5"],"phone":"0920281636","owner":"吳逸寧","start":"20230613","end":"20261231"},{"name":"花蓮縣托瓦本全人關懷發展協會","code":"BF1800045","type":"BF","city":"10015","town":"10015010","addr":"花蓮縣花蓮市民孝里華東86之1號","lng":121.632637,"lat":24.007021,"abc":"B","service":"喘息服務","zones":["10015010"],"phone":"0937-166372","owner":"蔡憶萍","start":"20230620","end":"20261231"},{"name":"花蓮縣私立晟光社區式服務類長期照顧服務機構","code":"2X1800027","type":"2","city":"10015","town":"10015110","addr":"花蓮縣秀林鄉水源村9鄰水源101之8號","lng":121.554642,"lat":24.003347,"abc":"B","service":"家庭托顧服務(BC)","zones":["10","10015010","10015040","10015050","10015110","15","5"],"phone":"0925395992","owner":"盧晉彥","start":"20230711","end":"20261231"},{"name":"花蓮縣卓溪鄉衛生所","code":"B21800036","type":"B2","city":"10015","town":"10015130","addr":"花蓮縣卓溪鄉卓溪村中正65號","lng":121.304192,"lat":23.345991,"abc":"B","service":"喘息服務","zones":["10015130"],"phone":"03-8883977","owner":"陳志偉","start":"20230626","end":"20251231"},{"name":"花蓮縣玉里鎮衛生所","code":"B21800054","type":"B2","city":"10015","town":"10015030","addr":"花蓮縣玉里鎮泰昌里中正路152號","lng":121.314919,"lat":23.336409,"abc":"B","service":"喘息服務","zones":["10015030"],"phone":"038882046","owner":"曹郁文","start":"20230717","end":"20261231"},{"name":"花蓮縣瑞穗鄉衛生所附設瑞歲健安社區長照機構","code":"2B1800001","type":"2","city":"10015","town":"10015090","addr":"花蓮縣瑞穗鄉新生路14巷17號","lng":121.378113,"lat":23.496792,"abc":"B","service":"日間照顧服務(BB)","zones":["10015030","10015090","10015120"],"phone":"(03)887-6788","owner":"吳大志","start":"20230801","end":"20261231"},