[{"name":"屏東縣私立博仁老人養護中心","code":"A11600014","type":"A1","city":"10013","town":"10013210","addr":"屏東縣佳冬鄉佳冬村民生路48號","lng":120.553642,"lat":22.415604,"abc":"B","service":"喘息服務","zones":["10013010","10013020","10013030","10013040","10013050","10013060","10013070","10013080","10013090","10013100","10013110","10013120","10013130","10013140","10013150","10013160","10013170","10013180","10013190","10013200","10013210","10013220","10013230","10013240","10013250","10013260","10013270","10013280","10013290","10013300","10013310","10013320","10013330"],"phone":"08-8670939","owner":"吳源杉","start":"20260213","end":"20261231","beds":49,"residents":45},{"name":"大愛護理之家附設居家護理所","code":"B11600012","type":"B1","city":"10013","town":"10013050","addr":"屏東縣萬丹鄉香社村中興路一段68號","lng":120.471939,"lat":22.561152,"abc":"B","service":"專業照護服務","zones":["10013010","10013040","10013080","10013120","10013150","10013180","10013250","10013260","10013290","10013320"],"phone":"08-7763919#37","owner":"黃莉雅","start":"20260302","end":"20261231"},{"name":"財團法人基督教拿撒勒人會歸崇教會(歸崇文健站)","code":"BD1600003","type":"BD","city":"10013","town":"10013310","addr":"屏東縣春日鄉歸崇村玉山路92號","lng":120.629807,"lat":22.428089,"abc":"C","service":"巷弄長照站","zones":["10013310"],"phone":"08-8791090","owner":"鍾秀花","start":"20190101","end":"20221231"},{"name":"社團法人屏東縣牡丹鄉高士社區發展協會(高士文健站)","code":"BE1600003","type":"BE","city":"10013","town":"10013330","addr":"屏東縣牡丹鄉高士村高士路67號","lng":120.846497,"lat":22.12044,"abc":"C","service":"巷弄長照站","zones":["10013330"],"phone":"08-8810325","owner":"陳貴龍","start":"20190101","end":"20221231"},{"name":"屏東縣牡丹鄉大梅社區發展協會(大梅文健站)","code":"BF1600012","type":"BF","city":"10013","town":"10013330","addr":"屏東縣牡丹鄉石門村大梅路29-6號","lng":120.746841,"lat":22.101912,"abc":"C","service":"巷弄長照站","zones":["10013330"],"phone":"08-8825876","owner":"陳志憲","start":"20190101","end":"20221231"},{"name":"屏東縣牡丹鄉東源社區發展協會(東源文健站)","code":"BF1600014","type":"BF","city":"10013","town":"10013330","addr":"屏東縣牡丹鄉東源村1號","lng":120.851036,"lat":22.204634,"abc":"C","service":"巷弄長照站","zones":["10013330"],"phone":"0965-146508","owner":"陳國峯","start":"20190101","end":"20221231"},{"name":"屏東縣牡丹鄉四林社區發展協會(四林文健站)","code":"BF1600016","type":"BF","city":"10013","town":"10013330","addr":"屏東縣牡丹鄉四林村四林路48-1號","lng":120.814514,"lat":22.074366,"abc":"C","service":"巷弄長照站","zones":["10013330"],"phone":"0960-911858","owner":"陳天祥","start":"20190101","end":"20221231"},{"name":"屏東縣竹田鄉六份社區發展協會","code":"BF1600021","type":"BF","city":"10013","town":"10013140","addr":"屏東縣竹田鄉鳳明村福安路46號","lng":120.508705,"lat":22.567785,"abc":"C","service":"巷弄長照站","zones":["10013140"],"phone":"780-1237","owner":"謝清油","start":"20190101","end":"20251231"},{"name":"屏東縣滿州鄉分水嶺社區發展協會(分水嶺文健站)","code":"BF1600024","type":"BF","city":"10013","town":"10013240","addr":"屏東縣滿州鄉長樂村八瑤路69-2號","lng":120.840744,"lat":22.102068,"abc":"C","service":"巷弄長照站","zones":["10013240"],"phone":"881-1871","owner":"張美雲","start":"20190101","end":"20221231"},{"name":"屏東縣萬巒鄉泗溝社區發展協會","code":"BF1600032","type":"BF","city":"10013","town":"10013120","addr":"屏東縣萬巒鄉泗溝村永平路72號","lng":120.579094,"lat":22.590874,"abc":"C","service":"巷弄長照站","zones":["10013120"],"phone":"0933-287402","owner":"林明盛","start":"20190101","end":"20241231"},{"name":"屏東縣瑪家鄉美園社區發展協會(美園文健站)","code":"BF1600041","type":"BF","city":"10013","town":"10013280","addr":"屏東縣瑪家鄉北葉村美園巷90-4號","lng":120.598885,"lat":22.696482,"abc":"C","service":"巷弄長照站","zones":["10013280"],"phone":"08-7997365","owner":"柯俊傑","start":"20190101","end":"20221231"},{"name":"台灣基督長老教會中村教會(中村文健站)","code":"BF1600042","type":"BF","city":"10013","town":"10013280","addr":"屏東縣瑪家鄉三和村6鄰32號","lng":120.647636,"lat":22.708132,"abc":"C","service":"巷弄長照站","zones":["10013280"],"phone":"08-7991650","owner":"塔卡納夫·景榕","start":"20190101","end":"20221231"},{"name":"屏東縣泰武鄉平和社區發展協會(平和文健站)","code":"BF1600044","type":"BF","city":"10013","town":"10013290","addr":"屏東縣泰武鄉平和村17號","lng":120.629318,"lat":22.552752,"abc":"C","service":"巷弄長照站","zones":["10013290"],"phone":"08-7851664","owner":"孫光照","start":"20190101","end":"20221231"},{"name":"屏東縣來義鄉望嘉社區發展協會(望嘉文健站)","code":"BF1600045","type":"BF","city":"10013","town":"10013300","addr":"屏東縣來義鄉望嘉村114之1號","lng":120.621468,"lat":22.463526,"abc":"C","service":"巷弄長照站","zones":["10013300"],"phone":"08-7982047","owner":"林曉娟","start":"20190101","end":"20221231"},{"name":"財團法人天主教會高雄教區山地教會來義鄉南和天主教(南和文健站)","code":"BF1600046","type":"BF","city":"10013","town":"10013300","addr":"屏東縣來義鄉南和村1鄰23號","lng":120.662392,"lat":22.525757,"abc":"C","service":"巷弄長照站","zones":["10013300"],"phone":"08-8791305","owner":"申宇凡","start":"20190101","end":"20221231"},{"name":"屏東縣來義鄉新來義社區發展協會(新來義文健站)","code":"BF1600047","type":"BF","city":"10013","town":"10013300","addr":"屏東縣來義鄉義林村來新路21號","lng":120.58271,"lat":22.508802,"abc":"C","service":"巷弄長照站","zones":["10013300"],"phone":"08-7870735","owner":"許蘭花","start":"20190101","end":"20221231"},{"name":"屏東縣來義鄉古樓社區發展協會(古樓文健站)","code":"BF1600048","type":"BF","city":"10013","town":"10013300","addr":"屏東縣來義鄉古樓村中正路105號","lng":120.631165,"lat":22.525887,"abc":"C","service":"巷弄長照站","zones":["10013300"],"phone":"08-7850609","owner":"趙志強","start":"20190101","end":"20221231"},{"name":"屏東縣春日鄉春日社區發展協會(春日文健站)","code":"BF1600051","type":"BF","city":"10013","town":"10013310","addr":"屏東縣春日鄉春日村春日路141號","lng":120.624367,"lat":22.370375,"abc":"C","service":"巷弄長照站","zones":["10013310"],"phone":"08-8780781","owner":"柯政平","start":"20190101","end":"20221231"},{"name":"財團法人基督教中華循理會草埔教會(草埔文健站)","code":"BF1600052","type":"BF","city":"10013","town":"10013320","addr":"屏東縣獅子鄉草埔村7巷7-3號","lng":120.800926,"lat":22.233858,"abc":"C","service":"巷弄長照站","zones":["10013320"],"phone":"08-8701226","owner":"葉曉華","start":"20190101","end":"20221231"},{"name":"屏東縣三地門鄉大社拉瓦爾生態文化促進會(大社文健站)","code":"BF1600059","type":"BF","city":"10013","town":"10013260","addr":"屏東縣三地門鄉大社村和平路2段59巷15號","lng":120.636406,"lat":22.692228,"abc":"C","service":"巷弄長照站","zones":["10013260"],"phone":"0910-878675","owner":"巴進益","start":"20190101","end":"20221231"},{"name":"財團法人基督復臨安息日會台灣原住民教會青葉教會(青葉文健站)","code":"BF1600060","type":"BF","city":"10013","town":"10013260","addr":"屏東縣三地門鄉青葉村光復巷62號","lng":120.637901,"lat":22.839865,"abc":"C","service":"巷弄長照站","zones":["10013260"],"phone":"08-7965271","owner":"趙光平","start":"20190101","end":"20221231"},{"name":"台灣基督長老教會活泉教會(龍潭文健站)","code":"BF1600064","type":"BF","city":"10013","town":"10013130","addr":"屏東縣內埔鄉龍潭村龍德路80號","lng":120.599037,"lat":22.675747,"abc":"C","service":"巷弄長照站","zones":["10013130"],"phone":"08-7705378","owner":"杜桂月","start":"20190101","end":"20221231"},{"name":"屏東縣來義鄉部落發展協會(來義文健站)","code":"BF1600071","type":"BF","city":"10013","town":"10013300","addr":"屏東縣來義鄉來義村20號","lng":120.675941,"lat":22.525885,"abc":"C","service":"巷弄長照站","zones":["10013300"],"phone":"08-7850996","owner":"洪嘉明","start":"20190101","end":"20221231"},{"name":"屏東縣獅子鄉內文社區發展協會(內文文健站)","code":"BF1600094","type":"BF","city":"10013","town":"10013320","addr":"屏東縣獅子鄉內文村二巷5-1號","lng":120.849564,"lat":22.220005,"abc":"C","service":"巷弄長照站","zones":["10013320"],"phone":"08-8700033","owner":"施政順","start":"20190101","end":"20221231"},{"name":"屏東縣瑪家鄉排灣社區發展協會(排灣文健站)","code":"BF1600101","type":"BF","city":"10013","town":"10013280","addr":"屏東縣瑪家鄉排灣村排灣58號","lng":120.729248,"lat":22.671015,"abc":"C","service":"巷弄長照站","zones":["10013280"],"phone":"08-7991988","owner":"李健國","start":"20190101","end":"20221231"},{"name":"屏東縣瑪家鄉涼山社區發展協會(涼山文健站)","code":"BF1600102","type":"BF","city":"10013","town":"10013280","addr":"屏東縣瑪家鄉凉山村2鄰22號","lng":120.639664,"lat":22.691416,"abc":"C","service":"巷弄長照站","zones":["10013280"],"phone":"08-7994859","owner":"高文貴","start":"20190101","end":"20221231"},{"name":"屏東縣瑪家鄉玉泉社區發展協會(玉泉文健站)","code":"BF1600103","type":"BF","city":"10013","town":"10013280","addr":"屏東縣瑪家鄉三和村玉泉巷1-18號","lng":120.646034,"lat":22.70713,"abc":"C","service":"巷弄長照站","zones":["10013280"],"phone":"08-7991988","owner":"陳揚","start":"20190101","end":"20221231"},{"name":"屏東縣文化復興信仰協會(潮州文健站)","code":"BF1600105","type":"BF","city":"10013","town":"10013020","addr":"屏東縣潮州鎮三星里三林路109號","lng":120.541824,"lat":22.540163,"abc":"C","service":"巷弄長照站","zones":["10013020"],"phone":"0982-051382","owner":"李姍嬡","start":"20190101","end":"20221231"},{"name":"屏東縣霧台鄉神山社區發展協會(神山文健站)","code":"BF1600107","type":"BF","city":"10013","town":"10013270","addr":"屏東縣霧臺鄉霧台村神山巷43-1號","lng":120.728203,"lat":22.750162,"abc":"C","service":"巷弄長照站","zones":["10013270"],"phone":"0912-132526","owner":"賴松忠","start":"20190101","end":"20221231"},{"name":"屏東市海豐鎮安宮","code":"BF1600118","type":"BF","city":"10013","town":"10013010","addr":"屏東縣屏東市清溪里文明仁義9號","lng":120.470329,"lat":22.655844,"abc":"C","service":"巷弄長照站","zones":["10013010"],"phone":"0939-130310","owner":"郭博仁","start":"20190101","end":"20251231"},{"name":"屏東縣鹽埔鄉綠美化協會","code":"BF1600126","type":"BF","city":"10013","town":"10013100","addr":"屏東縣鹽埔鄉鹽中村豐年路1-3號","lng":120.581238,"lat":22.755196,"abc":"C","service":"巷弄長照站","zones":["10013100"],"phone":"08-7935012","owner":"張坤麒","start":"20190101","end":"20241231"},{"name":"屏東縣獅子鄉內獅社區發展協會(內獅文健站)","code":"BF1600133","type":"BF","city":"10013","town":"10013320","addr":"屏東縣獅子鄉內獅村60-2號","lng":120.64505,"lat":22.304605,"abc":"C","service":"巷弄長照站","zones":["10013320"],"phone":"08-8720029","owner":"柯南","start":"20190101","end":"20221231"},{"name":"社團法人屏東縣屏東市長青學苑服務協會","code":"BE1600002","type":"BE","city":"10013","town":"10013010","addr":"屏東縣屏東市華山里華山華正路97號","lng":120.501472,"lat":22.68631,"abc":"C","service":"巷弄長照站","zones":["10013010"],"phone":"737-0359分機11","owner":"黃戴明","start":"20190101","end":"20251231"},{"name":"屏東縣屏東市崇蘭社區發展協會","code":"BF1600007","type":"BF","city":"10013","town":"10013010","addr":"屏東縣屏東市崇蘭里崇蘭博愛路427號","lng":120.480492,"lat":22.686356,"abc":"C","service":"巷弄長照站","zones":["10013010"],"phone":"08-7330924","owner":"鐘玉芬","start":"20190101","end":"20251231"},{"name":"屏東縣屏東市信和社區發展協會","code":"BF1600008","type":"BF","city":"10013","town":"10013010","addr":"屏東縣屏東市信和里金城街62-6號","lng":120.509293,"lat":22.70055,"abc":"C","service":"巷弄長照站","zones":["10013010"],"phone":"736-1495","owner":"陳玉蘭","start":"20190101","end":"20251231"},{"name":"屏東縣屏東市大洲社區發展協會","code":"BF1600009","type":"BF","city":"10013","town":"10013010","addr":"屏東縣屏東市大洲里62-1號","lng":120.464615,"lat":22.643717,"abc":"C","service":"巷弄長照站","zones":["10013010"],"phone":"0937-636302","owner":"林福星","start":"20190101","end":"20221231"},{"name":"社團法人屏東縣失智症服務協會","code":"BF1600010","type":"BF","city":"10013","town":"10013010","addr":"屏東縣屏東市泰安里泰安忠孝路155-6號3樓","lng":120.48732,"lat":22.676449,"abc":"C","service":"巷弄長照站","zones":["10013010"],"phone":"0920-400209","owner":"蘇哲能","start":"20190101","end":"20221231"},{"name":"屏東縣屏東市北興社區發展協會","code":"BF1600011","type":"BF","city":"10013","town":"10013010","addr":"屏東縣屏東市北興里公裕街203號","lng":120.495041,"lat":22.688049,"abc":"C","service":"巷弄長照站","zones":["10013010"],"phone":"0956-732122","owner":"周權裕","start":"20190101","end":"20251231"},{"name":"屏東縣車城鄉興安社區發展協會","code":"BF1600017","type":"BF","city":"10013","town":"10013230","addr":"屏東縣車城鄉福安村福安路2-7號","lng":120.708633,"lat":22.069075,"abc":"C","service":"巷弄長照站","zones":["10013230"],"phone":"0932-757690","owner":"陳明仁","start":"20190101","end":"20251231"},{"name":"屏東縣車城鄉射寮社區發展協會","code":"BF1600019","type":"BF","city":"10013","town":"10013230","addr":"屏東縣車城鄉射寮村96號","lng":120.707687,"lat":22.050879,"abc":"C","service":"巷弄長照站","zones":["10013230"],"phone":"0928-348869","owner":"陳鳳德","start":"20190101","end":"20251231"},{"name":"屏東縣三地門鄉馬兒社區發展協會(馬兒文健站)","code":"BF1600020","type":"BF","city":"10013","town":"10013260","addr":"屏東縣三地門鄉馬兒村1鄰2號","lng":120.633476,"lat":22.788591,"abc":"C","service":"巷弄長照站","zones":["10013260"],"phone":"08-7958880","owner":"李新光","start":"20190101","end":"20221231"},{"name":"屏東縣高樹鄉東興社區發展協會","code":"BF1600022","type":"BF","city":"10013","town":"10013110","addr":"屏東縣高樹鄉東興村武尚路19號","lng":120.589989,"lat":22.825104,"abc":"C","service":"巷弄長照站","zones":["10013110"],"phone":"796-2405","owner":"曾彩光","start":"20190101","end":"20241231"},{"name":"屏東縣滿州鄉九棚社區發展協會","code":"BF1600023","type":"BF","city":"10013","town":"10013240","addr":"屏東縣滿州鄉九棚村水燭路1號","lng":120.882607,"lat":22.11166,"abc":"C","service":"巷弄長照站","zones":["10013240"],"phone":"0953-457747","owner":"劉怡邑","start":"20190101","end":"20231231"},{"name":"屏東縣滿州鄉滿州社區發展協會","code":"BF1600025","type":"BF","city":"10013","town":"10013240","addr":"屏東縣滿州鄉滿州村中山路3巷35號1樓","lng":120.838654,"lat":22.020269,"abc":"C","service":"巷弄長照站","zones":["10013240"],"phone":"880-2021","owner":"王德成","start":"20190101","end":"20241231"},{"name":"屏東縣鹽埔鄉新圍社區發展協會","code":"BF1600028","type":"BF","city":"10013","town":"10013100","addr":"屏東縣鹽埔鄉新圍村自強路3-3號","lng":120.558853,"lat":22.740038,"abc":"C","service":"巷弄長照站","zones":["10013100"],"phone":"08-7937538","owner":"黃玟誠","start":"20190101","end":"20241231"},{"name":"屏東縣東港鎮下廍社區發展協會","code":"BF1600029","type":"BF","city":"10013","town":"10013030","addr":"屏東縣東港鎮下廍里下廍路135-1號","lng":120.492111,"lat":22.463783,"abc":"C","service":"巷弄長照站","zones":["10013030"],"phone":"0937-683682","owner":"林清發","start":"20190101","end":"20251231"},{"name":"屏東縣東港鎮興和社區發展協會","code":"BF1600030","type":"BF","city":"10013","town":"10013030","addr":"屏東縣東港鎮興和里興和路260號","lng":120.480865,"lat":22.488159,"abc":"C","service":"巷弄長照站","zones":["10013230"],"phone":"0912-133492","owner":"高松","start":"20190101","end":"20251231"},{"name":"屏東縣萬巒鄉赤山社區發展協會","code":"BF1600031","type":"BF","city":"10013","town":"10013120","addr":"屏東縣萬巒鄉赤山村建興路15號","lng":120.611328,"lat":22.588253,"abc":"C","service":"巷弄長照站","zones":["10013120"],"phone":"0989-759904","owner":"潘嘉明","start":"20190101","end":"20241231"},{"name":"屏東縣枋寮鄉東海社區發展協會","code":"BF1600033","type":"BF","city":"10013","town":"10013160","addr":"屏東縣枋寮鄉東海村東海路434巷40號","lng":120.57795,"lat":22.40134,"abc":"C","service":"巷弄長照站","zones":["10013160"],"phone":"08-8715920","owner":"林達忠","start":"20190101","end":"20251231"},{"name":"屏東縣枋寮鄉新龍社區發展協會","code":"BF1600034","type":"BF","city":"10013","town":"10013160","addr":"屏東縣枋寮鄉新龍村義民路216號","lng":120.573349,"lat":22.383226,"abc":"C","service":"巷弄長照站","zones":["10013160"],"phone":"08-8780185","owner":"黃陳梅香","start":"20190101","end":"20251231"},{"name":"屏東縣枋寮鄉地利社區發展協會","code":"BF1600035","type":"BF","city":"10013","town":"10013160","addr":"屏東縣枋寮鄉地利村勝利路5號","lng":120.595695,"lat":22.38732,"abc":"C","service":"巷弄長照站","zones":["10013160"],"phone":"0958-701819","owner":"楊永耀","start":"20190101","end":"20251231"},{"name":"屏東縣屏東市社區人文關懷協會","code":"BF1600036","type":"BF","city":"10013","town":"10013010","addr":"屏東縣屏東市潭墘里機場北路710號","lng":120.472885,"lat":22.686411,"abc":"C","service":"巷弄長照站","zones":["10013010"],"phone":"766-0809","owner":"胡雪雲","start":"20190101","end":"20251231"},{"name":"屏東縣霧臺鄉好茶社區發展協會(好茶文健站)","code":"BF1600040","type":"BF","city":"10013","town":"10013270","addr":"屏東縣霧臺鄉好茶村古茶柏安街12巷11號","lng":120.646507,"lat":22.700638,"abc":"C","service":"巷弄長照站","zones":["10013270"],"phone":"0989-254796","owner":"尤文良","start":"20190101","end":"20221231"},{"name":"屏東縣佳冬鄉塭豐社區發展協會","code":"BF1600049","type":"BF","city":"10013","town":"10013210","addr":"屏東縣佳冬鄉塭豐村塭田路206號","lng":120.521294,"lat":22.411999,"abc":"C","service":"巷弄長照站","zones":["10013210"],"phone":"08-8665373","owner":"吳世昌","start":"20190101","end":"20251231"},{"name":"屏東縣春日鄉七佳社區發展協會(七佳文健站)","code":"BF1600050","type":"BF","city":"10013","town":"10013310","addr":"屏東縣春日鄉七佳村自強一路18號","lng":120.627724,"lat":22.427885,"abc":"C","service":"巷弄長照站","zones":["10013310"],"phone":"08-8791492","owner":"徐聰明","start":"20190101","end":"20221231"},{"name":"屏東縣九如鄉玉水社區發展協會","code":"BF1600053","type":"BF","city":"10013","town":"10013080","addr":"屏東縣九如鄉玉水村清水路73號","lng":120.478088,"lat":22.714556,"abc":"C","service":"巷弄長照站","zones":["10013080"],"phone":"0921-585171","owner":"陳富娟","start":"20190101","end":"20251231"},{"name":"屏東縣九如鄉三塊社區發展協會","code":"BF1600054","type":"BF","city":"10013","town":"10013080","addr":"屏東縣九如鄉三塊村三多路189號","lng":120.48188,"lat":22.750732,"abc":"C","service":"巷弄長照站","zones":["10013080"],"phone":"08-7721038","owner":"潘美利","start":"20190101","end":"20251231"},{"name":"屏東縣九如鄉中庄社區發展協會","code":"BF1600055","type":"BF","city":"10013","town":"10013080","addr":"屏東縣九如鄉玉泉村中庄街120號","lng":120.504906,"lat":22.725126,"abc":"C","service":"巷弄長照站","zones":["10013080"],"phone":"08-7394516","owner":"余明雲","start":"20190101","end":"20251231"},{"name":"屏東縣原住民部落文化藝術發展協會","code":"BF1600056","type":"BF","city":"10013","town":"10013260","addr":"屏東縣三地門鄉青山村民族巷46號","lng":120.639709,"lat":22.820286,"abc":"C","service":"巷弄長照站","zones":["10013260"],"phone":"0981-289779","owner":"王玉貞","start":"20190101","end":"20251231"},{"name":"屏東縣三地門鄉地磨兒全人關懷協會","code":"BF1600061","type":"BF","city":"10013","town":"10013260","addr":"屏東縣三地門鄉三地村中正路2段29巷7號","lng":120.651794,"lat":22.715193,"abc":"C","service":"巷弄長照站","zones":["10013260"],"phone":"08-7991684","owner":"陳明光","start":"20190101","end":"20251231"},{"name":"屏東縣內埔鄉隘寮社區發展協會","code":"BF1600062","type":"BF","city":"10013","town":"10013130","addr":"屏東縣內埔鄉隘寮村清涼路一段453號","lng":120.638191,"lat":22.704205,"abc":"C","service":"巷弄長照站","zones":["10013130"],"phone":"0983-757387","owner":"潘玉燕","start":"20190101","end":"20251231"},{"name":"屏東縣內埔鄉黎明社區發展協會","code":"BF1600063","type":"BF","city":"10013","town":"10013130","addr":"屏東縣內埔鄉黎明村黎東路353號","lng":120.602516,"lat":22.68956,"abc":"C","service":"巷弄長照站","zones":["10013130"],"phone":"0916-156392","owner":"楊秋華","start":"20190101","end":"20251231"},{"name":"屏東縣屏東平原鄉土文化協會","code":"BF1600065","type":"BF","city":"10013","town":"10013130","addr":"屏東縣內埔鄉美和村學人路88號","lng":120.557976,"lat":22.59556,"abc":"C","service":"巷弄長照站","zones":["10013130"],"phone":"0922-490089","owner":"楊錦富","start":"20190101","end":"20251231"},{"name":"屏東縣車城鄉老人會","code":"BF1600066","type":"BF","city":"10013","town":"10013230","addr":"屏東縣車城鄉福興村中正路21-1號","lng":120.713257,"lat":22.072523,"abc":"C","service":"巷弄長照站","zones":["10013230"],"phone":"0988-452942","owner":"盧美琴","start":"20190101","end":"20251231"},{"name":"屏東縣車城鄉新街社區發展協會","code":"BF1600067","type":"BF","city":"10013","town":"10013230","addr":"屏東縣車城鄉保力村新街路106號","lng":120.712944,"lat":22.058683,"abc":"C","service":"巷弄長照站","zones":["10013230"],"phone":"0910-842149","owner":"張美惠","start":"20190101","end":"20251231"},{"name":"屏東縣車城鄉埔墘社區發展協會","code":"BF1600068","type":"BF","city":"10013","town":"10013230","addr":"屏東縣車城鄉埔墘村埔墘路25-3號","lng":120.712242,"lat":22.053377,"abc":"C","service":"巷弄長照站","zones":["10013230"],"phone":"0913-965278","owner":"張秋鵬","start":"20190101","end":"20251231"},{"name":"屏東縣佳冬鄉松竹梅協會","code":"BF1600069","type":"BF","city":"10013","town":"10013210","addr":"屏東縣佳冬鄉佳冬村啟南路57號","lng":120.552879,"lat":22.418001,"abc":"C","service":"巷弄長照站","zones":["10013210"],"phone":"0912-780714","owner":"張振興","start":"20190101","end":"20251231"},{"name":"屏東縣佳冬鄉玉光社區發展協會","code":"BF1600070","type":"BF","city":"10013","town":"10013210","addr":"屏東縣佳冬鄉玉光村中山路5之8號","lng":120.56324,"lat":22.426691,"abc":"C","service":"巷弄長照站","zones":["10013210"],"phone":"0912-188937","owner":"潘素梅","start":"20190101","end":"20251231"},{"name":"屏東縣枋寮鄉愛鄉協進會","code":"BF1600072","type":"BF","city":"10013","town":"10013160","addr":"屏東縣枋寮鄉天時村公正路26巷28號","lng":120.59848,"lat":22.391844,"abc":"C","service":"巷弄長照站","zones":["10013160"],"phone":"0937-386828","owner":"林秋龍","start":"20190101","end":"20251231"},{"name":"屏東縣枋寮鄉大庄社區發展協會","code":"BF1600073","type":"BF","city":"10013","town":"10013160","addr":"屏東縣枋寮鄉新開村德聖路47號","lng":120.554825,"lat":22.392916,"abc":"C","service":"巷弄長照站","zones":["10013160"],"phone":"0937-685921","owner":"盧萬成","start":"20190101","end":"20251231"},{"name":"屏東縣枋寮鄉人和社區發展協會","code":"BF1600074","type":"BF","city":"10013","town":"10013160","addr":"屏東縣枋寮鄉枋寮村中華路178巷18號","lng":120.598282,"lat":22.38496,"abc":"C","service":"巷弄長照站","zones":["10013160"],"phone":"0921-581717","owner":"陳玉鳳","start":"20190101","end":"20251231"},{"name":"屏東縣枋寮鄉太源社區發展協會","code":"BF1600076","type":"BF","city":"10013","town":"10013160","addr":"屏東縣枋寮鄉太源村太源路49-2號","lng":120.592041,"lat":22.405432,"abc":"C","service":"巷弄長照站","zones":["10013160"],"phone":"0927-958108","owner":"潘民謙","start":"20190101","end":"20251231"},{"name":"屏東縣仁和關懷協進會","code":"BF1600077","type":"BF","city":"10013","town":"10013190","addr":"屏東縣林邊鄉仁和村中山路183號","lng":120.516899,"lat":22.43294,"abc":"C","service":"巷弄長照站","zones":["10013190"],"phone":"08-8755419","owner":"戴進安","start":"20190101","end":"20251231"},{"name":"屏東縣長治鄉潭頭社區發展協會","code":"BF1600078","type":"BF","city":"10013","town":"10013060","addr":"屏東縣長治鄉香楊村潭頭路242號","lng":120.520195,"lat":22.670074,"abc":"C","service":"巷弄長照站","zones":["10013060"],"phone":"08-7215710","owner":"邱清春","start":"20190101","end":"20251231"},{"name":"屏東縣長治鄉復興社區發展協會","code":"BF1600079","type":"BF","city":"10013","town":"10013060","addr":"屏東縣長治鄉復興村復興路295巷15號","lng":120.542412,"lat":22.684862,"abc":"C","service":"巷弄長照站","zones":["10013060"],"phone":"0915-110113","owner":"張貴玉","start":"20190101","end":"20251231"},{"name":"屏東縣長治鄉德和社區發展協會","code":"BF1600080","type":"BF","city":"10013","town":"10013060","addr":"屏東縣長治鄉德和村德和路22號","lng":120.531151,"lat":22.717049,"abc":"C","service":"巷弄長照站","zones":["10013060"],"phone":"08-7624101","owner":"林來環","start":"20190101","end":"20251231"},{"name":"屏東縣長治鄉進興社區發展協會","code":"BF1600081","type":"BF","city":"10013","town":"10013060","addr":"屏東縣長治鄉進興村潭頭路37巷2號","lng":120.526001,"lat":22.675503,"abc":"C","service":"巷弄長照站","zones":["10013060"],"phone":"0980-802950","owner":"邱招景","start":"20190101","end":"20251231"},{"name":"屏東縣恆春鎮大光社區發展協會","code":"BF1600083","type":"BF","city":"10013","town":"10013040","addr":"屏東縣恆春鎮大光里大光路87號","lng":120.740265,"lat":21.949642,"abc":"C","service":"巷弄長照站","zones":["10013040"],"phone":"0920-146096","owner":"江清田","start":"20190101","end":"20241231"},{"name":"屏東縣崁頂鄉力社社區發展協會","code":"BF1600085","type":"BF","city":"10013","town":"10013180","addr":"屏東縣崁頂鄉力社村力社路36號","lng":120.509285,"lat":22.538506,"abc":"C","service":"巷弄長照站","zones":["10013180"],"phone":"0919-125390","owner":"邱基田","start":"20190101","end":"20241231"},{"name":"屏東縣泰武鄉萬安社區發展協會(萬安文健站)","code":"BF1600087","type":"BF","city":"10013","town":"10013290","addr":"屏東縣泰武鄉萬安村3號","lng":120.631859,"lat":22.591875,"abc":"C","service":"巷弄長照站","zones":["10013290"],"phone":"08-7836968","owner":"何梅君","start":"20190101","end":"20221231"},{"name":"屏東縣琉球鄉老人會","code":"BF1600089","type":"BF","city":"10013","town":"10013220","addr":"屏東縣琉球鄉本福村民族路18號","lng":120.380646,"lat":22.352797,"abc":"C","service":"巷弄長照站","zones":["10013220"],"phone":"0932-782299","owner":"洪高等","start":"20190101","end":"20241231"},{"name":"屏東縣高樹鄉舊庄社區發展協會","code":"BF1600091","type":"BF","city":"10013","town":"10013110","addr":"屏東縣高樹鄉泰山村光復路20號","lng":120.58783,"lat":22.797443,"abc":"C","service":"巷弄長照站","zones":["10013110"],"phone":"0910-877658","owner":"洪寶龍","start":"20190101","end":"20241231"},{"name":"屏東縣新園鄉共和社區發展協會","code":"BF1600092","type":"BF","city":"10013","town":"10013170","addr":"屏東縣新園鄉仙吉村義仁路5號","lng":120.437523,"lat":22.475605,"abc":"C","service":"巷弄長照站","zones":["10013170"],"phone":"0915-598369","owner":"蔡政男","start":"20190101","end":"20241231"},{"name":"屏東縣新園鄉五房社區發展協會","code":"BF1600093","type":"BF","city":"10013","town":"10013170","addr":"屏東縣新園鄉五房村福德路73號","lng":120.43634,"lat":22.504519,"abc":"C","service":"巷弄長照站","zones":["10013170"],"phone":"0932-790272","owner":"陳榮昌","start":"20190101","end":"20241231"},{"name":"屏東縣萬丹鄉水泉社區發展協會","code":"BF1600095","type":"BF","city":"10013","town":"10013050","addr":"屏東縣萬丹鄉水泉村泉利街95號","lng":120.486435,"lat":22.573301,"abc":"C","service":"巷弄長照站","zones":["10013050"],"phone":"08-7770246","owner":"李健新","start":"20190101","end":"20241231"},{"name":"屏東縣萬巒鄉萬巒社區發展協會","code":"BF1600097","type":"BF","city":"10013","town":"10013120","addr":"屏東縣萬巒鄉萬巒村中正路24號","lng":120.567398,"lat":22.572309,"abc":"C","service":"巷弄長照站","zones":["10013120"],"phone":"08-7810025","owner":"吳英芳","start":"20190101","end":"20241231"},{"name":"屏東縣滿州鄉永靖社區發展協會","code":"BF1600098","type":"BF","city":"10013","town":"10013240","addr":"屏東縣滿州鄉永靖村頂角路38號","lng":120.808105,"lat":22.007055,"abc":"C","service":"巷弄長照站","zones":["10013240"],"phone":"0936-889707","owner":"潘玉樹","start":"20190101","end":"20241231"},{"name":"屏東縣滿州鄉港口社區發展協會","code":"BF1600100","type":"BF","city":"10013","town":"10013240","addr":"屏東縣滿州鄉港口村港口路42號","lng":120.822784,"lat":21.991589,"abc":"C","service":"巷弄長照站","zones":["10013240"],"phone":"08-8801356","owner":"熊麗香","start":"20190101","end":"20241231"},{"name":"屏東縣潮州鎮新生社區發展協會","code":"BF1600104","type":"BF","city":"10013","town":"10013020","addr":"屏東縣潮州鎮新生里平安路60號","lng":120.536674,"lat":22.55237,"abc":"C","service":"巷弄長照站","zones":["10013020"],"phone":"08-7898375","owner":"陳延洲","start":"20190101","end":"20241231"},{"name":"屏東縣屏東市新生社區發展協會","code":"BF1600108","type":"BF","city":"10013","town":"10013010","addr":"屏東縣屏東市新生里文明復興南路1段108巷21弄2號","lng":120.485077,"lat":22.652916,"abc":"C","service":"巷弄長照站","zones":["10013010"],"phone":"0972-023315","owner":"林家驊","start":"20190101","end":"20251231"},{"name":"屏東縣里港鄉社會關懷協會","code":"BF1600110","type":"BF","city":"10013","town":"10013090","addr":"屏東縣里港鄉大平村南進路25號","lng":120.490829,"lat":22.807728,"abc":"C","service":"巷弄長照站","zones":["10013090"],"phone":"0903-622985","owner":"蔡國龍","start":"20190101","end":"20251231"},{"name":"屏東縣枋山鄉楓港社區發展協會","code":"BF1600111","type":"BF","city":"10013","town":"10013250","addr":"屏東縣枋山鄉楓港村舊庄1-2號","lng":120.689735,"lat":22.192549,"abc":"C","service":"巷弄長照站","zones":["10013250"],"phone":"0933-285113","owner":"張月桃","start":"20190101","end":"20251231"},{"name":"屏東縣南州鄉米崙社區發展協會","code":"BF1600112","type":"BF","city":"10013","town":"10013200","addr":"屏東縣南州鄉米崙村中興路86號","lng":120.51844,"lat":22.48415,"abc":"C","service":"巷弄長照站","zones":["10013200"],"phone":"0936-373262","owner":"林聰明","start":"20190101","end":"20251231"},{"name":"屏東縣崁頂鄉向日葵新知協會","code":"BF1600114","type":"BF","city":"10013","town":"10013180","addr":"屏東縣崁頂鄉圍內村竹圍路16-2號","lng":120.507469,"lat":22.537693,"abc":"C","service":"巷弄長照站","zones":["10013180"],"phone":"0936-417078","owner":"鄧美華","start":"20190101","end":"20241231"},{"name":"屏東縣屏東市前進社區發展協會","code":"BF1600116","type":"BF","city":"10013","town":"10013010","addr":"屏東縣屏東市前進里前進前進143號","lng":120.463936,"lat":22.650887,"abc":"C","service":"巷弄長照站","zones":["10013010"],"phone":"08-7538657","owner":"陳侯佳宜","start":"20190101","end":"20251231"},{"name":"屏東縣屏東市中正社區發展協會","code":"BF1600117","type":"BF","city":"10013","town":"10013010","addr":"屏東縣屏東市中正里敬街二段20號3樓之1","lng":120.503349,"lat":22.687695,"abc":"C","service":"巷弄長照站","zones":["10013010"],"phone":"0935-229895","owner":"林毓毅","start":"20190101","end":"20251231"},{"name":"屏東縣里港鄉潮厝社區發展協會","code":"BF1600119","type":"BF","city":"10013","town":"10013090","addr":"屏東縣里港鄉潮厝村潮厝路115-10號","lng":120.480873,"lat":22.77496,"abc":"C","service":"巷弄長照站","zones":["10013090"],"phone":"0937-686983","owner":"李志嘉","start":"20190101","end":"20251231"},{"name":"屏東縣長治鄉繁昌社區發展協會","code":"BF1600120","type":"BF","city":"10013","town":"10013060","addr":"屏東縣長治鄉繁昌村昌隆一街30號","lng":120.57692,"lat":22.704998,"abc":"C","service":"巷弄長照站","zones":["10013060"],"phone":"0925-855916","owner":"陳貴松","start":"20190101","end":"20251231"},{"name":"屏東縣九如鄉新庄社區發展協會","code":"BF1600122","type":"BF","city":"10013","town":"10013080","addr":"屏東縣九如鄉後庄村新庄路16號","lng":120.497559,"lat":22.723993,"abc":"C","service":"巷弄長照站","zones":["10013080"],"phone":"08-7396958","owner":"許美鳳","start":"20190101","end":"20251231"},{"name":"屏東縣九如鄉九明社區發展協會","code":"BF1600123","type":"BF","city":"10013","town":"10013080","addr":"屏東縣九如鄉九明村光復街66號","lng":120.484459,"lat":22.732157,"abc":"C","service":"巷弄長照站","zones":["10013080"],"phone":"08-7390928","owner":"陳復","start":"20190101","end":"20251231"},{"name":"屏東縣九如鄉大坵社區發展協會","code":"BF1600124","type":"BF","city":"10013","town":"10013080","addr":"屏東縣九如鄉九清村大仁街70號","lng":120.477142,"lat":22.743376,"abc":"C","service":"巷弄長照站","zones":["10013080"],"phone":"0935-487702","owner":"陳火盛","start":"20190101","end":"20251231"},{"name":"屏東縣九如鄉東寧社區發展協會","code":"BF1600125","type":"BF","city":"10013","town":"10013080","addr":"屏東縣九如鄉後庄村東寧路64-3號","lng":120.496841,"lat":22.735146,"abc":"C","service":"巷弄長照站","zones":["10013080"],"phone":"0933-379978","owner":"黃文俊","start":"20190101","end":"20251231"},{"name":"屏東縣潮州鎮新榮社區發展協會","code":"BF1600129","type":"BF","city":"10013","town":"10013020","addr":"屏東縣潮州鎮新榮里中山路147號","lng":120.540138,"lat":22.547951,"abc":"C","service":"巷弄長照站","zones":["10013020"],"phone":"0953-621771","owner":"蔡慶文","start":"20190101","end":"20241231"},{"name":"屏東縣萬巒鄉鹿寮社區發展協會","code":"BF1600130","type":"BF","city":"10013","town":"10013120","addr":"屏東縣萬巒鄉鹿寮村永康路43-6號","lng":120.559059,"lat":22.561552,"abc":"C","service":"巷弄長照站","zones":["10013120"],"phone":"0929-022196","owner":"鍾慶禎","start":"20190101","end":"20241231"},{"name":"屏東縣新園鄉瓦磘社區發展協會","code":"BF1600131","type":"BF","city":"10013","town":"10013170","addr":"屏東縣新園鄉瓦磘村後厝路16號之13","lng":120.473808,"lat":22.550755,"abc":"C","service":"巷弄長照站","zones":["10013170"],"phone":"0922-976297","owner":"李銘杰","start":"20190101","end":"20241231"},{"name":"屏東縣車城鄉保力社區發展協會","code":"BF1600135","type":"BF","city":"10013","town":"10013230","addr":"屏東縣車城鄉保力村龍井路1-32號","lng":120.727074,"lat":22.057013,"abc":"C","service":"巷弄長照站","zones":["10013230"],"phone":"0933-586930","owner":"曾德生","start":"20190101","end":"20251231"},{"name":"屏基醫療財團法人屏東基督教醫院-屏東市A","code":"B21600008","type":"B2","city":"10013","town":"10013010","addr":"屏東縣屏東市華山里莊敬街1段99號","lng":120.502457,"lat":22.684355,"abc":"A","service":"個案管理服務","zones":["10013010","10013020","10013050","10013060","10013070","10013080","10013090","10013100","10013110","10013120","10013130","10013140"],"phone":"08-7368686轉5003","owner":"吳榮州","start":"20190101","end":"20231231"},{"name":"屏基醫療財團法人屏東基督教醫院-三地門A","code":"B21600010","type":"B2","city":"10013","town":"10013260","addr":"屏東縣三地門鄉三地村行政街10號","lng":120.653351,"lat":22.713999,"abc":"A","service":"個案管理服務","zones":["10013260","10013280","10013290","10013300"],"phone":"08-7995139","owner":"吳榮州","start":"20190101","end":"20231231"},{"name":"衛生福利部恆春旅遊醫院-牡丹A","code":"B21600015","type":"B2","city":"10013","town":"10013330","addr":"屏東縣牡丹鄉石門村石門路31-6號","lng":120.773285,"lat":22.125496,"abc":"A","service":"個案管理服務","zones":["10013330"],"phone":"08-8831320","owner":"蔡昌宏","start":"20170701","end":"20231231"},{"name":"屏東縣泰武鄉武潭社區發展協會(武潭文健站)","code":"BF1600145","type":"BF","city":"10013","town":"10013290","addr":"屏東縣泰武鄉武潭村潭中巷83號","lng":120.635338,"lat":22.578218,"abc":"A","service":"個案管理服務","zones":["10013290"],"phone":"08-7836615","owner":"洪義鴻","start":"20170701","end":"20231231"},{"name":"財團法人蘇天生文教基金會","code":"BD1600007","type":"BD","city":"10013","town":"10013030","addr":"屏東縣東港鎮東隆里東隆街6-2號","lng":120.447433,"lat":22.462765,"abc":"A","service":"個案管理服務","zones":["10013030","10013150","10013160","10013170","10013180","10013190","10013200","10013210","10013220"],"phone":"08-8331727","owner":"蘇威菘","start":"20190101","end":"20231231"},{"name":"有限責任屏東縣第一照顧服務勞動合作社","code":"BF1600140","type":"BF","city":"10013","town":"10013050","addr":"屏東縣萬丹鄉萬全村萬榮街90號","lng":120.491219,"lat":22.592052,"abc":"A","service":"個案管理服務","zones":["10013010","10013020","10013030","10013050","10013130","10013140","10013170","10013180"],"phone":"08-7764516","owner":"洪嘉勵","start":"20180601","end":"20231231"},{"name":"財團法人弘道老人福利基金會(屏東縣)","code":"BD1600008","type":"BD","city":"10013","town":"10013020","addr":"屏東縣潮州鎮永春里興隆路118號","lng":120.540443,"lat":22.542818,"abc":"A","service":"個案管理服務","zones":["10013020","10013120","10013130","10013140"],"phone":"08-7892331","owner":"王乃弘","start":"20180601","end":"20231231"},{"name":"向日葵護理之家","code":"A31600021","type":"A3","city":"10013","town":"10013010","addr":"屏東縣屏東市信和里忠孝路476號","lng":120.500793,"lat":22.702206,"abc":"A","service":"個案管理服務","zones":["10013010","10013080","10013090","10013110"],"phone":"08-7336161","owner":"姚雅方","start":"20180601","end":"20231231","beds":80,"residents":73},{"name":"森陽物理治療所","code":"B41600001","type":"B4","city":"10013","town":"10013320","addr":"屏東縣獅子鄉楓林村楓林一巷4-1號1樓","lng":120.707489,"lat":22.197327,"abc":"A","service":"個案管理服務","zones":["10013320"],"phone":"08-0987488599","owner":"劉仁溥","start":"20180601","end":"20231231"},{"name":"社團法人中華家庭暨社區展望協會","code":"BF1600001","type":"BF","city":"10013","town":"10013010","addr":"屏東縣屏東市中正里莊敬街二段33號","lng":120.503067,"lat":22.687906,"abc":"A","service":"個案管理服務","zones":["10013300"],"phone":"08-7321822","owner":"成亮","start":"20180601","end":"20231231"},{"name":"屏東縣瑪家鄉衛生所","code":"B21600016","type":"B2","city":"10013","town":"10013280","addr":"屏東縣瑪家鄉北葉村風景巷86號","lng":120.650055,"lat":22.708092,"abc":"A","service":"個案管理服務","zones":["10013280"],"phone":"08-7991164","owner":"江麗香","start":"20180701","end":"20231231"},{"name":"屏東縣霧臺鄉衛生所","code":"B21600017","type":"B2","city":"10013","town":"10013270","addr":"屏東縣霧臺鄉霧台村神山巷68號","lng":120.726128,"lat":22.749889,"abc":"A","service":"個案管理服務","zones":["10013270"],"phone":"08-7902232","owner":"馮怡鈴","start":"20180701","end":"20231231"},{"name":"屏東榮民總醫院龍泉分院","code":"B21600018","type":"B2","city":"10013","town":"10013130","addr":"屏東縣內埔鄉龍潭村昭勝路安平1巷1號","lng":120.600609,"lat":22.675104,"abc":"A","service":"個案管理服務","zones":["10013130"],"phone":"08-7704115","owner":"汪弘道","start":"20180701","end":"20231231"},{"name":"屏東縣九如鄉耆老老人會","code":"BF1600147","type":"BF","city":"10013","town":"10013080","addr":"屏東縣九如鄉耆老村耆老路117-1號","lng":120.495064,"lat":22.758682,"abc":"C","service":"巷弄長照站","zones":["10013080"],"phone":"0912-746581","owner":"陳啓募","start":"20190501","end":"20251231"},{"name":"屏東縣九如鄉昌榮社區發展協會","code":"BF1600148","type":"BF","city":"10013","town":"10013080","addr":"屏東縣九如鄉洽興村平和路136巷22-1號","lng":120.499603,"lat":22.762854,"abc":"C","service":"巷弄長照站","zones":["10013080"],"phone":"08-7755412","owner":"周靖程","start":"20190501","end":"20231231"},{"name":"屏東縣內埔鄉正心民俗協進會","code":"BF1600149","type":"BF","city":"10013","town":"10013130","addr":"屏東縣內埔鄉義亭村平南路95號","lng":120.584419,"lat":22.618765,"abc":"C","service":"巷弄長照站","zones":["10013130"],"phone":"08-7780085","owner":"鍾五全","start":"20190501","end":"20251231"},{"name":"屏東縣內埔鄉燈籠花社區營造協會","code":"BF1600150","type":"BF","city":"10013","town":"10013130","addr":"屏東縣內埔鄉和興村和仁路32號","lng":120.568398,"lat":22.601976,"abc":"C","service":"巷弄長照站","zones":["10013130"],"phone":"0910-862768","owner":"張停興","start":"20190501","end":"20251231"},{"name":"屏東縣竹田鄉二崙社區發展協會","code":"BF1600151","type":"BF","city":"10013","town":"10013140","addr":"屏東縣竹田鄉二崙村信實路26號","lng":120.551331,"lat":22.596308,"abc":"C","service":"巷弄長照站","zones":["10013140"],"phone":"0925-566165","owner":"賴李順","start":"20190501","end":"20251231"},{"name":"屏東縣竹田鄉頭崙社區發展協會","code":"BF1600152","type":"BF","city":"10013","town":"10013140","addr":"屏東縣竹田鄉頭崙村三山路63-5號","lng":120.532455,"lat":22.59367,"abc":"C","service":"巷弄長照站","zones":["10013140"],"phone":"08-7710526","owner":"利國新","start":"20190501","end":"20251231"},{"name":"屏東縣竹田鄉糶糴社區發展協會","code":"BF1600153","type":"BF","city":"10013","town":"10013140","addr":"屏東縣竹田鄉糶糴村振福路37-4號","lng":120.534966,"lat":22.579584,"abc":"C","service":"巷弄長照站","zones":["10013140"],"phone":"0981-583392","owner":"李豐桂","start":"20190501","end":"20251231"},{"name":"屏東縣竹田鄉老人關懷協會","code":"BF1600154","type":"BF","city":"10013","town":"10013140","addr":"屏東縣竹田鄉履豐村豐興路17號","lng":120.537498,"lat":22.58667,"abc":"C","service":"巷弄長照站","zones":["10013140"],"phone":"0953-118657","owner":"張兆貞","start":"20190501","end":"20251231"},{"name":"屏東縣竹田鄉福田社區發展協會","code":"BF1600155","type":"BF","city":"10013","town":"10013140","addr":"屏東縣竹田鄉福田村瑞竹路1-5號 ","lng":120.536072,"lat":22.614506,"abc":"C","service":"巷弄長照站","zones":["10013140"],"phone":"0933-377931","owner":"鄒懋明","start":"20190501","end":"20251231"},{"name":"屏東縣里港鄉過江社區發展協會","code":"BF1600156","type":"BF","city":"10013","town":"10013090","addr":"屏東縣里港鄉過江村中山路79-3號","lng":120.494461,"lat":22.782887,"abc":"C","service":"巷弄長照站","zones":["10013090"],"phone":"0953-771190","owner":"許麗雲","start":"20190501","end":"20251231"},{"name":"屏東縣里港鄉三廍社區發展協會","code":"BF1600157","type":"BF","city":"10013","town":"10013090","addr":"屏東縣里港鄉三廍村三和路51-5號","lng":120.506332,"lat":22.812452,"abc":"C","service":"巷弄長照站","zones":["10013090"],"phone":"0921-582389","owner":"張純嘉","start":"20190501","end":"20251231"},{"name":"屏東縣東港鎮東和社區環保健康與休閒協會","code":"BF1600158","type":"BF","city":"10013","town":"10013030","addr":"屏東縣東港鎮東和里博愛街205號","lng":120.448868,"lat":22.469316,"abc":"C","service":"巷弄長照站","zones":["10013030"],"phone":"0910-788725","owner":"蔡德山","start":"20190501","end":"20251231"},{"name":"屏東縣長治鄉德協社區發展協會","code":"BF1600161","type":"BF","city":"10013","town":"10013060","addr":"屏東縣長治鄉德協村中興路629號","lng":120.548485,"lat":22.695019,"abc":"C","service":"巷弄長照站","zones":["10013060"],"phone":"0933-378101","owner":"簡碧","start":"20190501","end":"20251231"},{"name":"財團法人臺灣省屏東縣長治鄉福崙宮","code":"BD1600010","type":"BD","city":"10013","town":"10013060","addr":"屏東縣長治鄉崙上村崑崙路179-2號","lng":120.532204,"lat":22.688669,"abc":"C","service":"巷弄長照站","zones":["10013060"],"phone":"0975-381075","owner":"邱潤生","start":"20190501","end":"20251231"},{"name":"屏東縣屏東市新興社區發展協會","code":"BF1600162","type":"BF","city":"10013","town":"10013010","addr":"屏東縣屏東市新興里新興街151巷1號","lng":120.482651,"lat":22.643309,"abc":"C","service":"巷弄長照站","zones":["10013010"],"phone":"08-7524481","owner":"薛世戀","start":"20190501","end":"20251231"},{"name":"屏東縣屏東市歸來社區發展協會","code":"BF1600163","type":"BF","city":"10013","town":"10013010","addr":"屏東縣屏東市湖西里歸仁路63巷70號","lng":120.501045,"lat":22.655716,"abc":"C","service":"巷弄長照站","zones":["10013010"],"phone":"08-7220971","owner":"吳漢霖","start":"20190501","end":"20251231"},{"name":"財團法人台灣基督長老教會屏東中會彌迦教會","code":"BD1600011","type":"BD","city":"10013","town":"10013010","addr":"屏東縣屏東市溝美里公勤街111號","lng":120.496246,"lat":22.683029,"abc":"C","service":"巷弄長照站","zones":["10013010"],"phone":"(08)737-1500","owner":"蔣龍煌","start":"20190501","end":"20251231"},{"name":"屏東縣屏東市大連社區發展協會","code":"BF1600164","type":"BF","city":"10013","town":"10013010","addr":"屏東縣屏東市大連里建豐路180巷35號","lng":120.505333,"lat":22.677525,"abc":"C","service":"巷弄長照站","zones":["10013010"],"phone":"0929-520606","owner":"吳杉發","start":"20190501","end":"20221231"},{"name":"屏東縣屏東市頂柳社區發展協會","code":"BF1600165","type":"BF","city":"10013","town":"10013010","addr":"屏東縣屏東市頂柳里頂柳路519號","lng":120.498764,"lat":22.644438,"abc":"C","service":"巷弄長照站","zones":["10013010"],"phone":"0937-046310","owner":"蔡文良","start":"20190501","end":"20251231"},{"name":"屏東縣屏東市龍華社區發展協會","code":"BF1600166","type":"BF","city":"10013","town":"10013010","addr":"屏東縣屏東市龍華里公華街150巷8號","lng":120.481644,"lat":22.636635,"abc":"C","service":"巷弄長照站","zones":["10013010"],"phone":"0963-029579","owner":"黃珠麗","start":"20190501","end":"20251231"},{"name":"屏東縣崁頂鄉南望安社區發展協會","code":"BF1600167","type":"BF","city":"10013","town":"10013180","addr":"屏東縣崁頂鄉園寮村南州路85號","lng":120.509315,"lat":22.495329,"abc":"C","service":"巷弄長照站","zones":["10013180"],"phone":"08-8644682","owner":"蘇美珍","start":"20190501","end":"20241231"},{"name":"屏東縣崁頂鄉洲子社區發展協會","code":"BF1600168","type":"BF","city":"10013","town":"10013180","addr":"屏東縣崁頂鄉洲子村廟前路7號","lng":120.49485,"lat":22.531195,"abc":"C","service":"巷弄長照站","zones":["10013180"],"phone":"08-8631527","owner":"陳寶玉","start":"20190501","end":"20241231"},{"name":"屏東縣高樹鄉婦女健康協會","code":"BF1600169","type":"BF","city":"10013","town":"10013110","addr":"屏東縣高樹鄉舊寮村長美路172號","lng":120.61515,"lat":22.852482,"abc":"C","service":"巷弄長照站","zones":["10013110"],"phone":"0952-533783","owner":"楊淑觀","start":"20190501","end":"20241231"},{"name":"屏東縣高樹鄉新南社區發展協會","code":"BF1600170","type":"BF","city":"10013","town":"10013110","addr":"屏東縣高樹鄉新南村社北路12-1號","lng":120.561485,"lat":22.787655,"abc":"C","service":"巷弄長照站","zones":["10013110"],"phone":"0938-272738","owner":"陳信福","start":"20190501","end":"20241231"},{"name":"屏東縣新埤鄉餉潭社區發展協會","code":"BF1600171","type":"BF","city":"10013","town":"10013150","addr":"屏東縣新埤鄉餉潭村龍潭路137-1號","lng":120.61113,"lat":22.47613,"abc":"C","service":"巷弄長照站","zones":["10013150"],"phone":"0977-140999","owner":"潘政地","start":"20190501","end":"20241231"},{"name":"屏東縣新園鄉園東關懷協會","code":"BF1600172","type":"BF","city":"10013","town":"10013170","addr":"屏東縣新園鄉新東村平和路166號","lng":120.45755,"lat":22.526241,"abc":"C","service":"巷弄長照站","zones":["10013170"],"phone":"0932-131266","owner":"周美杏","start":"20190501","end":"20241231"},{"name":"財團法人基督教中華循理會竹坑教會","code":"BD1600012","type":"BD","city":"10013","town":"10013320","addr":"屏東縣獅子鄉竹坑村竹坑巷13號","lng":120.700508,"lat":22.157679,"abc":"C","service":"巷弄長照站","zones":["10013320"],"phone":"0987-091525","owner":"李慧敏","start":"20190501","end":"20231231"},{"name":"屏東縣萬巒鄉五溝社區發展協會","code":"BF1600175","type":"BF","city":"10013","town":"10013120","addr":"屏東縣萬巒鄉五溝村西盛路62號","lng":120.596123,"lat":22.591372,"abc":"C","service":"巷弄長照站","zones":["10013120"],"phone":"0935-264330","owner":"劉正雄","start":"20190501","end":"20241231"},{"name":"屏東縣滿州鄉響林社區發展協會","code":"BF1600176","type":"BF","city":"10013","town":"10013240","addr":"屏東縣滿州鄉响林村福德路64巷3號","lng":120.833527,"lat":22.037655,"abc":"C","service":"巷弄長照站","zones":["10013240"],"phone":"0985-820346","owner":"邱琦峰","start":"20190501","end":"20241231"},{"name":"屏東縣潮州鎮彭城社區發展協會","code":"BF1600177","type":"BF","city":"10013","town":"10013020","addr":"屏東縣潮州鎮彭城里彭城路205號","lng":120.550835,"lat":22.536999,"abc":"C","service":"巷弄長照站","zones":["10013020"],"phone":"0919-607693","owner":"馬添進","start":"20190501","end":"20241231"},{"name":"屏東縣潮州鎮三星社區發展協會","code":"BF1600180","type":"BF","city":"10013","town":"10013020","addr":"屏東縣潮州鎮三星里三林路109號","lng":120.551315,"lat":22.553019,"abc":"C","service":"巷弄長照站","zones":["10013020"],"phone":"0987-116097","owner":"劉娜娜","start":"20190501","end":"20241231"},{"name":"屏東縣林邊鄉鎮安社區發展協會","code":"BF1600181","type":"BF","city":"10013","town":"10013190","addr":"屏東縣林邊鄉鎮安村中正路6號","lng":120.503944,"lat":22.456278,"abc":"C","service":"巷弄長照站","zones":["10013190"],"phone":"0922-338117","owner":"謝永倫","start":"20190501","end":"20251231"},{"name":"屏東縣高樹鄉快樂媽媽婦女協會","code":"BF1600182","type":"BF","city":"10013","town":"10013110","addr":"屏東縣高樹鄉菜寮村大平路19號","lng":120.605247,"lat":22.850056,"abc":"C","service":"巷弄長照站","zones":["10013110"],"phone":"0953-453226","owner":"黃明菊","start":"20190501","end":"20241231"},{"name":"屏東縣新園鄉港墘社區發展協會","code":"BF1600183","type":"BF","city":"10013","town":"10013170","addr":"屏東縣新園鄉港墘村港墘路160-20號","lng":120.463379,"lat":22.537535,"abc":"C","service":"巷弄長照站","zones":["10013170"],"phone":"0916-114666","owner":"李燈標","start":"20190501","end":"20241231"},{"name":"屏東縣滿州鄉港仔社區發展協會","code":"BF1600184","type":"BF","city":"10013","town":"10013240","addr":"屏東縣滿州鄉港仔村港仔路65號","lng":120.881912,"lat":22.133287,"abc":"C","service":"巷弄長照站","zones":["10013240"],"phone":"0937-329226","owner":"潘新金","start":"20190501","end":"20241231"},{"name":"屏東縣潮州鎮檨子社區發展協會","code":"BF1600185","type":"BF","city":"10013","town":"10013020","addr":"屏東縣潮州鎮檨子里光復路一段40巷37號","lng":120.533691,"lat":22.509951,"abc":"C","service":"巷弄長照站","zones":["10013020"],"phone":"08-7896903","owner":"賴潘夜合","start":"20190501","end":"20241231"},{"name":"財團法人中華民國佛教慈濟慈善事業基金會(屏東縣)","code":"BD1600013","type":"BD","city":"10013","town":"10013210","addr":"屏東縣佳冬鄉石光村東角路30之1號","lng":120.563019,"lat":22.431931,"abc":"A","service":"個案管理服務","zones":["10013160","10013190","10013210"],"phone":"08-8668383","owner":"釋證嚴","start":"20190701","end":"20231231"},{"name":"屏東縣春日鄉衛生所","code":"B21600019","type":"B2","city":"10013","town":"10013310","addr":"屏東縣春日鄉春日村春日路176號","lng":120.625504,"lat":22.370291,"abc":"A","service":"個案管理服務","zones":["10013310"],"phone":"08-8780358","owner":"勞比．馬里戈利格","start":"20190701","end":"20231231"},{"name":"屏東縣三地門鄉達瓦達旺部落人文關懷協會(達瓦旺文健站)","code":"BF1600188","type":"BF","city":"10013","town":"10013260","addr":"屏東縣三地門鄉達來村達發達旺巷29-2號","lng":120.666809,"lat":22.724794,"abc":"C","service":"巷弄長照站","zones":["10013260"],"phone":"08-7993507#21","owner":"柯美玲","start":"20190101","end":"20221231"},{"name":"屏東縣三地門鄉三地社區發展協會(三地文健站)","code":"BF1600189","type":"BF","city":"10013","town":"10013260","addr":"屏東縣三地門鄉三地村8鄰中正路二段55巷23號","lng":120.65152,"lat":22.71707,"abc":"C","service":"巷弄長照站","zones":["10013260"],"phone":"08-7993563","owner":"馮明貴","start":"20190101","end":"20221231"},{"name":"屏東縣泰武鄉泰武社區發展協會(吾拉魯滋部落文健站)","code":"BD1600014","type":"BD","city":"10013","town":"10013290","addr":"屏東縣泰武鄉泰武村大武山一街38號","lng":120.61087,"lat":22.604679,"abc":"C","service":"巷弄長照站","zones":["10013290"],"phone":"08-7830978","owner":"卡拉依樣．郎阿錄","start":"20190101","end":"20221231"},{"name":"屏東縣泰武鄉佳興社區發展協會(佳興文健站)","code":"BF1600191","type":"BF","city":"10013","town":"10013290","addr":"屏東縣泰武鄉佳興村2鄰28號","lng":120.661743,"lat":22.56966,"abc":"C","service":"巷弄長照站","zones":["10013290"],"phone":"08-7920003","owner":"沈安日","start":"20190101","end":"20221231"},{"name":"屏東縣瑪家鄉瑪家社區發展協會(瑪家文化健康站)","code":"BF1600192","type":"BF","city":"10013","town":"10013280","addr":"屏東縣瑪家鄉瑪家村瑪卡札亞街12-1號","lng":120.646347,"lat":22.702433,"abc":"C","service":"巷弄長照站","zones":["10013280"],"phone":"0932-768091","owner":"董文明","start":"20190101","end":"20221231"},{"name":"屏東縣瑪家鄉北葉社區發展協會(北葉文健站)","code":"BF1600193","type":"BF","city":"10013","town":"10013280","addr":"屏東縣瑪家鄉北葉村風景1-16號","lng":120.647774,"lat":22.709229,"abc":"C","service":"巷弄長照站","zones":["10013280"],"phone":"0915-689685","owner":"李中興","start":"20190101","end":"20221231"},{"name":"屏東縣瑪家鄉佳義社區發展協會(佳義文健站)","code":"BF1600194","type":"BF","city":"10013","town":"10013280","addr":"屏東縣瑪家鄉佳義村11號","lng":120.630959,"lat":22.653393,"abc":"C","service":"巷弄長照站","zones":["10013280"],"phone":"0925-835603","owner":"高勝輝","start":"20190101","end":"20221231"},{"name":"財團法人基督教中華循理會大武教會(大武文健站)","code":"BD1600015","type":"BD","city":"10013","town":"10013010","addr":"屏東縣屏東市溝美里20鄰自由路365巷32號","lng":120.754417,"lat":22.758259,"abc":"C","service":"巷弄長照站","zones":["10013270"],"phone":"08-73273250","owner":"柯金燕","start":"20190101","end":"20211231"},{"name":"屏東縣霧台鄉谷川社區發展協會(谷川文健站)","code":"BF1600195","type":"BF","city":"10013","town":"10013270","addr":"屏東縣霧臺鄉霧台村谷村巷18之1號","lng":120.705826,"lat":22.746035,"abc":"C","service":"巷弄長照站","zones":["10013270"],"phone":"0972-252703","owner":"陳秀珍","start":"20190101","end":"20221231"},{"name":"屏東縣霧台鄉阿禮社區發展協會(阿禮文健站)","code":"BF1600196","type":"BF","city":"10013","town":"10013270","addr":"屏東縣霧臺鄉阿禮村百合路236號","lng":120.578979,"lat":22.691137,"abc":"C","service":"巷弄長照站","zones":["10013270"],"phone":" 0933-621022","owner":"巴文雄","start":"20190101","end":"20221231"},{"name":"屏東縣霧台鄉佳暮社區發展協會(佳暮文健站)","code":"BF1600197","type":"BF","city":"10013","town":"10013270","addr":"屏東縣霧臺鄉佳暮村百合路277號","lng":120.585503,"lat":22.695969,"abc":"C","service":"巷弄長照站","zones":["10013270"],"phone":"08-7610334","owner":"道卡杜班德勒","start":"20190101","end":"20221231"},{"name":"屏東縣來義鄉丹林社區發展協會(丹林文健站)","code":"BF1600200","type":"BF","city":"10013","town":"10013300","addr":"屏東縣來義鄉丹林村25之1號","lng":120.632881,"lat":22.517431,"abc":"C","service":"巷弄長照站","zones":["10013300"],"phone":"08-7850255","owner":"潘正義","start":"20190101","end":"20221231"},{"name":"屏東縣來義鄉文樂社區發展協會(文樂文健站)","code":"BF1600201","type":"BF","city":"10013","town":"10013300","addr":"屏東縣來義鄉文樂村2鄰14號","lng":120.624939,"lat":22.493162,"abc":"C","service":"巷弄長照站","zones":["10013300"],"phone":"0980-419183","owner":"廖志強","start":"20190101","end":"20221231"},{"name":"屏東縣滿州鄉里德社區發展協會(里德文健站)","code":"BF1600202","type":"BF","city":"10013","town":"10013240","addr":"屏東縣滿州鄉里德村山頂路4鄰57號","lng":120.851601,"lat":22.020891,"abc":"C","service":"巷弄長照站","zones":["10013240"],"phone":"08-8802800","owner":"潘玉如","start":"20190101","end":"20221231"},{"name":"屏東縣里茁客都市原住民族關懷協會(屏東文健站)","code":"BD1600016","type":"BD","city":"10013","town":"10013010","addr":"屏東縣屏東市大連里豐榮街50巷7號","lng":120.502502,"lat":22.678034,"abc":"C","service":"巷弄長照站","zones":["10013010"],"phone":"08-7381479","owner":"林文雄","start":"20190101","end":"20221231"},{"name":"台灣基督長老教會安坡教會(安坡文健站)","code":"BF1600204","type":"BF","city":"10013","town":"10013260","addr":"屏東縣三地門鄉安坡村2號","lng":120.637794,"lat":22.797743,"abc":"C","service":"巷弄長照站","zones":["10013260"],"phone":"08-7958665","owner":"旮日阿咿嵐·拉勒俄郎","start":"20190101","end":"20221231"},{"name":"屏東縣獅子鄉好鄰人全人關懷協會(新路文健站)","code":"BF1600205","type":"BF","city":"10013","town":"10013320","addr":"屏東縣獅子鄉丹路村丹路10鄰四巷19-5號","lng":120.750351,"lat":22.206158,"abc":"C","service":"巷弄長照站","zones":["10013320"],"phone":"08-8771851","owner":"黃麗英","start":"20190101","end":"20221231"},{"name":"屏東縣三地門鄉賽嘉社區發展協會(賽嘉文健站)","code":"BF1600208","type":"BF","city":"10013","town":"10013260","addr":"屏東縣三地門鄉賽嘉村1鄰賽嘉巷1號","lng":120.640297,"lat":22.743816,"abc":"C","service":"巷弄長照站","zones":["10013260"],"phone":"08-7991978","owner":"杜梅花","start":"20190101","end":"20221231"},{"name":"屏東縣屏東市公館社區發展協會","code":"BF1600209","type":"BF","city":"10013","town":"10013010","addr":"屏東縣屏東市公館里公華街241巷84號","lng":120.478584,"lat":22.638092,"abc":"C","service":"巷弄長照站","zones":["10013010"],"phone":"0981-165208","owner":"丁慶全","start":"20190101","end":"20251231"},{"name":"屏東縣長治鄉有愛文教促進會","code":"BF1600210","type":"BF","city":"10013","town":"10013060","addr":"屏東縣長治鄉繁隆村水源路9號","lng":120.575356,"lat":22.698257,"abc":"C","service":"巷弄長照站","zones":["10013060"],"phone":"0926-716256","owner":"李開榮","start":"20190905","end":"20251231"},{"name":"屏東縣麟洛鄉麟蹄社區發展協會","code":"BF1600211","type":"BF","city":"10013","town":"10013070","addr":"屏東縣麟洛鄉麟蹄村成功路永興巷1之1號","lng":120.525185,"lat":22.656031,"abc":"C","service":"巷弄長照站","zones":["10013070"],"phone":"0921-598627","owner":"邱秀英","start":"20190801","end":"20241231"},{"name":"屏東縣麟洛鄉麟頂社區發展協會","code":"BF1600212","type":"BF","city":"10013","town":"10013070","addr":"屏東縣麟洛鄉麟頂村成功路170號","lng":120.526474,"lat":22.654659,"abc":"C","service":"巷弄長照站","zones":["10013070"],"phone":"0919-122961","owner":"徐金龍","start":"20191001","end":"20241231"},{"name":"屏東縣萬巒鄉萬金社區發展協會","code":"BF1600213","type":"BF","city":"10013","town":"10013120","addr":"屏東縣萬巒鄉萬金村萬興路65號","lng":120.610756,"lat":22.598043,"abc":"C","service":"巷弄長照站","zones":["10013120"],"phone":"08-7831103","owner":"潘慈然","start":"20190701","end":"20241231"},{"name":"屏東縣新園鄉健康營造協會","code":"BF1600214","type":"BF","city":"10013","town":"10013170","addr":"屏東縣新園鄉仙吉村仙吉路89之2號","lng":120.460915,"lat":22.5436,"abc":"C","service":"巷弄長照站","zones":["10013170"],"phone":"0920-177242","owner":"劉愛珠","start":"20190701","end":"20241231"},{"name":"屏東縣新園鄉鹽埔婦女健康協會","code":"BF1600215","type":"BF","city":"10013","town":"10013170","addr":"屏東縣新園鄉鹽埔村鹽龍路190之8號","lng":120.443169,"lat":22.481552,"abc":"C","service":"巷弄長照站","zones":["10013170"],"phone":"0919-165839","owner":"鄭美玉","start":"20190901","end":"20241231"},{"name":"社團法人台灣宥青愛心關懷協會","code":"BE1600013","type":"BE","city":"10013","town":"10013170","addr":"屏東縣新園鄉田洋村田南路118之5號","lng":120.453636,"lat":22.543625,"abc":"C","service":"巷弄長照站","zones":["10013170"],"phone":" 08-8683129","owner":"許文峯","start":"20191001","end":"20241231"},{"name":"屏東縣東港鎮大鵬灣觀光發展社區聯合協會","code":"BF1600216","type":"BF","city":"10013","town":"10013030","addr":"屏東縣東港鎮東隆里共和街1號","lng":120.450661,"lat":22.462275,"abc":"C","service":"巷弄長照站","zones":["10013030"],"phone":"0928-378049","owner":"林芬香","start":"20190701","end":"20251231"},{"name":"屏東縣佳冬鄉萬建社區發展協會","code":"BF1600217","type":"BF","city":"10013","town":"10013210","addr":"屏東縣佳冬鄉萬建村忠義街207號","lng":120.563141,"lat":22.423489,"abc":"C","service":"巷弄長照站","zones":["10013210"],"phone":"0937-683942","owner":"黃鳳凰","start":"20190701","end":"20251231"},{"name":"屏東縣枋山鄉成功社區發展協會","code":"BF1600218","type":"BF","city":"10013","town":"10013250","addr":"屏東縣枋山鄉枋山村荊桐路60號","lng":120.652077,"lat":22.263252,"abc":"C","service":"巷弄長照站","zones":["10013250"],"phone":"0953-360789","owner":"黃秀娟","start":"20190701","end":"20251231"},{"name":"屏東縣泰武鄉武潭社區發展協會(武潭文健站)","code":"BF1600145","type":"BF","city":"10013","town":"10013290","addr":"屏東縣泰武鄉武潭村潭中巷83號","lng":120.635338,"lat":22.578218,"abc":"C","service":"巷弄長照站","zones":["10013290"],"phone":"08-7836615","owner":"洪義鴻","start":"20200101","end":"20221231"},{"name":"屏東縣滿州鄉長樂社區發展協會(長樂文健站)","code":"BF1600221","type":"BF","city":"10013","town":"10013240","addr":"屏東縣滿州鄉長樂村和平路21號","lng":120.825783,"lat":22.074196,"abc":"C","service":"巷弄長照站","zones":["10013240"],"phone":"08-7851664","owner":"潘黃盛賢","start":"20190101","end":"20221231"},{"name":"屏東縣三地門鄉莎卡蘭部落人文關懷協會(口社文健站)","code":"BF1600206","type":"BF","city":"10013","town":"10013260","addr":"屏東縣三地門鄉口社村信義巷10號","lng":120.648392,"lat":22.768742,"abc":"C","service":"巷弄長照站","zones":["10013260"],"phone":"08-7956850","owner":"江淑貞","start":"20190101","end":"20221231"},{"name":"社團法人屏東縣聖佳照顧關懷協會","code":"BF1600002","type":"BF","city":"10013","town":"10013130","addr":"屏東縣內埔鄉內埔村南華路228號","lng":120.575417,"lat":22.614525,"abc":"A","service":"個案管理服務","zones":["10013060","10013070","10013100","10013130"],"phone":"08-7788553","owner":"徐悅芳","start":"20170701","end":"20221231"},{"name":"恆基醫療財團法人恆春基督教醫院","code":"B21600007","type":"B2","city":"10013","town":"10013040","addr":"屏東縣恆春鎮山腳里恆西路21號","lng":120.741058,"lat":22.002338,"abc":"A","service":"個案管理服務","zones":["10013240"],"phone":"08-8892293#879","owner":"黃健榮","start":"20170701","end":"20231231"},{"name":"李洮俊診所","code":"B21600022","type":"B2","city":"10013","town":"10013010","addr":"屏東縣屏東市崇禮里民族路130號","lng":120.484383,"lat":22.670683,"abc":"B","service":"居家失能個案家庭醫師照護服務","zones":["10013010","10013050","10013060","10013070"],"phone":"08-8008001#512","owner":"李洮俊","start":"20191029","end":"20531231"},{"name":"屏東縣南州鄉衛生所","code":"B21600049","type":"B2","city":"10013","town":"10013200","addr":"屏東縣南州鄉溪南村人和路239號","lng":120.502968,"lat":22.486071,"abc":"B","service":"居家失能個案家庭醫師照護服務","zones":["10013180","10013200"],"phone":"08-8642224","owner":"謝俊良","start":"20191007","end":"20531231"},{"name":"真善美診所(屏東縣)","code":"B21600023","type":"B2","city":"10013","town":"10013020","addr":"屏東縣潮州鎮蓬萊里榮祥路90號","lng":120.534309,"lat":22.550911,"abc":"B","service":"居家失能個案家庭醫師照護服務","zones":["10013020","10013120","10013130","10013140"],"phone":"08-7895123","owner":"胡德瑋","start":"20191029","end":"20531231"},{"name":"屏東縣來義鄉衛生所","code":"B21600051","type":"B2","city":"10013","town":"10013300","addr":"屏東縣來義鄉古樓村中正路90號","lng":120.631989,"lat":22.525841,"abc":"B","service":"居家失能個案家庭醫師照護服務","zones":["10013300"],"phone":"08-7850103","owner":"周培麟","start":"20191029","end":"20531231"},{"name":"宏祥診所","code":"B21600020","type":"B2","city":"10013","town":"10013050","addr":"屏東縣萬丹鄉寶厝村中興路2段370號","lng":120.484985,"lat":22.579308,"abc":"B","service":"居家失能個案家庭醫師照護服務","zones":["10013010","10013020","10013030","10013050","10013060","10013070","10013120","10013130","10013140","10013150","10013160","10013170","10013180","10013190","10013200","10013210"],"phone":"08-7770558","owner":"楊世盟","start":"20191112","end":"20531231"},{"name":"屏東縣瑪家鄉衛生所","code":"B21600016","type":"B2","city":"10013","town":"10013280","addr":"屏東縣瑪家鄉北葉村風景巷86號","lng":120.650055,"lat":22.708092,"abc":"B","service":"居家失能個案家庭醫師照護服務","zones":["10013280"],"phone":"08-7991164","owner":"江麗香","start":"20191112","end":"20531231"},{"name":"屏東縣恆春鎮衛生所","code":"B21600021","type":"B2","city":"10013","town":"10013040","addr":"屏東縣恆春鎮城南里文化路78號","lng":120.746857,"lat":22.003225,"abc":"B","service":"居家失能個案家庭醫師照護服務","zones":["10013040"],"phone":"08-8892140","owner":"郭仁雄","start":"20191216","end":"20531231"},{"name":"屏東縣萬巒鄉衛生所","code":"B21600024","type":"B2","city":"10013","town":"10013120","addr":"屏東縣萬巒鄉萬全村褒忠路16號","lng":120.574509,"lat":22.571747,"abc":"B","service":"居家失能個案家庭醫師照護服務","zones":["10013120"],"phone":"08-7811794","owner":"陳欽凡","start":"20200225","end":"20531231"},{"name":"上好診所","code":"B21600025","type":"B2","city":"10013","town":"10013020","addr":"屏東縣潮州鎮三星里四維路246號","lng":120.547958,"lat":22.555183,"abc":"B","service":"居家失能個案家庭醫師照護服務","zones":["10013010","10013020","10013030","10013050","10013060","10013070","10013120","10013130","10013140","10013150","10013170","10013180","10013190","10013200","10013210","10013290","10013300"],"phone":"08-7861900","owner":"嚴啓峯","start":"20200225","end":"20531231"},{"name":"屏東縣霧臺鄉衛生所","code":"B21600017","type":"B2","city":"10013","town":"10013270","addr":"屏東縣霧臺鄉霧台村神山巷68號","lng":120.726128,"lat":22.749889,"abc":"B","service":"居家失能個案家庭醫師照護服務","zones":["10013270"],"phone":"08-7902232","owner":"馮怡鈴","start":"20200309","end":"20531231"},{"name":"屏東縣九如鄉衛生所","code":"B21600052","type":"B2","city":"10013","town":"10013080","addr":"屏東縣九如鄉九清村九如路2段247號","lng":120.489174,"lat":22.73596,"abc":"B","service":"居家失能個案家庭醫師照護服務","zones":["10013080"],"phone":"08-7392006","owner":" 田惠民","start":"20200318","end":"20531231"},{"name":"屏東縣枋寮鄉衛生所","code":"B21600053","type":"B2","city":"10013","town":"10013160","addr":"屏東縣枋寮鄉枋寮村德興路77號","lng":120.59304,"lat":22.365644,"abc":"B","service":"居家失能個案家庭醫師照護服務","zones":["10013160"],"phone":"08-8782940","owner":"康孝明","start":"20200318","end":"20531231"},{"name":"屏東縣里港鄉衛生所","code":"B21600054","type":"B2","city":"10013","town":"10013090","addr":"屏東縣里港鄉大平村中山路103-1號","lng":120.494156,"lat":22.779228,"abc":"B","service":"居家失能個案家庭醫師照護服務","zones":["10013080","10013090","10013100","10013110"],"phone":"08-7751711","owner":"徐金錠","start":"20191029","end":"20531231"},{"name":"屏東縣枋山鄉衛生所","code":"B21600055","type":"B2","city":"10013","town":"10013250","addr":"屏東縣枋山鄉枋山村枋山路98號","lng":120.652748,"lat":22.260941,"abc":"B","service":"居家失能個案家庭醫師照護服務","zones":["10013250"],"phone":"08-8761150","owner":"戴鳳琴","start":"20200225","end":"20531231"},{"name":"前進診所","code":"B21600059","type":"B2","city":"10013","town":"10013010","addr":"屏東縣屏東市清溪里清進路736號1樓","lng":120.471886,"lat":22.662127,"abc":"B","service":"居家失能個案家庭醫師照護服務","zones":["10013010"],"phone":"08-7517176","owner":"蘇哲能","start":"20191212","end":"20531231"},{"name":"屏東縣獅子鄉獅子社區發展協會(獅子文健站)","code":"BF1600222","type":"BF","city":"10013","town":"10013320","addr":"屏東縣獅子鄉獅子村一巷19號","lng":120.685478,"lat":22.232513,"abc":"C","service":"巷弄長照站","zones":["10013320"],"phone":"0912-767026","owner":"莊金郎","start":"20200101","end":"20221231"},{"name":"屏東縣獅子鄉草山部落產業促進會(南世文健站)","code":"BF1600223","type":"BF","city":"10013","town":"10013320","addr":"屏東縣獅子鄉南世村5鄰1巷52-5號","lng":120.649178,"lat":22.311255,"abc":"C","service":"巷弄長照站","zones":["10013320"],"phone":"0926-990365","owner":"蘇寶珠","start":"20200101","end":"20221231"},{"name":"屏東縣獅子鄉楓林社區發展協會(楓林文健站)","code":"BF1600224","type":"BF","city":"10013","town":"10013320","addr":"屏東縣獅子鄉楓林村2巷5鄰6號","lng":120.707932,"lat":22.196411,"abc":"C","service":"巷弄長照站","zones":["10013320"],"phone":"08-87710060","owner":"謝國慶","start":"20200101","end":"20221231"},{"name":"屏東縣獅子鄉雙流社區發展協會(雙流文健站)","code":"BF1600225","type":"BF","city":"10013","town":"10013320","addr":"屏東縣獅子鄉草埔村6巷46號","lng":120.803108,"lat":22.235369,"abc":"C","service":"巷弄長照站","zones":["10013320"],"phone":"0933-380813","owner":"方旭明","start":"20200101","end":"20221231"},{"name":"屏東縣春日鄉力里社區發展協會(力里文健站)","code":"BF1600226","type":"BF","city":"10013","town":"10013310","addr":"屏東縣春日鄉力里村圓山路1號","lng":120.646652,"lat":22.430525,"abc":"C","service":"巷弄長照站","zones":["10013310"],"phone":"0977-243575","owner":"解秀珍","start":"20200101","end":"20221231"},{"name":"屏東縣春日鄉古華社區發展協會(古華文健站)","code":"BF1600227","type":"BF","city":"10013","town":"10013310","addr":"屏東縣春日鄉古華村2巷45號","lng":120.626976,"lat":22.360161,"abc":"C","service":"巷弄長照站","zones":["10013310"],"phone":"08-8781025","owner":"方水菊","start":"20200101","end":"20221231"},{"name":"屏東縣來義鄉大後社區發展協會(大後文健站)","code":"BF1600228","type":"BF","city":"10013","town":"10013300","addr":"屏東縣來義鄉義林村大後路18號","lng":120.662712,"lat":22.525652,"abc":"C","service":"巷弄長照站","zones":["10013300"],"phone":"08-7920128","owner":"劉英豪","start":"20200101","end":"20221231"},{"name":"屏東縣三地門青山社區發展協會(青山文健站)","code":"BF1600229","type":"BF","city":"10013","town":"10013260","addr":"屏東縣三地門鄉青山村民族巷61-2號","lng":120.640587,"lat":22.816742,"abc":"C","service":"巷弄長照站","zones":["10013260"],"phone":"0975-126669","owner":"桑清泉","start":"20200101","end":"20221231"},{"name":"屏東縣泰武鄉佳平社區發展協會(卡比亞安文健站)","code":"BF1600230","type":"BF","city":"10013","town":"10013290","addr":"屏東縣泰武鄉佳平村1鄰佳平巷33號","lng":120.628944,"lat":22.591406,"abc":"C","service":"巷弄長照站","zones":["10013290"],"phone":"08-7832591","owner":"劉金山","start":"20200101","end":"20221231"},{"name":"屏東縣泰武鄉馬仕部落文化協會(馬仕文健站)","code":"BF1600231","type":"BF","city":"10013","town":"10013290","addr":"屏東縣泰武鄉佳平村6鄰獅子1號","lng":120.631416,"lat":22.611483,"abc":"C","service":"巷弄長照站","zones":["10013290"],"phone":"08-7833267","owner":"紀山榮","start":"20200101","end":"20221231"},{"name":"屏東縣牡丹鄉旭海社區發展協會(旭海文健站)","code":"BF1600232","type":"BF","city":"10013","town":"10013330","addr":"屏東縣牡丹鄉旭海村旭海路99號","lng":120.881142,"lat":22.192865,"abc":"C","service":"巷弄長照站","zones":["10013330"],"phone":"0930-308794","owner":"潘呈清","start":"20200101","end":"20221231"},{"name":"屏東縣牡丹鄉牡丹社區發展協會(牡丹文健站)","code":"BF1600233","type":"BF","city":"10013","town":"10013330","addr":"屏東縣牡丹鄉牡丹村97-1號","lng":120.836632,"lat":22.175701,"abc":"C","service":"巷弄長照站","zones":["10013330"],"phone":"0976-444200","owner":"葉德生","start":"20200101","end":"20221231"},{"name":"財團法人基督教中華循理會吉露教會(吉露文健站)","code":"BF1600234","type":"BF","city":"10013","town":"10013270","addr":"屏東縣霧臺鄉吉露村百合路277號","lng":120.577873,"lat":22.689709,"abc":"C","service":"巷弄長照站","zones":["10013270"],"phone":"08-7992539","owner":"羅遠平","start":"20200101","end":"20221231"},{"name":"屏東縣滿州鄉小路部落協會(小路文健站)","code":"BF1600235","type":"BF","city":"10013","town":"10013240","addr":"屏東縣滿州鄉長樂村福興一路2號","lng":120.81414,"lat":22.061779,"abc":"C","service":"巷弄長照站","zones":["10013240"],"phone":"0911-365961","owner":"傅進榮","start":"20200101","end":"20221231"},{"name":"屏東縣邏發尼耀文化促進會(蒙福文健站)","code":"BF1600236","type":"BF","city":"10013","town":"10013020","addr":"屏東縣潮州鎮三和里15鄰福安街35號","lng":120.546028,"lat":22.557524,"abc":"C","service":"巷弄長照站","zones":["10013020"],"phone":"08-7800289","owner":"高偉光","start":"20200101","end":"20221231"},{"name":"屏東縣萬丹鄉衛生所","code":"B21600060","type":"B2","city":"10013","town":"10013050","addr":"屏東縣萬丹鄉四維村萬丹路一段501號","lng":120.488548,"lat":22.594946,"abc":"B","service":"居家失能個案家庭醫師照護服務","zones":["10013050"],"phone":"08-7772049","owner":"林政彥","start":"20200302","end":"20531231"},{"name":"安康診所","code":"B21600061","type":"B2","city":"10013","town":"10013240","addr":"屏東縣滿州鄉滿州村中山路40號","lng":120.83857,"lat":22.019819,"abc":"B","service":"居家失能個案家庭醫師照護服務","zones":["10013040","10013230","10013240","10013330"],"phone":"08-8801928","owner":"陳昭穆","start":"20191216","end":"20531231"},{"name":"大愛護理之家(琉球鄉A)","code":"A31600040","type":"A3","city":"10013","town":"10013220","addr":"屏東縣琉球鄉漁福村本漁路23號","lng":120.385719,"lat":22.346367,"abc":"A","service":"個案管理服務","zones":["10013220"],"phone":"08-8611302","owner":"邱秋華","start":"20200501","end":"20231231","beds":70},{"name":"有限責任屏東縣經立照顧服務勞動合作社","code":"BF1600005","type":"BF","city":"10013","town":"10013150","addr":"屏東縣新埤鄉新埤村中正路91號","lng":120.540588,"lat":22.541613,"abc":"A","service":"個案管理服務","zones":["10013150","10013160"],"phone":"08-7971717","owner":"許書剛","start":"20200610","end":"20231231"},{"name":"財團法人中華民國佛教慈濟慈善事業基金會(屏東縣)","code":"BD1600013","type":"BD","city":"10013","town":"10013210","addr":"屏東縣佳冬鄉石光村東角路30之1號","lng":120.563019,"lat":22.431931,"abc":"A","service":"個案管理服務","zones":["10013030","10013170","10013200"],"phone":"08-8668383","owner":"釋證嚴","start":"20200610","end":"20231231"},{"name":"屏東縣泰武鄉衛生所","code":"B21600063","type":"B2","city":"10013","town":"10013290","addr":"屏東縣泰武鄉佳平村179號","lng":120.632683,"lat":22.592121,"abc":"B","service":"居家失能個案家庭醫師照護服務","zones":["10013290"],"phone":"08-7832059","owner":"蔡菽卉","start":"20200225","end":"20531231"},{"name":"屏東縣牡丹鄉衛生所","code":"B21600062","type":"B2","city":"10013","town":"10013330","addr":"屏東縣牡丹鄉石門村石門路19號","lng":120.774315,"lat":22.125496,"abc":"B","service":"居家失能個案家庭醫師照護服務","zones":["10013330"],"phone":"08-8831013","owner":"潘冠勳","start":"20200302","end":"20531231"},{"name":"天乙診所","code":"B21600066","type":"B2","city":"10013","town":"10013020","addr":"屏東縣潮州鎮同榮里中山路78號","lng":120.541306,"lat":22.549721,"abc":"B","service":"居家失能個案家庭醫師照護服務","zones":["10013020"],"phone":"08-7893521","owner":"吳學尊","start":"20200424","end":"20531231"},{"name":"屏東縣三地門鄉衛生所","code":"B21600050","type":"B2","city":"10013","town":"10013260","addr":"屏東縣三地門鄉三地村行政街4號","lng":120.652985,"lat":22.714769,"abc":"B","service":"居家失能個案家庭醫師照護服務","zones":["10013260"],"phone":"08-7991284","owner":"曾智仁","start":"20200424","end":"20531231"},{"name":"屏東縣琉球鄉衛生所","code":"B21600065","type":"B2","city":"10013","town":"10013220","addr":"屏東縣琉球鄉本福村中山路51號","lng":120.378548,"lat":22.348526,"abc":"B","service":"居家失能個案家庭醫師照護服務","zones":["10013220"],"phone":"08-8612513","owner":"陳奕廷","start":"20200424","end":"20531231"},{"name":"屏東縣滿州鄉衛生所","code":"B21600058","type":"B2","city":"10013","town":"10013240","addr":"屏東縣滿州鄉滿州村中山路31號","lng":120.838051,"lat":22.018982,"abc":"B","service":"居家失能個案家庭醫師照護服務","zones":["10013240"],"phone":"08-8801279","owner":"黃嘉荃","start":"20200424","end":"20531231"},{"name":"屏東縣竹田鄉衛生所","code":"B21600068","type":"B2","city":"10013","town":"10013140","addr":"屏東縣竹田鄉竹田村中山路25號","lng":120.543137,"lat":22.586369,"abc":"B","service":"居家失能個案家庭醫師照護服務","zones":["10013140"],"phone":"08-7710445","owner":"黃婉婷","start":"20200515","end":"20531231"},{"name":"屏東縣高樹鄉衛生所","code":"B21600067","type":"B2","city":"10013","town":"10013110","addr":"屏東縣高樹鄉長榮村南昌路12之2號","lng":120.594299,"lat":22.81708,"abc":"B","service":"居家失能個案家庭醫師照護服務","zones":["10013110"],"phone":"08-7962026","owner":"鄭尉佐","start":"20200515","end":"20531231"},{"name":"屏東縣獅子鄉衛生所","code":"B21600056","type":"B2","city":"10013","town":"10013320","addr":"屏東縣獅子鄉楓林村2巷31號","lng":120.708328,"lat":22.196386,"abc":"B","service":"居家失能個案家庭醫師照護服務","zones":["10013320"],"phone":"08-8771324","owner":"蔡佐彥","start":"20200629","end":"20531231"},{"name":"屏東縣新埤鄉衛生所","code":"B21600074","type":"B2","city":"10013","town":"10013150","addr":"屏東縣新埤鄉新埤村中正路38號","lng":120.550079,"lat":22.470451,"abc":"B","service":"居家失能個案家庭醫師照護服務","zones":["10013150"],"phone":"08-7971090","owner":"徐金錠","start":"20200424","end":"20531231"},{"name":"宋金峰家庭醫學科診所","code":"B21600070","type":"B2","city":"10013","town":"10013260","addr":"屏東縣三地門鄉青山村民族巷52號","lng":120.636055,"lat":22.819208,"abc":"B","service":"居家失能個案家庭醫師照護服務","zones":["10013010","10013060","10013070","10013110","10013260"],"phone":"08-7964993","owner":"宋金峰","start":"20200629","end":"20531231"},{"name":"屏東縣車城鄉衛生所","code":"B21600069","type":"B2","city":"10013","town":"10013230","addr":"屏東縣車城鄉福安村福安路2-30號","lng":120.712517,"lat":22.069864,"abc":"B","service":"居家失能個案家庭醫師照護服務","zones":["10013230"],"phone":"08-8821300#21","owner":"張惟誠","start":"20200803","end":"20531231"},{"name":"屏東縣崁頂鄉衛生所","code":"B21600072","type":"B2","city":"10013","town":"10013180","addr":"屏東縣崁頂鄉崁頂村興農路29-9號","lng":120.507332,"lat":22.514662,"abc":"B","service":"居家失能個案家庭醫師照護服務","zones":["10013180"],"phone":"08-8631454","owner":"陳曉雯","start":"20200803","end":"20531231"},{"name":"衛生福利部屏東醫院","code":"B21600033","type":"B2","city":"10013","town":"10013010","addr":"屏東縣屏東市興樂里自由路270號","lng":120.495544,"lat":22.673264,"abc":"B","service":"居家失能個案家庭醫師照護服務","zones":["10013010","10013050","10013060","10013070","10013080","10013090","10013130","10013140"],"phone":"08-7363011","owner":" 王森稔","start":"20200803","end":"20531231"},{"name":"民眾醫院","code":"B21600028","type":"B2","city":"10013","town":"10013010","addr":"屏東縣屏東市泰安里忠孝路１２０之１號","lng":120.487602,"lat":22.676407,"abc":"B","service":"居家失能個案家庭醫師照護服務","zones":["10013010","10013060","10013070","10013080","10013130"],"phone":"08-7325455","owner":"張淑鳳","start":"20200828","end":"20531231"},{"name":"南門醫療社團法人南門醫院","code":"B21600011","type":"B2","city":"10013","town":"10013040","addr":"屏東縣恆春鎮城南里南門路10號","lng":120.745392,"lat":22.000858,"abc":"B","service":"居家失能個案家庭醫師照護服務","zones":["10013040","10013230","10013240","10013250","10013320","10013330"],"phone":"08-8894568","owner":"鍾文波","start":"20200828","end":"20531231"},{"name":"安泰醫療社團法人安泰醫院","code":"B21600037","type":"B2","city":"10013","town":"10013030","addr":"屏東縣東港鎮興東里中正路一段210號","lng":120.459129,"lat":22.474325,"abc":"B","service":"居家失能個案家庭醫師照護服務","zones":["10013170","10013180","10013200"],"phone":"08-8329966","owner":"蔡宗昌","start":"20201014","end":"20531231"},{"name":"屏東縣佳冬鄉衛生所","code":"B21600071","type":"B2","city":"10013","town":"10013210","addr":"屏東縣佳冬鄉六根村佳和路87-1號","lng":120.549583,"lat":22.414263,"abc":"B","service":"居家失能個案家庭醫師照護服務","zones":["10013210"],"phone":"08-8662018","owner":"馮文龍","start":"20201014","end":"20531231"},{"name":"屏東縣麟洛鄉衛生所","code":"B21600073","type":"B2","city":"10013","town":"10013070","addr":"屏東縣麟洛鄉麟蹄村中山路158-1號","lng":120.527237,"lat":22.650686,"abc":"B","service":"居家失能個案家庭醫師照護服務","zones":["10013070"],"phone":"08-7221152#17","owner":"施泰銓","start":"20201014","end":"20531231"},{"name":"屏東縣春日鄉衛生所","code":"B21600019","type":"B2","city":"10013","town":"10013310","addr":"屏東縣春日鄉春日村春日路176號","lng":120.625504,"lat":22.370291,"abc":"B","service":"居家失能個案家庭醫師照護服務","zones":["10013310"],"phone":"08-8780358","owner":"勞比．馬里戈利格","start":"20191014","end":"20531231"},{"name":"屏基醫療財團法人屏東基督教醫院","code":"B21600030","type":"B2","city":"10013","town":"10013010","addr":"屏東縣屏東市華山里大連路60號","lng":120.502586,"lat":22.682041,"abc":"B","service":"居家失能個案家庭醫師照護服務","zones":["10013010","10013050","10013060","10013070","10013080","10013090","10013100","10013130","10013140","10013260","10013280"],"phone":"08-7363026","owner":"吳榮州","start":"20201014","end":"20531231"},{"name":"財團法人蘇天生文教基金會","code":"BD1600007","type":"BD","city":"10013","town":"10013030","addr":"屏東縣東港鎮東隆里東隆街6-2號","lng":120.447433,"lat":22.462765,"abc":"B","service":"交通接送服務","zones":["10013030","10013150","10013160","10013170","10013180","10013190","10013200","10013210"],"phone":"08-8331727","owner":"蘇威菘","start":"20190101","end":"20231231"},{"name":"屏基醫療財團法人屏東基督教醫院-屏東市A","code":"B21600008","type":"B2","city":"10013","town":"10013010","addr":"屏東縣屏東市華山里莊敬街1段99號","lng":120.502457,"lat":22.684355,"abc":"B","service":"交通接送服務","zones":["10013010","10013060"],"phone":"08-7368686轉5003","owner":"吳榮州","start":"20190101","end":"20231231"},{"name":"安泰醫療社團法人潮州安泰醫院","code":"B21600035","type":"B2","city":"10013","town":"10013020","addr":"屏東縣潮州鎮三星里四維路162號","lng":120.546967,"lat":22.554029,"abc":"B","service":"居家失能個案家庭醫師照護服務","zones":["10013020","10013120","10013130","10013140","10013150"],"phone":"08-7800888#2808","owner":"張志鴻","start":"20210101","end":"20531231"},{"name":"梁宏志診所","code":"B21600076","type":"B2","city":"10013","town":"10013010","addr":"屏東縣屏東市自由路379-4號","lng":120.49543,"lat":22.680544,"abc":"B","service":"居家失能個案家庭醫師照護服務","zones":["10013010","10013050","10013060","10013070","10013080","10013130","10013140"],"phone":"08-7364494","owner":"梁宏志","start":"20210101","end":"20531231"},{"name":"王尹星診所","code":"B21600077","type":"B2","city":"10013","town":"10013020","addr":"屏東縣潮州鎮三共里朝昇路267號1-2樓","lng":120.540855,"lat":22.55616,"abc":"B","service":"居家失能個案家庭醫師照護服務","zones":["10013020","10013050","10013120","10013130","10013140","10013170","10013180"],"phone":"08-7800258","owner":"王尹星","start":"20210101","end":"20531231"},{"name":"天醫診所","code":"B21600080","type":"B2","city":"10013","town":"10013050","addr":"屏東縣萬丹鄉萬惠村萬丹路一段40號","lng":120.489044,"lat":22.584795,"abc":"B","service":"居家失能個案家庭醫師照護服務","zones":["10013050","10013140","10013170"],"phone":"08-7772933","owner":"蘇正德","start":"20201014","end":"20531231"},{"name":"屏東縣鹽埔鄉衛生所","code":"B21600079","type":"B2","city":"10013","town":"10013100","addr":"屏東縣鹽埔鄉勝利路187號","lng":120.578613,"lat":22.760307,"abc":"B","service":"居家失能個案家庭醫師照護服務","zones":["10013100"],"phone":"08-7932474","owner":"楊竣翔","start":"20201112","end":"20531231"},{"name":"屏東縣林邊鄉衛生所","code":"B21600078","type":"B2","city":"10013","town":"10013190","addr":"屏東縣林邊鄉光林村和平路45號","lng":120.509697,"lat":22.431093,"abc":"B","service":"居家失能個案家庭醫師照護服務","zones":["10013190"],"phone":"08-8752076","owner":"廖文才","start":"20200629","end":"20531231"},{"name":"屏東縣私立民眾居家式長期照顧服務機構","code":"1X1600005","type":"1","city":"10013","town":"10013010","addr":"屏東縣屏東市泰安里忠孝路155-6號3樓","lng":120.487602,"lat":22.676409,"abc":"B","service":"喘息服務","zones":["10013010","10013050","10013060","10013070","10013080","10013090","10013100","10013110"],"phone":"08-7666298","owner":"陳淑貞","start":"20210101","end":"20231231"},{"name":"財團法人屏東縣私立長青老人養護中心","code":"A11600003","type":"A1","city":"10013","town":"10013060","addr":"屏東縣長治鄉榮華村信義路55號","lng":120.569092,"lat":22.670233,"abc":"B","service":"喘息服務","zones":["10013010","10013020","10013030","10013040","10013050","10013060","10013070","10013080","10013090","10013100","10013110","10013120","10013130","10013140","10013150","10013160","10013170","10013180","10013190","10013200","10013210","10013220","10013230","10013240","10013250","10013260","10013270","10013280","10013290","10013300","10013310","10013320","10013330"],"phone":"08-7620915","owner":"楊永琦","start":"20210101","end":"20231231","beds":108,"residents":87},{"name":"大愛護理之家","code":"A31600029","type":"A3","city":"10013","town":"10013050","addr":"屏東縣萬丹鄉香社村香社村中興路1段70號","lng":120.471146,"lat":22.560537,"abc":"B","service":"交通接送服務","zones":["10013010","10013020","10013030","10013040","10013050","10013060","10013070","10013080","10013090","10013100","10013110","10013120","10013130","10013140","10013150","10013160","10013170","10013180","10013190","10013200","10013210","10013220","10013230","10013240","10013250","10013260","10013270","10013280","10013290","10013300","10013310","10013320","10013330"],"phone":"08-7763920分機21","owner":"邱秋華","start":"20210101","end":"20231231","beds":70,"residents":69},{"name":"寶建醫療社團法人附設春風護理之家","code":"A31600007","type":"A3","city":"10013","town":"10013010","addr":"屏東縣屏東市崇蘭里自由路650之1號3-5樓","lng":120.481453,"lat":22.683332,"abc":"B","service":"喘息服務","zones":["10013010","10013020","10013030","10013040","10013050","10013060","10013070","10013080","10013090","10013100","10013110","10013120","10013130","10013140","10013150","10013160","10013170","10013180","10013190","10013200","10013210","10013220","10013230","10013240","10013250","10013260","10013270","10013280","10013290","10013300","10013310","10013320","10013330"],"phone":"08-7665987#83001","owner":"李欣穎","start":"20210101","end":"20231231","beds":259,"residents":172},{"name":"有限責任屏東縣經立照顧服務勞動合作社附設私立經立綜合長照機構","code":"4T1600001","type":"4","city":"10013","town":"10013150","addr":"屏東縣新埤鄉新埤村9鄰新華路266號","lng":120.552078,"lat":22.47238,"abc":"B","service":"喘息服務","zones":["10013150","10013160","10013190","10013210"],"phone":"08-7971717 #3110","owner":"許書剛","start":"20210101","end":"20231231"},{"name":"屏東縣私立慈暉老人長期照顧中心(養護型)","code":"A11600005","type":"A1","city":"10013","town":"10013010","addr":"屏東縣屏東市大洲里富貴街61號","lng":120.461868,"lat":22.641911,"abc":"B","service":"喘息服務","zones":["10013010","10013020","10013030","10013040","10013050","10013060","10013070","10013080","10013090","10013100","10013110","10013120","10013130","10013140","10013150","10013160","10013170","10013180","10013190","10013200","10013210","10013220","10013230","10013240","10013250","10013260","10013270","10013280","10013290","10013300","10013310","10013320","10013330"],"phone":"08-7537991","owner":"陳郁麒","start":"20210101","end":"20231231","beds":49,"residents":49},{"name":"屏基醫療財團法人附設屏基護理之家(三地門日照)","code":"A31600038","type":"A3","city":"10013","town":"10013260","addr":"屏東縣三地門鄉三地村行政街1鄰10之1號","lng":120.653503,"lat":22.713846,"abc":"B","service":"喘息服務","zones":["10013010","10013020","10013030","10013040","10013050","10013060","10013070","10013080","10013090","10013100","10013110","10013120","10013130","10013140","10013150","10013160","10013170","10013180","10013190","10013200","10013210","10013220","10013230","10013240","10013250","10013260","10013270","10013280","10013290","10013300","10013310","10013320","10013330"],"phone":"08-7993199","owner":"薛玉皓","start":"20210101","end":"20231231","beds":16},{"name":"財團法人一粒麥子社會福利慈善事業基金會(屏東縣交通服務)","code":"BD1600023","type":"BD","city":"10013","town":"10013160","addr":"屏東縣枋寮鄉中山路2段427號2樓","lng":120.593452,"lat":22.388489,"abc":"B","service":"交通接送服務","zones":["10013030","10013040","10013160","10013170","10013180","10013200","10013230","10013240","10013250","10013310","10013320","10013330"],"phone":"08-8711977","owner":"呂信雄","start":"20210101","end":"20231231"},{"name":"財團法人屏東縣私立畢嘉士社會福利基金會附設屏東縣私立綜合式服務類長期照顧服務機構","code":"4S1600004","type":"4","city":"10013","town":"10013010","addr":"屏東縣屏東市大武里永大路70號","lng":120.477829,"lat":22.660528,"abc":"B","service":"小規模多機能服務","zones":["10013010","10013020","10013030","10013040","10013050","10013060","10013070","10013080","10013090","10013100","10013110","10013120","10013130","10013140","10013150","10013160","10013170","10013180","10013190","10013200","10013210","10013220","10013230","10013240","10013250","10013260","10013270","10013280","10013290","10013300","10013310","10013320","10013330"],"phone":"08-7536866","owner":"劉侃","start":"20210101","end":"20231231"},{"name":"財團法人屏東縣私立國淳社會福利慈善事業基金會附設快樂魚社區長照機構","code":"2S1600004","type":"2","city":"10013","town":"10013140","addr":"屏東縣竹田鄉西勢村龍南路26-1號","lng":120.523506,"lat":22.61483,"abc":"B","service":"日間照顧服務(BB)","zones":["10013010","10013020","10013030","10013040","10013050","10013060","10013070","10013080","10013090","10013100","10013110","10013120","10013130","10013140","10013150","10013160","10013170","10013180","10013190","10013200","10013210","10013220","10013230","10013240","10013250","10013260","10013270","10013280","10013290","10013300","10013310","10013320","10013330"],"phone":"08-7785700","owner":"劉文國","start":"20210101","end":"20231231"},{"name":"屏基醫療財團法人屏東基督教醫院","code":"B21600030","type":"B2","city":"10013","town":"10013010","addr":"屏東縣屏東市華山里大連路60號","lng":120.502586,"lat":22.682041,"abc":"B","service":"交通接送服務","zones":["10013010","10013060","10013070","10013080","10013090","10013100","10013110","10013130","10013260","10013270","10013280"],"phone":"08-7363026","owner":"吳榮州","start":"20210101","end":"20231231"},{"name":"財團法人屏東縣私立畢嘉士社會福利基金會附設屏東縣私立綜合式服務類長期照顧服務機構","code":"4S1600004","type":"4","city":"10013","town":"10013010","addr":"屏東縣屏東市大武里永大路70號","lng":120.477829,"lat":22.660528,"abc":"B","service":"喘息服務","zones":["10013010","10013050","10013060","10013070"],"phone":"08-7536866","owner":"劉侃","start":"20210101","end":"20231231"},{"name":"長榮長照社團法人附設屏東縣私立長榮綜合長照機構","code":"4L1600001","type":"4","city":"10013","town":"10013070","addr":"屏東縣麟洛鄉田中村3鄰中華路143號","lng":120.520515,"lat":22.644705,"abc":"B","service":"喘息服務","zones":["10013010","10013050","10013060","10013070"],"phone":"08-7261183","owner":"許擇良","start":"20210101","end":"20231231","residents":111},{"name":"屏東縣私立經立老人長期照顧中心(養護型)","code":"A11600004","type":"A1","city":"10013","town":"10013150","addr":"屏東縣新埤鄉萬隆村萬安路68之20號","lng":120.572548,"lat":22.503496,"abc":"B","service":"交通接送服務","zones":["10013020","10013030","10013050","10013120","10013140","10013150","10013170","10013180","10013190","10013200","10013210","10013290","10013300","10013310"],"phone":"08-7870052","owner":"陳美卿","start":"20210101","end":"20231231","beds":49,"residents":46},{"name":"屏東縣私立麗緻居家式長期照顧服務機構","code":"1X1600001","type":"1","city":"10013","town":"10013010","addr":"屏東縣屏東市前進里頭前溪路275巷3號1樓","lng":120.513779,"lat":22.659981,"abc":"B","service":"喘息服務","zones":["10013010","10013020","10013050","10013060","10013070","10013120","10013130","10013140"],"phone":"08-7510213","owner":"陳玉山","start":"20210101","end":"20231231"},{"name":"屏東縣私立宜家老人長期照顧中心(養護型)","code":"A11600007","type":"A1","city":"10013","town":"10013150","addr":"屏東縣新埤鄉萬隆村萬安路10-2號","lng":120.572021,"lat":22.504675,"abc":"B","service":"喘息服務","zones":["10013010","10013020","10013030","10013040","10013050","10013060","10013070","10013080","10013090","10013100","10013110","10013120","10013130","10013140","10013150","10013160","10013170","10013180","10013190","10013200","10013210","10013220","10013230","10013240","10013250","10013260","10013270","10013280","10013290","10013300","10013310","10013320","10013330"],"phone":"08-7870515","owner":"陳金雄","start":"20210101","end":"20231231","beds":47,"residents":45},{"name":"屏東縣私立長生老人長期照顧中心(養護型)","code":"A11600008","type":"A1","city":"10013","town":"10013020","addr":"屏東縣潮州鎮彭城里永樂路78號","lng":120.552658,"lat":22.539104,"abc":"B","service":"喘息服務","zones":["10013010","10013020","10013030","10013040","10013050","10013060","10013070","10013080","10013090","10013100","10013110","10013120","10013130","10013140","10013150","10013160","10013170","10013180","10013190","10013200","10013210","10013220","10013230","10013240","10013250","10013260","10013270","10013280","10013290","10013300","10013310","10013320","10013330"],"phone":"08-7806729","owner":"陳玉枝","start":"20210101","end":"20231231","beds":45,"residents":45},{"name":"有限責任屏東縣第一照顧服務勞動合作社附設屏東縣私立第一居家式長期照顧服務機構","code":"1T1600001","type":"1","city":"10013","town":"10013050","addr":"屏東縣萬丹鄉萬全村成功街二段166號1樓","lng":120.491211,"lat":22.59203,"abc":"B","service":"喘息服務","zones":["10013010","10013020","10013030","10013050","10013060","10013070","10013120","10013130","10013140","10013170","10013180","10013200","10013220"],"phone":"08-7764516","owner":"蔡美珠","start":"20210101","end":"20231231"},{"name":"屏東縣私立田園老人長期照顧中心(養護型)","code":"A11600009","type":"A1","city":"10013","town":"10013140","addr":"屏東縣竹田鄉六巷村太平路70巷20號","lng":120.523735,"lat":22.607941,"abc":"B","service":"喘息服務","zones":["10013010","10013020","10013030","10013040","10013050","10013060","10013070","10013080","10013090","10013100","10013110","10013120","10013130","10013140","10013150","10013160","10013170","10013180","10013190","10013200","10013210","10013220","10013230","10013240","10013250","10013260","10013270","10013280","10013290","10013300","10013310","10013320","10013330"],"phone":"08-7781140","owner":"林展昌","start":"20210101","end":"20231231","beds":49,"residents":47},{"name":"國軍高雄總醫院屏東分院附設民眾診療服務處附設護理之家","code":"A31600011","type":"A3","city":"10013","town":"10013010","addr":"屏東縣屏東市龍華里2鄰大湖路58巷22號三樓","lng":120.487572,"lat":22.633503,"abc":"B","service":"喘息服務","zones":["10013010","10013020","10013030","10013040","10013050","10013060","10013070","10013080","10013090","10013100","10013110","10013120","10013130","10013140","10013150","10013160","10013170","10013180","10013190","10013200","10013210","10013220","10013230","10013240","10013250","10013260","10013270","10013280","10013290","10013300","10013310","10013320","10013330"],"phone":"08-7560756#371","owner":"王莉婷","start":"20210101","end":"20231231","beds":70,"residents":61},{"name":"屏東縣私立無量壽老人養護中心","code":"A11600010","type":"A1","city":"10013","town":"10013140","addr":"屏東縣竹田鄉二崙村忠義路7號","lng":120.55275,"lat":22.589083,"abc":"B","service":"喘息服務","zones":["10013010","10013020","10013030","10013040","10013050","10013060","10013070","10013080","10013090","10013100","10013110","10013120","10013130","10013140","10013150","10013160","10013170","10013180","10013190","10013200","10013210","10013220","10013230","10013240","10013250","10013260","10013270","10013280","10013290","10013300","10013310","10013320","10013330"],"phone":"08-7711751#15","owner":"林美淳","start":"20210101","end":"20231231","beds":49,"residents":48},{"name":"屏東縣私立向日葵居家式長期照顧服務機構","code":"1X1600003","type":"1","city":"10013","town":"10013010","addr":"屏東縣屏東市華山里23鄰華正路151號1樓","lng":120.500793,"lat":22.702206,"abc":"B","service":"喘息服務","zones":["10013010","10013050","10013060","10013070","10013080","10013090","10013100","10013110"],"phone":"08-7336161","owner":"林上鶯","start":"20210101","end":"20231231"},{"name":"康乃心護理之家","code":"A31600012","type":"A3","city":"10013","town":"10013010","addr":"屏東縣屏東市信和里忠孝路580號","lng":120.500305,"lat":22.702026,"abc":"B","service":"喘息服務","zones":["10013010","10013020","10013030","10013040","10013050","10013060","10013070","10013080","10013090","10013100","10013110","10013120","10013130","10013140","10013150","10013160","10013170","10013180","10013190","10013200","10013210","10013220","10013230","10013240","10013250","10013260","10013270","10013280","10013290","10013300","10013310","10013320","10013330"],"phone":"08-7326011","owner":"林麗真","start":"20210101","end":"20231231","beds":99,"residents":92},{"name":"財團法人屏東縣私立國淳社會福利慈善事業基金會附設屏東縣私立琉璃光老人長期照顧中心(失智型)","code":"A11600011","type":"A1","city":"10013","town":"10013140","addr":"屏東縣竹田鄉竹田村自強路8號","lng":120.551819,"lat":22.588554,"abc":"B","service":"喘息服務","zones":["10013010","10013020","10013030","10013040","10013050","10013060","10013070","10013080","10013090","10013100","10013110","10013120","10013130","10013140","10013150","10013160","10013170","10013180","10013190","10013200","10013210","10013220","10013230","10013240","10013250","10013260","10013270","10013280","10013290","10013300","10013310","10013320","10013330"],"phone":"08-7710308","owner":"劉文國","start":"20210101","end":"20231231","beds":100,"residents":64},{"name":"財團法人屏東縣私立椰子園老人養護之家","code":"A11600012","type":"A1","city":"10013","town":"10013060","addr":"屏東縣長治鄉繁昌村振興路16之9號","lng":120.581032,"lat":22.709909,"abc":"B","service":"喘息服務","zones":["10013010","10013020","10013030","10013040","10013050","10013060","10013070","10013080","10013090","10013100","10013110","10013120","10013130","10013140","10013150","10013160","10013170","10013180","10013190","10013200","10013210","10013220","10013230","10013240","10013250","10013260","10013270","10013280","10013290","10013300","10013310","10013320","10013330"],"phone":"08-7621111","owner":"蘇政君","start":"20210101","end":"20231231","beds":156,"residents":136},{"name":"有限責任屏東縣大屏南照服勞動合作社附設私立大屏南居家長照機構","code":"1N1600009","type":"1","city":"10013","town":"10013170","addr":"屏東縣新園鄉烏龍村7南興路368巷號6號1樓","lng":120.458618,"lat":22.48628,"abc":"B","service":"居家服務","zones":["10013020","10013030","10013040","10013120","10013130","10013140","10013150","10013160","10013170","10013180","10013190","10013200","10013210","10013220","10013230","10013240"],"phone":"08-8686997","owner":"許秀琴","start":"20210101","end":"20231231"},{"name":"財團法人屏東縣椰子園老人養護之家私立椰子園居家長照機構","code":"1S1600001","type":"1","city":"10013","town":"10013060","addr":"屏東縣長治鄉繁昌村振興路16之9號","lng":120.581032,"lat":22.709909,"abc":"B","service":"喘息服務","zones":["10013010","10013050","10013060","10013070","10013080","10013090","10013100","10013110"],"phone":"08-7621111","owner":"蘇政君","start":"20210101","end":"20231231"},{"name":"財團法人屏東縣私立枋寮老人養護中心","code":"A11600013","type":"A1","city":"10013","town":"10013160","addr":"屏東縣枋寮鄉隆山村中正大路32號","lng":120.61042,"lat":22.346003,"abc":"B","service":"喘息服務","zones":["10013010","10013020","10013030","10013040","10013050","10013060","10013070","10013080","10013090","10013100","10013110","10013120","10013130","10013140","10013150","10013160","10013170","10013180","10013190","10013200","10013210","10013220","10013230","10013240","10013250","10013260","10013270","10013280","10013290","10013300","10013310","10013320","10013330"],"phone":"08-8788784","owner":"陳錫欽","start":"20210101","end":"20231231","beds":57,"residents":54},{"name":"財團法人台灣省私立孝愛仁愛之家附設屏東縣居家長照機構","code":"1S1600011","type":"1","city":"10013","town":"10013020","addr":"屏東縣潮州鎮三共里四維路189巷13號","lng":120.546036,"lat":22.554216,"abc":"B","service":"喘息服務","zones":["10013020","10013120","10013130","10013140","10013150","10013160","10013190","10013210"],"phone":"08-7882351#564","owner":"徐嘉雯","start":"20210101","end":"20231231"},{"name":"東港護理之家","code":"A31600014","type":"A3","city":"10013","town":"10013030","addr":"屏東縣東港鎮船頭里大東路183號","lng":120.463745,"lat":22.461437,"abc":"B","service":"喘息服務","zones":["10013010","10013020","10013030","10013040","10013050","10013060","10013070","10013080","10013090","10013100","10013110","10013120","10013130","10013140","10013150","10013160","10013170","10013180","10013190","10013200","10013210","10013220","10013230","10013240","10013250","10013260","10013270","10013280","10013290","10013300","10013310","10013320","10013330"],"phone":"08-8354747","owner":"謝秋芬","start":"20210101","end":"20231231","beds":65,"residents":63},{"name":"屏基醫療財團法人附設屏東縣私立屏基居家式服務類長期照顧服務機構","code":"1S1600003","type":"1","city":"10013","town":"10013010","addr":"屏東縣屏東市華山里25鄰瑞光路三段96號","lng":120.506165,"lat":22.686331,"abc":"B","service":"居家服務","zones":["10013010","10013020","10013050","10013060","10013070","10013080","10013090","10013100","10013110","10013120","10013130","10013140","10013260","10013270","10013280","10013290","10013300"],"phone":"08-7384033","owner":"游建國","start":"20210101","end":"20231231"},{"name":"有限責任屏東縣傳愛照顧勞動合作社附設私立傳愛居家長照機構","code":"1N1600002","type":"1","city":"10013","town":"10013010","addr":"屏東縣屏東市華山里14鄰瑞光路三段32號1樓","lng":120.500793,"lat":22.673353,"abc":"B","service":"居家服務","zones":["10013010","10013020","10013050","10013060","10013070","10013080","10013090","10013100","10013110","10013120","10013130","10013140"],"phone":"08-7364079","owner":"林淑玫","start":"20210101","end":"20231231"},{"name":"屏東縣私立晨新居家式長期照顧服務機構","code":"1X1600010","type":"1","city":"10013","town":"10013010","addr":"屏東縣屏東市北興里公裕街261巷5弄3號","lng":120.472885,"lat":22.685682,"abc":"B","service":"居家服務","zones":["10013010","10013020","10013050","10013060","10013070","10013090","10013120","10013130","10013140"],"phone":"08-7661030","owner":"許紫宣","start":"20210101","end":"20231231"},{"name":"屏東縣私立民眾居家式長期照顧服務機構","code":"1X1600005","type":"1","city":"10013","town":"10013010","addr":"屏東縣屏東市泰安里忠孝路155-6號3樓","lng":120.487602,"lat":22.676409,"abc":"B","service":"居家服務","zones":["10013010","10013050","10013060","10013070","10013090","10013100","10013110"],"phone":"08-7666298","owner":"陳淑貞","start":"20210101","end":"20231231"},{"name":"安泰醫療社團法人附設安泰護理之家","code":"A31600015","type":"A3","city":"10013","town":"10013180","addr":"屏東縣崁頂鄉北勢村中正路840號","lng":120.506317,"lat":22.508327,"abc":"B","service":"喘息服務","zones":["10013010","10013020","10013030","10013040","10013050","10013060","10013070","10013080","10013090","10013100","10013110","10013120","10013130","10013140","10013150","10013160","10013170","10013180","10013190","10013200","10013210","10013220","10013230","10013240","10013250","10013260","10013270","10013280","10013290","10013300","10013310","10013320","10013330"],"phone":"08-8635508","owner":"林淑菁","start":"20210101","end":"20231231","beds":197,"residents":106},{"name":"社團法人屏東縣聖佳照顧關懷協會附設屏東縣私立聖佳居家長照機構","code":"4R1600003","type":"1","city":"10013","town":"10013130","addr":"屏東縣內埔鄉勝光路59號","lng":120.575607,"lat":22.61475,"abc":"B","service":"喘息服務","zones":["10013010","10013020","10013050","10013060","10013070","10013080","10013090","10013100","10013110","10013120","10013130","10013140"],"phone":"08-7788553","owner":"徐悅芳","start":"20210101","end":"20231231"},{"name":"社團法人屏東縣聖佳照顧關懷協會附設私立竹田社區長照機構","code":"2R1600005","type":"2","city":"10013","town":"10013140","addr":"屏東縣竹田鄉鳳明村福安路46號2樓","lng":120.508705,"lat":22.567785,"abc":"B","service":"喘息服務","zones":["10013010","10013020","10013030","10013040","10013050","10013060","10013070","10013080","10013090","10013100","10013110","10013120","10013130","10013140","10013150","10013160","10013170","10013180","10013190","10013200","10013210","10013220","10013230","10013240","10013250","10013260","10013270","10013280","10013290","10013300","10013310","10013320","10013330"],"phone":"08-7801237","owner":"徐悅芳","start":"20210101","end":"20231231"},{"name":"社團法人屏東縣聖佳照顧關懷協會附設私立萬巒社區長照機構","code":"2R1600004","type":"2","city":"10013","town":"10013120","addr":"屏東縣萬巒鄉佳佐村民生路28-12號","lng":120.596329,"lat":22.570715,"abc":"B","service":"喘息服務","zones":["10013010","10013020","10013030","10013040","10013050","10013060","10013070","10013080","10013090","10013100","10013110","10013120","10013130","10013140","10013150","10013160","10013170","10013180","10013190","10013200","10013210","10013220","10013230","10013240","10013250","10013260","10013270","10013280","10013290","10013300","10013310","10013320","10013330"],"phone":"08-7833050","owner":"徐悅芳","start":"20210101","end":"20231231"},{"name":"屏東縣私立佳欣居家長照機構","code":"1X1600022","type":"1","city":"10013","town":"10013010","addr":"屏東縣屏東市永安里復興路484號","lng":120.485603,"lat":22.645647,"abc":"B","service":"居家服務","zones":["10013010","10013020","10013050","10013060","10013070","10013080","10013090","10013100","10013110","10013120","10013130","10013140","10013260","10013270","10013280","10013290","10013300"],"phone":"08-7513536","owner":"陳素晨","start":"20210101","end":"20231231"},{"name":"健安護理之家","code":"A31600016","type":"A3","city":"10013","town":"10013010","addr":"屏東縣屏東市新生里復興南路一段108巷26號","lng":120.485046,"lat":22.65333,"abc":"B","service":"喘息服務","zones":["10013010","10013020","10013030","10013040","10013050","10013060","10013070","10013080","10013090","10013100","10013110","10013120","10013130","10013140","10013150","10013160","10013170","10013180","10013190","10013200","10013210","10013220","10013230","10013240","10013250","10013260","10013270","10013280","10013290","10013300","10013310","10013320","10013330"],"phone":"08-7526600","owner":"巴蘭芳","start":"20210101","end":"20231231","beds":78,"residents":77},{"name":"社團法人屏東縣腦性麻痺服務協會附設私立安心居家長照機構","code":"1R1600008","type":"1","city":"10013","town":"10013010","addr":"屏東縣屏東市安樂里福建路76巷5號1樓","lng":120.491516,"lat":22.672598,"abc":"B","service":"居家服務","zones":["10013030","10013080","10013090","10013100","10013110","10013170","10013180","10013200","10013220"],"phone":"08-7323282","owner":"呂震斌","start":"20210101","end":"20231231"},{"name":"屏東縣私立大地居家式長期照顧服務機構","code":"1X1600008","type":"1","city":"10013","town":"10013110","addr":"屏東縣高樹鄉長榮村興中路1巷70號1樓","lng":120.599876,"lat":22.826424,"abc":"B","service":"喘息服務","zones":["10013010","10013020","10013050","10013060","10013070","10013080","10013090","10013100","10013110","10013120","10013130","10013140","10013260","10013270","10013280","10013290","10013300"],"phone":"08-796-0036","owner":"宋玉環","start":"20210101","end":"20231231"},{"name":"社團法人屏東縣志願服務協會附設私立安家居家長照機構","code":"1N1600014","type":"1","city":"10013","town":"10013010","addr":"屏東縣屏東市北勢里公德一街17號1樓","lng":120.494202,"lat":22.68585,"abc":"B","service":"居家服務","zones":["10013010","10013050","10013060","10013070","10013080","10013090","10013100","10013110"],"phone":"08-7350180","owner":"高錦鳳","start":"20210101","end":"20231231"},{"name":"大愛護理之家","code":"A31600029","type":"A3","city":"10013","town":"10013050","addr":"屏東縣萬丹鄉香社村香社村中興路1段70號","lng":120.471146,"lat":22.560537,"abc":"B","service":"喘息服務","zones":["10013010","10013020","10013030","10013040","10013050","10013060","10013070","10013080","10013090","10013100","10013110","10013120","10013130","10013140","10013150","10013160","10013170","10013180","10013190","10013200","10013210","10013220","10013230","10013240","10013250","10013260","10013270","10013280","10013290","10013300","10013310","10013320","10013330"],"phone":"08-7763920分機21","owner":"邱秋華","start":"20210101","end":"20231231","beds":70,"residents":69},{"name":"屏東縣私立濟常居家長照機構","code":"1X1600024","type":"1","city":"10013","town":"10013010","addr":"屏東縣屏東市廣興里廣勝路203號1樓","lng":120.482597,"lat":22.689627,"abc":"B","service":"居家服務","zones":["10013080","10013090","10013100","10013110","10013150","10013160","10013190","10013210"],"phone":"08-7328669","owner":"李忠潔","start":"20210101","end":"20231231"},{"name":"屏東縣私立大愛社區長照機構","code":"2X1600028","type":"2","city":"10013","town":"10013190","addr":"屏東縣林邊鄉水利村豊漁路115號1樓","lng":120.505547,"lat":22.418522,"abc":"B","service":"喘息服務","zones":["10013010","10013020","10013030","10013040","10013050","10013060","10013070","10013080","10013090","10013100","10013110","10013120","10013130","10013140","10013150","10013160","10013170","10013180","10013190","10013200","10013210","10013220","10013230","10013240","10013250","10013260","10013270","10013280","10013290","10013300","10013310","10013320","10013330"],"phone":"08-8754158","owner":"黃承偉","start":"20210101","end":"20231231"},{"name":"屏東縣私立大愛居家式長期照顧服務機構","code":"1X1600013","type":"1","city":"10013","town":"10013170","addr":"屏東縣新園鄉港墘村6鄰港墘路19之25號2樓","lng":120.47258,"lat":22.555107,"abc":"B","service":"喘息服務","zones":["10013010","10013020","10013030","10013050","10013060","10013070","10013120","10013130","10013140","10013150","10013160","10013170","10013180","10013190","10013200","10013210","10013220"],"phone":"08-8681819","owner":"邱秀如","start":"20210101","end":"20231231"},{"name":"恆基醫療財團法人附設屏東縣私立恆基居家式長期照顧服務機構","code":"1U1600001","type":"1","city":"10013","town":"10013040","addr":"屏東縣恆春鎮城西里恆西路1巷11-2號1-2樓","lng":120.741058,"lat":22.002338,"abc":"B","service":"到宅沐浴車服務","zones":["10013040","10013150","10013240","10013300","10013310","10013330"],"phone":"08-8892293 #886","owner":"劉伯恩","start":"20210101","end":"20231231"},{"name":"社團法人中華家庭暨社區展望協會附設屏東縣私立居家式服務類長期照顧服務機構","code":"1R1600007","type":"1","city":"10013","town":"10013300","addr":"屏東縣來義鄉古樓村中正路24號","lng":120.503067,"lat":22.687906,"abc":"B","service":"喘息服務","zones":["10013020","10013120","10013130","10013140","10013260","10013270","10013280","10013290","10013300"],"phone":"08-7851878","owner":"成亮","start":"20210101","end":"20231231"},{"name":"財團法人屏東縣私立永安老人養護中心","code":"A11600117","type":"A1","city":"10013","town":"10013040","addr":"屏東縣恆春鎮網紗里大埔路8號","lng":120.74115,"lat":22.020407,"abc":"B","service":"喘息服務","zones":["10013010","10013020","10013030","10013040","10013050","10013060","10013070","10013080","10013090","10013100","10013110","10013120","10013130","10013140","10013150","10013160","10013170","10013180","10013190","10013200","10013210","10013220","10013230","10013240","10013250","10013260","10013270","10013280","10013290","10013300","10013310","10013320","10013330"],"phone":"08-8899720","owner":"陳榮泉","start":"20210101","end":"20231231","beds":152,"residents":119},{"name":"恆基醫療財團法人附設恆愛護理之家","code":"A31600008","type":"A3","city":"10013","town":"10013040","addr":"屏東縣恆春鎮山腳里恆西路一巷6號3樓","lng":120.747391,"lat":21.990623,"abc":"B","service":"喘息服務","zones":["10013010","10013020","10013030","10013040","10013050","10013060","10013070","10013080","10013090","10013100","10013110","10013120","10013130","10013140","10013150","10013160","10013170","10013180","10013190","10013200","10013210","10013220","10013230","10013240","10013250","10013260","10013270","10013280","10013290","10013300","10013310","10013320","10013330"],"phone":"08-8892293#316","owner":"張沛慈","start":"20210101","end":"20231231","beds":27,"residents":20},{"name":"恆基醫療財團法人附設屏東縣私立恆基居家式長期照顧服務機構","code":"1U1600001","type":"1","city":"10013","town":"10013040","addr":"屏東縣恆春鎮城西里恆西路1巷11-2號1-2樓","lng":120.741058,"lat":22.002338,"abc":"B","service":"喘息服務","zones":["10013040","10013230","10013240","10013250","10013310","10013320","10013330"],"phone":"08-8892293 #886","owner":"劉伯恩","start":"20210101","end":"20231231"},{"name":"有限責任屏東縣傳愛照顧勞動合作社附設私立傳愛居家長照機構","code":"1N1600002","type":"1","city":"10013","town":"10013010","addr":"屏東縣屏東市華山里14鄰瑞光路三段32號1樓","lng":120.500793,"lat":22.673353,"abc":"B","service":"喘息服務","zones":["10013010","10013020","10013050","10013060","10013070","10013080","10013090","10013100","10013110","10013120","10013130","10013140"],"phone":"08-7364079","owner":"林淑玫","start":"20210101","end":"20231231"},{"name":"有限責任屏東縣恆大照顧服務勞動合作社附設私立恆大居家長照機構","code":"1N1600003","type":"1","city":"10013","town":"10013060","addr":"屏東縣長治鄉德協村中興路641號","lng":120.549271,"lat":22.695087,"abc":"B","service":"喘息服務","zones":["10013010","10013020","10013030","10013040","10013050","10013060","10013070","10013080","10013090","10013100","10013110","10013120","10013130","10013140","10013150","10013160","10013170","10013180","10013190","10013200","10013210","10013220","10013230","10013240"],"phone":"08-7629060","owner":"周秀蘭","start":"20210101","end":"20231231"},{"name":"屏東縣私立新博愛老人養護中心","code":"A11600015","type":"A1","city":"10013","town":"10013210","addr":"屏東縣佳冬鄉佳冬村民生路50號","lng":120.553642,"lat":22.415604,"abc":"B","service":"喘息服務","zones":["10013010","10013020","10013030","10013040","10013050","10013060","10013070","10013080","10013090","10013100","10013110","10013120","10013130","10013140","10013150","10013160","10013170","10013180","10013190","10013200","10013210","10013220","10013230","10013240","10013250","10013260","10013270","10013280","10013290","10013300","10013310","10013320","10013330"],"phone":"08-8670938","owner":"吳秀美","start":"20210101","end":"20231231","beds":49,"residents":46},