[{"name":"財團法人嘉義縣私立天主教安道社會福利慈善事業基金會附設嘉義縣私立莉莎居家式服務類長期照顧服務機構","code":"1S1300001","type":"1","city":"10010","town":"10010130","addr":"嘉義縣中埔鄉富收村頂中下街33號","lng":120.491302,"lat":23.447941,"abc":"B","service":"居家服務","zones":["10010020","10010120","10010130","10010160","10010170"],"phone":"05-3703168","owner":"浦英雄","start":"20210101","end":"20261231"},{"name":"財團法人弘道老人福利基金會附設嘉義縣私立弘道居家式服務類長期照顧服務機構","code":"1S1300002","type":"1","city":"10010","town":"10010040","addr":"嘉義縣大林鎮平林里新興街116號2樓","lng":120.458359,"lat":23.599922,"abc":"B","service":"居家服務","zones":["10010040"],"phone":"05-3103500","owner":"王乃弘","start":"20210101","end":"20271231"},{"name":"佛教慈濟醫療財團法人附設嘉義縣私立大林慈濟居家式服務類長期照顧服務機構","code":"1U1300002","type":"1","city":"10010","town":"10010040","addr":"嘉義縣大林鎮平林里民生路2號","lng":120.457451,"lat":23.596312,"abc":"B","service":"居家服務","zones":["10010040","10010050","10010060","10010150"],"phone":"05-2648000#1161","owner":"釋證嚴","start":"20210101","end":"20271231"},{"name":"衛生福利部朴子醫院附設居家式服務類長期照顧服務機構","code":"1A1300001","type":"1","city":"10010","town":"10010020","addr":"嘉義縣朴子市永和里42之50號(2樓長照聯合辦公室)","lng":120.234634,"lat":23.46435,"abc":"B","service":"居家服務","zones":["10010090"],"phone":"05-3790600#330","owner":"曹承榮","start":"20210101","end":"20271231"},{"name":"戴德森醫療財團法人附設嘉義縣私立太保社區式服務類長期照顧服務機構","code":"2U1300001","type":"2","city":"10010","town":"10010010","addr":"嘉義縣太保市新埤里新埤214號之12","lng":120.334969,"lat":23.485607,"abc":"B","service":"日間照顧服務(BB)","zones":["10010010","10010020","10010030","10010040","10010050","10010060","10010070","10010080","10010090","10010100","10010110","10010120","10010130","10010140","10010150","10010160","10010170","10010180"],"phone":"05-2212120","owner":"高堂恩","start":"20200101","end":"20271231"},{"name":"財團法人嘉義縣私立天主教安道社會福利慈善事業基金會附設嘉義縣私立安德社區長照機構","code":"2S1300002","type":"2","city":"10010","town":"10010090","addr":"嘉義縣東石鄉東石村東石30號","lng":120.153755,"lat":23.458523,"abc":"B","service":"日間照顧服務(BB)","zones":["10010010","10010020","10010030","10010040","10010050","10010060","10010070","10010080","10010090","10010100","10010110","10010120","10010130","10010140","10010150","10010160","10010170","10010180"],"phone":"05-3730125","owner":"浦英雄","start":"20190212","end":"20271231"},{"name":"財團法人私立天主教中華聖母社會福利慈善事業基金會附設嘉義縣私立中埔社區長照機構","code":"2S1300006","type":"2","city":"10010","town":"10010130","addr":"嘉義縣中埔鄉中埔村中埔79號之2","lng":120.522888,"lat":23.422895,"abc":"B","service":"日間照顧服務(BB)","zones":["10010010","10010020","10010030","10010040","10010050","10010060","10010070","10010080","10010090","10010100","10010110","10010120","10010130","10010140","10010150","10010160","10010170","10010180"],"phone":"05-2531717","owner":"韓玲玲","start":"20200101","end":"20271231"},{"name":"財團法人雙福社會福利慈善事業基金會附設嘉義縣私立新港日安社區式服務類長期照顧服務機構","code":"2S1300004","type":"2","city":"10010","town":"10010070","addr":"嘉義縣新港鄉三間村三間厝231號","lng":120.383568,"lat":23.522642,"abc":"B","service":"日間照顧服務(BB)","zones":["10010010","10010020","10010030","10010040","10010050","10010060","10010070","10010080","10010090","10010100","10010110","10010120","10010130","10010140","10010150","10010160","10010170","10010180"],"phone":"05-3773841","owner":"吳英賓","start":"20180718","end":"20271231"},{"name":"財團法人私立天主教中華聖母社會福利慈善事業基金會附設嘉義縣私立民雄社區式服務類長期照顧服務機構","code":"2S1300005","type":"2","city":"10010","town":"10010050","addr":"嘉義縣民雄鄉山中村牛斗山95之7號","lng":120.404846,"lat":23.518726,"abc":"B","service":"日間照顧服務(BB)","zones":["10010010","10010020","10010030","10010040","10010050","10010060","10010070","10010080","10010090","10010100","10010110","10010120","10010130","10010140","10010150","10010160","10010170","10010180"],"phone":"05-2206442","owner":"韓玲玲","start":"20180601","end":"20271231"},{"name":"財團法人嘉義縣私立天主教安道社會福利慈善事業基金會附設嘉義縣私立鹿草聖家社區式服務類長期照顧服務機構","code":"2S1300001","type":"2","city":"10010","town":"10010110","addr":"嘉義縣鹿草鄉鹿草村圓山路218號","lng":120.307701,"lat":23.415348,"abc":"B","service":"日間照顧服務(BB)","zones":["10010010","10010020","10010030","10010040","10010050","10010060","10010070","10010080","10010090","10010100","10010110","10010120","10010130","10010140","10010150","10010160","10010170","10010180"],"phone":"05-3750194","owner":"浦英雄","start":"20200101","end":"20271231"},{"name":"財團法人伊甸社會福利基金會附設嘉義縣私立頤福社區式服務類長期照顧服務機構","code":"2S1300003","type":"2","city":"10010","town":"10010150","addr":"嘉義縣梅山鄉梅北村成功街63號","lng":120.553917,"lat":23.586708,"abc":"B","service":"日間照顧服務(BB)","zones":["10010010","10010020","10010030","10010040","10010050","10010060","10010070","10010080","10010090","10010100","10010110","10010120","10010130","10010140","10010150","10010160","10010170","10010180"],"phone":"05-2625957","owner":"陳宇昭","start":"20180601","end":"20271231"},{"name":"財團法人私立天主教中華聖母社會福利慈善事業基金會附設嘉義縣私立水上社區式服務類長期照顧服務機構","code":"2S1300007","type":"2","city":"10010","town":"10010120","addr":"嘉義縣水上鄉民生村信義街1號","lng":120.436142,"lat":23.446287,"abc":"B","service":"日間照顧服務(BB)","zones":["10010010","10010020","10010030","10010040","10010050","10010060","10010070","10010080","10010090","10010100","10010110","10010120","10010130","10010140","10010150","10010160","10010170","10010180"],"phone":"05-2866660","owner":"韓玲玲","start":"20200101","end":"20271231"},{"name":"嘉義縣私立慶安老人長期照顧中心(養護型)","code":"A11300002","type":"A1","city":"10010","town":"10010130","addr":"嘉義縣中埔鄉和美村後庄202號","lng":120.465813,"lat":23.455805,"abc":"B","service":"喘息服務","zones":["10010010","10010020","10010030","10010040","10010050","10010060","10010070","10010080","10010090","10010100","10010110","10010120","10010130","10010140","10010150","10010160","10010170","10010180"],"phone":"05-2309868","owner":"江郁文","start":"20210101","end":"20281231","beds":42,"residents":42},{"name":"嘉義縣私立長青老人養護中心","code":"A11300003","type":"A1","city":"10010","town":"10010140","addr":"嘉義縣竹崎鄉灣橋村灣橋340巷22號之2","lng":120.400169,"lat":23.428741,"abc":"B","service":"喘息服務","zones":["10010140"],"phone":"05-2791499","owner":"張秀桃","start":"20210101","end":"20281231","beds":49,"residents":48},{"name":"嘉義縣私立大林老人養護中心","code":"A11300004","type":"A1","city":"10010","town":"10010040","addr":"嘉義縣大林鎮三和里民生路478號","lng":120.451157,"lat":23.599987,"abc":"B","service":"喘息服務","zones":["10010010","10010020","10010030","10010040","10010050","10010060","10010070","10010080","10010090","10010100","10010110","10010120","10010130","10010140","10010150","10010160","10010170","10010180"],"phone":"05-2658877","owner":"詹淑美","start":"20210101","end":"20281231","beds":49,"residents":43},{"name":"嘉義縣私立中林老人養護中心","code":"A11300005","type":"A1","city":"10010","town":"10010040","addr":"嘉義縣大林鎮中林里中林155號","lng":120.473793,"lat":23.594563,"abc":"B","service":"喘息服務","zones":["10010010","10010020","10010030","10010040","10010050","10010060","10010070","10010080","10010090","10010100","10010110","10010120","10010130","10010140","10010150","10010160","10010170","10010180"],"phone":"05-2655233","owner":"林雨正","start":"20210101","end":"20281231","beds":32,"residents":29},{"name":"嘉義縣私立感恩老人養護中心","code":"A11300007","type":"A1","city":"10010","town":"10010050","addr":"嘉義縣民雄鄉東榮村中庄21之45號","lng":120.434608,"lat":23.555529,"abc":"B","service":"喘息服務","zones":["10010010","10010020","10010030","10010040","10010050","10010060","10010070","10010080","10010090","10010100","10010110","10010120","10010130","10010140","10010150","10010160","10010170","10010180"],"phone":"05-2263830","owner":"張嘉雄","start":"20210101","end":"20281231","beds":36,"residents":35},{"name":"嘉義縣私立怡園老人養護中心","code":"A11300008","type":"A1","city":"10010","town":"10010020","addr":"嘉義縣朴子市永和(應)菜埔150號之8","lng":120.228661,"lat":23.45499,"abc":"B","service":"喘息服務","zones":["10010010","10010020","10010030","10010080","10010090","10010100","10010110","10010120"],"phone":"05-3703685","owner":"呂文正","start":"20210101","end":"20281231","beds":42,"residents":34},{"name":"嘉義縣私立祥和老人長期照顧中心(養護型)","code":"A11300009","type":"A1","city":"10010","town":"10010090","addr":"嘉義縣東石鄉洲仔村洲子188號","lng":120.204056,"lat":23.456924,"abc":"B","service":"喘息服務","zones":["10010010","10010020","10010030","10010040","10010050","10010060","10010070","10010080","10010090","10010100","10010110","10010120","10010130","10010140","10010150","10010160","10010170","10010180"],"phone":"05-3703322","owner":"呂文正","start":"20210603","end":"20281231","beds":49,"residents":39},{"name":"嘉義縣私立惜福老人長期照顧中心（養護型）","code":"A11300010","type":"A1","city":"10010","town":"10010050","addr":"嘉義縣民雄鄉東榮村中庄21-20號","lng":120.434608,"lat":23.555529,"abc":"B","service":"喘息服務","zones":["10010010","10010020","10010030","10010040","10010050","10010060","10010070","10010080","10010090","10010100","10010110","10010120","10010130","10010140","10010150","10010160","10010170","10010180"],"phone":"05-2263830","owner":"張嘉昇","start":"20210101","end":"20281231","beds":47,"residents":42},{"name":"財團法人嘉義縣私立瑞泰社會福利基金會附設嘉義縣私立幸福老人長期照顧中心(養護型)","code":"A11300011","type":"A1","city":"10010","town":"10010160","addr":"嘉義縣番路鄉新福村許厝22號","lng":120.532265,"lat":23.45915,"abc":"B","service":"喘息服務","zones":["10010010","10010020","10010030","10010040","10010050","10010060","10010070","10010080","10010090","10010100","10010110","10010120","10010130","10010140","10010150","10010160","10010170","10010180"],"phone":"05-2590613","owner":"歐陽克言","start":"20210101","end":"20281231","beds":90,"residents":90},{"name":"嘉義縣私立尚愛老人養護中心","code":"A11300012","type":"A1","city":"10010","town":"10010100","addr":"嘉義縣義竹鄉頭竹村頭竹圍265號","lng":120.237968,"lat":23.335732,"abc":"B","service":"喘息服務","zones":["10010010","10010020","10010030","10010040","10010050","10010060","10010070","10010080","10010090","10010100","10010110","10010120","10010130","10010140","10010150","10010160","10010170","10010180"],"phone":"05-3418588","owner":"黃秋美","start":"20210101","end":"20281231","beds":44,"residents":45},{"name":"嘉義縣私立慈保老人養護中心","code":"A11300013","type":"A1","city":"10010","town":"10010130","addr":"嘉義縣中埔鄉隆興村枋樹?20號之20","lng":120.529999,"lat":23.438931,"abc":"B","service":"喘息服務","zones":["10010010","10010020","10010030","10010040","10010050","10010060","10010070","10010080","10010090","10010100","10010110","10010120","10010130","10010140","10010150","10010160","10010170","10010180"],"phone":"05-2537112","owner":"賀守芬","start":"20210101","end":"20281231","beds":49,"residents":49},{"name":"嘉義縣私立雙福寶佛門老人長期照顧中心(養護型)","code":"A11300014","type":"A1","city":"10010","town":"10010050","addr":"嘉義縣民雄鄉文隆村建國路2段187之101號","lng":120.432297,"lat":23.539919,"abc":"B","service":"喘息服務","zones":["10010050"],"phone":"05-2260899","owner":"許麗琴","start":"20200101","end":"20281231","beds":45,"residents":44},{"name":"長庚醫療財團法人附設嘉義長庚護理之家","code":"A31300001","type":"A3","city":"10010","town":"10010020","addr":"嘉義縣朴子市仁和里長庚一路6號","lng":120.284042,"lat":23.464806,"abc":"B","service":"日間照顧服務(BB)","zones":["10010010","10010020","10010030","10010040","10010050","10010060","10010070","10010080","10010090","10010100","10010110","10010120","10010130","10010140","10010150","10010160","10010170","10010180"],"phone":"05-3621000#2400","owner":"蕭雅君","start":"20200101","end":"20271231","beds":70,"residents":53},{"name":"衛生福利部朴子醫院附設護理之家","code":"A31300003","type":"A3","city":"10010","town":"10010020","addr":"嘉義縣朴子市永和里42-50號","lng":120.234634,"lat":23.464434,"abc":"B","service":"喘息服務","zones":["10010010","10010020","10010030","10010040","10010050","10010060","10010070","10010080","10010090","10010100","10010110","10010120","10010130","10010140","10010150","10010160","10010170","10010180"],"phone":"05-3790600","owner":"劉秀珍","start":"20210101","end":"20281231","beds":185,"residents":172},{"name":"嘉義縣私立長松護理之家","code":"A31300005","type":"A3","city":"10010","town":"10010040","addr":"嘉義縣大林鎮中正路424-426號","lng":120.988106,"lat":24.77829,"abc":"B","service":"喘息服務","zones":["10010010","10010020","10010030","10010040","10010050","10010060","10010070","10010080","10010090","10010100","10010110","10010120","10010130","10010140","10010150","10010160","10010170","10010180"],"phone":"05-2652847","owner":"陳瓊樺","start":"20210101","end":"20281231","beds":56,"residents":38},{"name":"嘉義縣私立福興護理之家","code":"A31300006","type":"A3","city":"10010","town":"10010050","addr":"嘉義縣民雄鄉福興村牛稠溪68-5號","lng":120.427826,"lat":23.510632,"abc":"B","service":"喘息服務","zones":["10010010","10010020","10010030","10010040","10010050","10010060","10010070","10010080","10010090","10010100","10010110","10010120","10010130","10010140","10010150","10010160","10010170","10010180"],"phone":"05-2200800","owner":"黃菁霞","start":"20210101","end":"20281231","beds":82,"residents":78},{"name":"福茂庭園護理之家","code":"A31300007","type":"A3","city":"10010","town":"10010120","addr":"嘉義縣水上鄉溪洲村外溪洲487-10號","lng":120.394051,"lat":23.420168,"abc":"B","service":"喘息服務","zones":["10010010","10010020","10010030","10010040","10010050","10010060","10010070","10010080","10010090","10010100","10010110","10010120","10010130","10010140","10010150","10010160","10010170","10010180"],"phone":"05-2600035","owner":"吳佩珊","start":"20210101","end":"20281231","beds":135,"residents":88},{"name":"私立大德護理之家","code":"A31300010","type":"A3","city":"10010","town":"10010130","addr":"嘉義縣中埔鄉和睦村中華路268巷33號","lng":120.451241,"lat":23.435133,"abc":"B","service":"喘息服務","zones":["10010010","10010020","10010030","10010040","10010050","10010060","10010070","10010080","10010090","10010100","10010110","10010120","10010130","10010140","10010150","10010160","10010170","10010180"],"phone":"05-2308599","owner":"林子涵","start":"20210101","end":"20281231","beds":99,"residents":92},{"name":"約翰樂活護理之家","code":"A31300012","type":"A3","city":"10010","town":"10010130","addr":"嘉義縣中埔鄉金蘭村金蘭村頂山門20-5號","lng":120.496788,"lat":23.442804,"abc":"B","service":"喘息服務","zones":["10010010","10010020","10010030","10010040","10010050","10010060","10010070","10010080","10010090","10010100","10010110","10010120","10010130","10010140","10010150","10010160","10010170","10010180"],"phone":"05-2307699","owner":"楊椀婷","start":"20210101","end":"20281231","beds":108,"residents":157},{"name":"長庚醫療財團法人附設嘉義居家護理所","code":"B11300002","type":"B1","city":"10010","town":"10010020","addr":"嘉義縣朴子市嘉朴路西段6號","lng":120.284042,"lat":23.464806,"abc":"B","service":"專業照護服務","zones":["10010010","10010020","10010030","10010070","10010080","10010090","10010100","10010110","10010120"],"phone":"05-3621000#2798","owner":"葉昭君","start":"20210101","end":"20240630"},{"name":"佳維居家護理所","code":"B11300003","type":"B1","city":"10010","town":"10010020","addr":"嘉義縣朴子市仁和里小槺榔5路278號","lng":120.279007,"lat":23.468187,"abc":"B","service":"專業照護服務","zones":["10010010","10010020","10010030","10010040","10010050","10010060","10010070","10010080","10010090","10010100","10010110","10010120","10010130","10010140","10010150","10010160"],"phone":"05-3620090","owner":"陳語葳","start":"20210101","end":"20240630"},{"name":"嘉義縣太保市衛生所","code":"B21300005","type":"B2","city":"10010","town":"10010010","addr":"嘉義縣太保市後潭里443號","lng":120.33947,"lat":23.452932,"abc":"B","service":"專業照護服務","zones":["10010010"],"phone":"05-3711273","owner":"林家弘","start":"20240101","end":"20281231"},{"name":"嘉義縣朴子市衛生所","code":"B21300006","type":"B2","city":"10010","town":"10010020","addr":"嘉義縣朴子市安福里光復路40號","lng":120.246582,"lat":23.465593,"abc":"B","service":"專業照護服務","zones":["10010020"],"phone":"05-3792037","owner":"王淑茹","start":"20240101","end":"20281231"},{"name":"嘉義縣布袋鎮衛生所","code":"B21300007","type":"B2","city":"10010","town":"10010030","addr":"嘉義縣布袋鎮新厝里21號","lng":120.169899,"lat":23.381451,"abc":"B","service":"專業照護服務","zones":["10010030"],"phone":"05-3472032","owner":"黃嘉文","start":"20240101","end":"20281231"},{"name":"嘉義縣東石鄉衛生所","code":"B21300008","type":"B2","city":"10010","town":"10010090","addr":"嘉義縣東石鄉東石村東石3號之7","lng":120.154099,"lat":23.45924,"abc":"B","service":"專業照護服務","zones":["10010090"],"phone":"05-3732340","owner":"蔡怡瑩","start":"20240101","end":"20281231"},{"name":"嘉義縣六腳鄉衛生所","code":"B21300009","type":"B2","city":"10010","town":"10010080","addr":"嘉義縣六腳鄉蒜頭村蒜頭73號之1","lng":120.291641,"lat":23.493391,"abc":"B","service":"專業照護服務","zones":["10010080"],"phone":"05-3802016","owner":"于義正","start":"20240101","end":"20281231"},{"name":"嘉義縣義竹鄉衛生所","code":"B21300010","type":"B2","city":"10010","town":"10010100","addr":"嘉義縣義竹鄉仁里村422號之1","lng":120.242821,"lat":23.337069,"abc":"B","service":"專業照護服務","zones":["10010100"],"phone":"05-3415555","owner":"黃梅菊","start":"20240101","end":"20281231"},{"name":"嘉義縣鹿草鄉衛生所","code":"B21300011","type":"B2","city":"10010","town":"10010110","addr":"嘉義縣鹿草鄉西井村長壽路226巷2號","lng":120.307686,"lat":23.411802,"abc":"B","service":"專業照護服務","zones":["10010110"],"phone":"05-3752080","owner":"楊秉勳","start":"20240101","end":"20281231"},{"name":"嘉義縣水上鄉衛生所","code":"B21300012","type":"B2","city":"10010","town":"10010120","addr":"嘉義縣水上鄉水上村正義路145號","lng":120.397675,"lat":23.428066,"abc":"B","service":"專業照護服務","zones":["10010120"],"phone":"05-2682059","owner":"李宗翰","start":"20240101","end":"20281231"},{"name":"嘉義縣阿里山鄉衛生所","code":"B21300013","type":"B2","city":"10010","town":"10010180","addr":"嘉義縣阿里山鄉樂野村樂野3鄰97之2號","lng":120.701866,"lat":23.466516,"abc":"B","service":"專業照護服務","zones":["10010180"],"phone":"05-2561573","owner":"溫明富","start":"20240101","end":"20281231"},{"name":"嘉義縣大林鎮衛生所","code":"B21300014","type":"B2","city":"10010","town":"10010040","addr":"嘉義縣大林鎮平林里中山路252號","lng":120.45562,"lat":23.606922,"abc":"B","service":"專業照護服務","zones":["10010040"],"phone":"05-2652042","owner":"喬嘉","start":"20240101","end":"20281231"},{"name":"嘉義縣民雄鄉衛生所","code":"B21300015","type":"B2","city":"10010","town":"10010050","addr":"嘉義縣民雄鄉中樂村文化路7號之2","lng":120.428452,"lat":23.551538,"abc":"B","service":"專業照護服務","zones":["10010050"],"phone":"05-2262018","owner":"曾玉枝","start":"20240101","end":"20281231"},{"name":"嘉義縣新港鄉衛生所","code":"B21300016","type":"B2","city":"10010","town":"10010070","addr":"嘉義縣新港鄉宮後村嘉民北路5號","lng":120.347565,"lat":23.552404,"abc":"B","service":"專業照護服務","zones":["10010070"],"phone":"05-3742025","owner":"林吟珮","start":"20240101","end":"20281231"},{"name":"嘉義縣溪口鄉衛生所","code":"B21300017","type":"B2","city":"10010","town":"10010060","addr":"嘉義縣溪口鄉溪北村中山路1號","lng":120.394821,"lat":23.606405,"abc":"B","service":"專業照護服務","zones":["10010060"],"phone":"05-2691046","owner":"翁成傑","start":"20240101","end":"20281231"},{"name":"嘉義縣竹崎鄉衛生所","code":"B21300018","type":"B2","city":"10010","town":"10010140","addr":"嘉義縣竹崎鄉竹崎村文化路19之1號","lng":120.552116,"lat":23.521408,"abc":"B","service":"專業照護服務","zones":["10010140"],"phone":"05-2611264","owner":"陳雅雯","start":"20240101","end":"20281231"},{"name":"嘉義縣番路鄉衛生所","code":"B21300019","type":"B2","city":"10010","town":"10010160","addr":"嘉義縣番路鄉下坑村菜公店60號","lng":120.554016,"lat":23.463354,"abc":"B","service":"專業照護服務","zones":["10010160"],"phone":"05-2591148","owner":"林文淵","start":"20240101","end":"20281231"},{"name":"嘉義縣中埔鄉衛生所","code":"B21300020","type":"B2","city":"10010","town":"10010130","addr":"嘉義縣中埔鄉中埔村中正路6號","lng":120.523903,"lat":23.423429,"abc":"B","service":"專業照護服務","zones":["10010130"],"phone":"05-2531008","owner":"郭欽雄","start":"20240101","end":"20281231"},{"name":"嘉義縣大埔鄉衛生所","code":"B21300021","type":"B2","city":"10010","town":"10010170","addr":"嘉義縣大埔鄉大埔村大埔53號之1","lng":120.586929,"lat":23.298695,"abc":"B","service":"專業照護服務","zones":["10010170"],"phone":"05-2521214","owner":"陳永儒","start":"20240101","end":"20281231"},{"name":"嘉義縣梅山鄉衛生所","code":"B21300022","type":"B2","city":"10010","town":"10010150","addr":"嘉義縣梅山鄉梅北村華山路18號","lng":120.555595,"lat":23.586552,"abc":"B","service":"專業照護服務","zones":["10010150"],"phone":"05-2621049","owner":"劉明貞","start":"20240101","end":"20281231"},{"name":"德勝藥局","code":"B31300004","type":"B3","city":"10010","town":"10010140","addr":"嘉義縣竹崎鄉竹崎村中山路184號","lng":120.550491,"lat":23.521353,"abc":"B","service":"專業照護服務","zones":["10010140","10010150"],"phone":"05-2611016","owner":"羅智遠","start":"20210101","end":"20230630"},{"name":"良信藥局","code":"B31300007","type":"B3","city":"10010","town":"10010080","addr":"嘉義縣六腳鄉蒜頭村蒜頭190號之5","lng":120.291954,"lat":23.494764,"abc":"B","service":"專業照護服務","zones":["10010080"],"phone":"05-3805085","owner":"張展維","start":"20210101","end":"20211231"},{"name":"嘉安藥局","code":"B31300008","type":"B3","city":"10010","town":"10010010","addr":"嘉義縣太保市麻寮里麻寮中山路二段46號","lng":120.374535,"lat":23.499208,"abc":"B","service":"專業照護服務","zones":["10010010"],"phone":"05-2387670","owner":"黃永志","start":"20180101","end":"20210131"},{"name":"嘉義縣物理治療師公會","code":"B41300001","type":"B4","city":"10010","town":"10010020","addr":"嘉義縣朴子市開元嘉朴路西段6號","lng":120.285957,"lat":23.462303,"abc":"B","service":"專業照護服務","zones":["10010010","10010020","10010030","10010040","10010050","10010060","10010070","10010080","10010090","10010100","10010110","10010120","10010130","10010140","10010150","10010160","10010170","10010180"],"phone":"0911-672756","owner":"關永基","start":"20200101","end":"20201231"},{"name":"好安心居家職能治療所","code":"B51300002","type":"B5","city":"10010","town":"10010080","addr":"嘉義縣六腳鄉正義村16鄰大橋頭405號","lng":120.248619,"lat":23.477468,"abc":"B","service":"專業照護服務","zones":["10010010","10010020","10010030","10010040","10010050","10010060","10010070","10010080","10010090","10010100","10010110","10010120","10010130","10010140","10010150","10010160","10010170","10010180"],"phone":"0972-607868","owner":"陳冠霖","start":"20240101","end":"20281231"},{"name":"樂鄰居家職能治療所","code":"B51300003","type":"B5","city":"10010","town":"10010020","addr":"嘉義縣朴子市文化里文化北路59號","lng":120.241142,"lat":23.465233,"abc":"B","service":"專業照護服務","zones":["10010010","10010020","10010030","10010040","10010050","10010060","10010070","10010080","10010090","10010100","10010110","10010120","10010130","10010140","10010150","10010160","10010170"],"phone":"0966128196","owner":"楊景瀚","start":"20210101","end":"20230630"},{"name":"嘉義縣新港鄉菜公社區發展協會","code":"BF1300002","type":"BF","city":"10010","town":"10010070","addr":"嘉義縣新港鄉菜公村咬仔竹41號","lng":120.358391,"lat":23.533903,"abc":"B","service":"喘息服務","zones":["10010070"],"phone":"05-3770508","owner":"林茂山","start":"20260101","end":"20281231"},{"name":"嘉義縣新港鄉安和社區發展協會","code":"BF1300004","type":"BF","city":"10010","town":"10010070","addr":"嘉義縣新港鄉安和村番婆16號之1","lng":120.314911,"lat":23.514051,"abc":"B","service":"喘息服務","zones":["10010070"],"phone":"05-3775887","owner":"陳何信慧","start":"20260101","end":"20281231"},{"name":"嘉義縣新港鄉北崙社區發展協會","code":"BF1300006","type":"BF","city":"10010","town":"10010070","addr":"嘉義縣新港鄉北崙村11鄰72之10號","lng":120.356812,"lat":23.591093,"abc":"B","service":"喘息服務","zones":["10010070"],"phone":"0918-433399","owner":"周德三","start":"20210101","end":"20241231"},{"name":"嘉義縣私立長松護理之家","code":"A31300005","type":"A3","city":"10010","town":"10010040","addr":"嘉義縣大林鎮中正路424-426號","lng":120.988106,"lat":24.77829,"abc":"B","service":"喘息服務","zones":["10009010","10009020","10009030","10009040","10009050","10009060","10009070","10009080","10009090","10009100","10009110","10009120","10009130","10009140","10009150","10009160","10009170","10009180","10009190","10009200"],"phone":"05-2652847","owner":"陳瓊樺","start":"20240830","end":"20261231","beds":56,"residents":38},{"name":"嘉義縣私立大林老人養護中心","code":"A11300004","type":"A1","city":"10010","town":"10010040","addr":"嘉義縣大林鎮三和里民生路478號","lng":120.451157,"lat":23.599987,"abc":"B","service":"喘息服務","zones":["10009010","10009020","10009030","10009040","10009050","10009060","10009070","10009080","10009090","10009100","10009110","10009120","10009130","10009140","10009150","10009160","10009170","10009180","10009190","10009200"],"phone":"05-2658877","owner":"詹淑美","start":"20240919","end":"20261231","beds":49,"residents":43},{"name":"戴德森醫療財團法人附設嘉義縣私立多加居家式服務類長期照顧服務機構","code":"1U1300001","type":"1","city":"10010","town":"10010050","addr":"嘉義縣民雄鄉北斗村北勢子95之9號1樓及3樓","lng":120.457756,"lat":23.534863,"abc":"B","service":"居家服務","zones":["10010010","10010020","10010030","10010040","10010050","10010060","10010070","10010080","10010090","10010100","10010110","10010120","10010130","10010140","10010150","10010160","10010170","10010180"],"phone":"05-2212120","owner":"高堂恩","start":"20200101","end":"20211231"},{"name":"財團法人嘉義縣私立開元殿福松老人養護中心","code":"A11300001","type":"A1","city":"10010","town":"10010060","addr":"嘉義縣溪口鄉柴林村柴林村65-2號","lng":120.374107,"lat":23.604725,"abc":"B","service":"居家服務","zones":["10010010","10010040","10010060","10010070","10010080","10010150"],"phone":"住宿式電話:05-2691234","owner":"葉松海","start":"20200101","end":"20201231","beds":138,"residents":103},{"name":"嘉義縣太保市太保里辦公處","code":"BG1300002","type":"BG","city":"10010","town":"10010010","addr":"嘉義縣太保市太保里5鄰太保112之88號","lng":120.333061,"lat":23.461269,"abc":"C","service":"巷弄長照站","zones":["10010010"],"phone":"0988-969969","owner":"郭秀琴","start":"20190101","end":"20241231"},{"name":"嘉義縣民雄鄉豐收社區發展協會","code":"BF1300014","type":"BF","city":"10010","town":"10010050","addr":"嘉義縣民雄鄉豊收村好收148-1號","lng":120.450554,"lat":23.561375,"abc":"C","service":"巷弄長照站","zones":["10010050"],"phone":"05-2269617","owner":"陳正溪","start":"20190101","end":"20241231"},{"name":"嘉義縣民雄鄉福興社區發展協會","code":"BF1300015","type":"BF","city":"10010","town":"10010050","addr":"嘉義縣民雄鄉福興村6鄰60號","lng":120.426453,"lat":23.510494,"abc":"C","service":"巷弄長照站","zones":["10010050"],"phone":"05-2217506","owner":"張榮祿","start":"20190101","end":"20241231"},{"name":"嘉義縣民雄鄉菁埔社區發展協會","code":"BF1300016","type":"BF","city":"10010","town":"10010050","addr":"嘉義縣民雄鄉菁埔村137-5號","lng":120.398911,"lat":23.556091,"abc":"C","service":"巷弄長照站","zones":["10010050"],"phone":"05-2265002","owner":"何明春","start":"20190101","end":"20241231"},{"name":"社團法人嘉義縣以斯帖全人關懷協會","code":"BE1300006","type":"BE","city":"10010","town":"10010020","addr":"嘉義縣朴子市竹圍里四維路2段157-1號","lng":120.239426,"lat":23.458563,"abc":"C","service":"巷弄長照站","zones":["10010020"],"phone":"05-3703662","owner":"李志芳","start":"20190101","end":"20241231"},{"name":"嘉義縣東石鄉掌潭社區發展協會","code":"BF1300017","type":"BF","city":"10010","town":"10010090","addr":"嘉義縣東石鄉掌潭村6鄰16號","lng":120.172859,"lat":23.418142,"abc":"C","service":"巷弄長照站","zones":["10010090"],"phone":"05-3450769","owner":"林文達","start":"20190101","end":"20241231"},{"name":"社團法人嘉義縣鄉村永續發展協會","code":"BE1300007","type":"BE","city":"10010","town":"10010090","addr":"嘉義縣東石鄉洲仔村41-2號","lng":120.193726,"lat":23.451769,"abc":"C","service":"巷弄長照站","zones":["10010090"],"phone":"05-3797699","owner":"邱滄浪","start":"20190101","end":"20241231"},{"name":"嘉義縣鹿草鄉松竹社區發展協會","code":"BF1300022","type":"BF","city":"10010","town":"10010110","addr":"嘉義縣鹿草鄉松竹村68-2號","lng":120.290131,"lat":23.39365,"abc":"C","service":"巷弄長照站","zones":["10010110"],"phone":"0912-757424","owner":"湯莉芳","start":"20190101","end":"20241231"},{"name":"財團法人嘉義縣私立天主教安道社會福利慈善事業基金會菜公店天主堂","code":"BD1300018","type":"BD","city":"10010","town":"10010160","addr":"嘉義縣番路鄉下坑村菜公店3鄰92號","lng":120.559334,"lat":23.463848,"abc":"C","service":"巷弄長照站","zones":["10010160"],"phone":"05-2301988","owner":"鍾安住","start":"20190101","end":"20241231"},{"name":"嘉義縣新港鄉板頭社區發展協會","code":"BF1300026","type":"BF","city":"10010","town":"10010070","addr":"嘉義縣新港鄉板頭村5鄰17-1號","lng":120.319893,"lat":23.568415,"abc":"C","service":"巷弄長照站","zones":["10010070"],"phone":"05-7813862","owner":"陳謝秋緞","start":"20190101","end":"20241231"},{"name":"嘉義縣溪口鄉林腳社區發展協會","code":"BF1300027","type":"BF","city":"10010","town":"10010060","addr":"嘉義縣溪口鄉林腳村4鄰柴林腳42-1號","lng":120.370628,"lat":23.603109,"abc":"C","service":"巷弄長照站","zones":["10010060"],"phone":"05-2694346","owner":"陳志豪","start":"20190101","end":"20241231"},{"name":"嘉義縣義竹鄉東過社區發展協會","code":"BF1300028","type":"BF","city":"10010","town":"10010100","addr":"嘉義縣義竹鄉東過村過路子121-1號","lng":120.255463,"lat":23.451843,"abc":"C","service":"巷弄長照站","zones":["10010100"],"phone":"0933-365996","owner":"胡飛虎","start":"20190101","end":"20241231"},{"name":"福興宮","code":"BF1300029","type":"BF","city":"10010","town":"10010010","addr":"嘉義縣太保市梅埔里埔心7號","lng":120.349289,"lat":23.436783,"abc":"C","service":"巷弄長照站","zones":["10010010"],"phone":"05-3717188","owner":"呂明鍾","start":"20190101","end":"20241231"},{"name":"社團法人嘉義縣中埔鄉老人會","code":"BE1300009","type":"BE","city":"10010","town":"10010130","addr":"嘉義縣中埔鄉同仁村1-10號","lng":120.511948,"lat":23.400429,"abc":"C","service":"巷弄長照站","zones":["10010130"],"phone":"05-2530351","owner":"柯康淑姬","start":"20190101","end":"20241231"},{"name":"阿里山鄉來吉社區發展協會","code":"BF1300031","type":"BF","city":"10010","town":"10010180","addr":"嘉義縣阿里山鄉來吉村4鄰112附6號","lng":120.763733,"lat":23.530113,"abc":"C","service":"巷弄長照站","zones":["10010180"],"phone":"05-2661002","owner":"陳筱彤","start":"20190101","end":"20191231"},{"name":"阿里山鄉茶山社區發展協會","code":"BF1300032","type":"BF","city":"10010","town":"10010180","addr":"嘉義縣阿里山鄉茶山村3鄰60號","lng":120.666832,"lat":23.29952,"abc":"C","service":"巷弄長照站","zones":["10010180"],"phone":"05-2513307","owner":"田佳玲","start":"20190101","end":"20191231"},{"name":"嘉義縣阿里山鄉里佳社區發展協會-文健站","code":"BF1300033","type":"BF","city":"10010","town":"10010180","addr":"嘉義縣阿里山鄉里佳村2鄰28號","lng":120.74649,"lat":23.389479,"abc":"B","service":"喘息服務","zones":["10010180"],"phone":"05-2511172","owner":"溫明正","start":"20251105","end":"20281231"},{"name":"艾樂健有限公司附設嘉義縣私立樂健居家長照機構","code":"B51300006","type":"B5","city":"10010","town":"10010020","addr":"嘉義縣朴子市大鄉里佳禾里佳禾里苦瓜寮20-6號","lng":120.251656,"lat":23.45372,"abc":"C","service":"巷弄長照站","zones":["10010020"],"phone":"0934016678","owner":"吳淑碧","start":"20190101","end":"20221231"},{"name":"嘉義縣中埔鄉和睦社區發展協會","code":"BF1300034","type":"BF","city":"10010","town":"10010130","addr":"嘉義縣中埔鄉和睦村中華路630巷43-3號","lng":120.457069,"lat":23.444544,"abc":"C","service":"巷弄長照站","zones":["10010130"],"phone":"0937-583929","owner":"劉永安","start":"20190101","end":"20241231"},{"name":"嘉義縣中埔鄉龍門社區發展協會","code":"BF1300035","type":"BF","city":"10010","town":"10010130","addr":"嘉義縣中埔鄉龍門村4鄰33號","lng":120.50885,"lat":23.422058,"abc":"C","service":"巷弄長照站","zones":["10010130"],"phone":"0919-199310","owner":"張寶堂","start":"20190101","end":"20241231"},{"name":"嘉義縣中埔鄉裕民社區發展協會","code":"BF1300036","type":"BF","city":"10010","town":"10010130","addr":"嘉義縣中埔鄉裕民村1鄰石頭厝8號-1","lng":120.512421,"lat":23.431019,"abc":"C","service":"巷弄長照站","zones":["10010130"],"phone":"0960-318999","owner":"侯松永","start":"20190101","end":"20241231"},{"name":"國泰診所-回歸巷弄長照站","code":"B21300035","type":"B2","city":"10010","town":"10010120","addr":"嘉義縣水上鄉回歸村回歸村中山路三段151號","lng":120.414322,"lat":23.452309,"abc":"C","service":"巷弄長照站","zones":["10010120"],"phone":"0912515846","owner":"汪淑娟","start":"20190101","end":"20241231"},{"name":"番路鄉逐鹿社區發展協會","code":"BF1300037","type":"BF","city":"10010","town":"10010160","addr":"嘉義縣番路鄉觸口村18鄰梅花一路1號","lng":120.582771,"lat":23.446655,"abc":"C","service":"巷弄長照站","zones":["10010160"],"phone":"05-2590918","owner":"林佳慧","start":"20190101","end":"20191231"},{"name":"戴德森醫療財團法人嘉義基督教醫院古恩宮集會所","code":"B21300036","type":"B2","city":"10010","town":"10010010","addr":"嘉義縣太保市麻寮里麻寮里13鄰中山路二段246號(古恩宮活動中心)","lng":120.367973,"lat":23.500284,"abc":"C","service":"巷弄長照站","zones":["10010010"],"phone":"05-2765041","owner":"姚維仁","start":"20190101","end":"20211231"},{"name":"愛心藥局愛心藥局","code":"B31300014","type":"B3","city":"10010","town":"10010010","addr":"嘉義縣太保市南新里南新里中山路一段311-6號","lng":120.378227,"lat":23.498247,"abc":"C","service":"巷弄長照站","zones":["10010010"],"phone":"05-2386150","owner":" 賴庭溱","start":"20190101","end":"20211231"},{"name":"佛教慈濟醫療財團法人大林慈濟醫院梅山環保教育站","code":"B21300038","type":"B2","city":"10010","town":"10010150","addr":"嘉義縣梅山鄉梅南村梅南村梅南段1346","lng":120.558113,"lat":23.580423,"abc":"C","service":"巷弄長照站","zones":["10010150"],"phone":"05-2648000 轉1168","owner":"賴寧生","start":"20190101","end":"20241225"},{"name":"阿里山鄉樂野社區發展協會","code":"BF1300043","type":"BF","city":"10010","town":"10010180","addr":"嘉義縣阿里山鄉樂野村2鄰56號","lng":120.703308,"lat":23.467289,"abc":"C","service":"巷弄長照站","zones":["10010180"],"phone":"05-2561436","owner":"羅慧君","start":"20190101","end":"20191231"},{"name":"嘉義縣私立駿茂社區式服務類長期照顧服務機構","code":"2X1300003","type":"2","city":"10010","town":"10010050","addr":"嘉義縣民雄鄉秀林村溪底寮3-52號","lng":120.469856,"lat":23.506756,"abc":"B","service":"家庭托顧服務(BC)","zones":["10","10010010","10010020","10010030","10010040","10010050","10010060","10010070","10010080","10010090","10010100","10010110","10010120","10010130","10010140","10010150","10010160","10010170","10010180","5"],"phone":"05-2209730","owner":"蔡桂枝","start":"20190520","end":"20281231"},{"name":"佛教慈濟醫療財團法人大林慈濟醫院大林環保教育站","code":"B21300040","type":"B2","city":"10010","town":"10010040","addr":"嘉義縣大林鎮平林里民生路2號","lng":120.457451,"lat":23.596312,"abc":"C","service":"巷弄長照站","zones":["10010040"],"phone":"","owner":"陳鈞博","start":"20190101","end":"20241231"},{"name":"長庚醫療財團法人附設嘉義長庚護理之家","code":"A31300001","type":"A3","city":"10010","town":"10010020","addr":"嘉義縣朴子市仁和里長庚一路6號","lng":120.284042,"lat":23.464806,"abc":"C","service":"巷弄長照站","zones":["10010010"],"phone":"05-3621000#2400","owner":"蕭雅君","start":"20200101","end":"20271231","beds":70,"residents":53},{"name":"國泰診所-福樂巷弄長照站","code":"B31300015","type":"B3","city":"10010","town":"10010050","addr":"嘉義縣民雄鄉福樂村福樂村埤角722號","lng":120.443283,"lat":23.527636,"abc":"C","service":"巷弄長照站","zones":["10010050"],"phone":"0912515846","owner":"汪淑娟\t","start":"20190101","end":"20211231"},{"name":"嘉義縣溪口鄉衛生所","code":"B21300017","type":"B2","city":"10010","town":"10010060","addr":"嘉義縣溪口鄉溪北村中山路1號","lng":120.394821,"lat":23.606405,"abc":"C","service":"巷弄長照站","zones":["10010060"],"phone":"05-2691046","owner":"翁成傑","start":"20190101","end":"20211231"},{"name":"嘉義縣中埔鄉深坑社區發展協會","code":"BF1300049","type":"BF","city":"10010","town":"10010130","addr":"嘉義縣中埔鄉深坑村9鄰85之2號","lng":120.509499,"lat":23.393932,"abc":"C","service":"巷弄長照站","zones":["10010130"],"phone":"","owner":"邱成佑","start":"20190401","end":"20241231"},{"name":"嘉義縣六腳鄉灣北社區發展協會","code":"BF1300050","type":"BF","city":"10010","town":"10010080","addr":"嘉義縣六腳鄉灣北村191號","lng":120.306664,"lat":23.503582,"abc":"C","service":"巷弄長照站","zones":["10010080"],"phone":"","owner":"蔡新墩","start":"20190101","end":"20241231"},{"name":"嘉義縣水上鄉溪洲社區發展協會","code":"BE1300017","type":"BF","city":"10010","town":"10010120","addr":"嘉義縣水上鄉溪洲村13鄰82-1號","lng":120.395561,"lat":23.41667,"abc":"C","service":"巷弄長照站","zones":["10010120"],"phone":"","owner":"廖紫芬","start":"20190101","end":"20241231"},{"name":"嘉義縣東石鄉蔦松社區發展協會","code":"BF1300052","type":"BF","city":"10010","town":"10010090","addr":"嘉義縣東石鄉蔦松村43號","lng":120.217346,"lat":23.471786,"abc":"C","service":"巷弄長照站","zones":["10010090"],"phone":"","owner":"余仁仲","start":"20190401","end":"20241231"},{"name":"嘉義縣東石鄉東石社區發展協會","code":"BF1300053","type":"BF","city":"10010","town":"10010090","addr":"嘉義縣東石鄉東石村251號之1","lng":120.139816,"lat":23.45512,"abc":"C","service":"巷弄長照站","zones":["10010090"],"phone":"","owner":"黃明雄","start":"20190301","end":"20241231"},{"name":"財團法人梅山文教基金會","code":"BD1300024","type":"BD","city":"10010","town":"10010150","addr":"嘉義縣梅山鄉梅北村健康街91號","lng":120.560577,"lat":23.585752,"abc":"C","service":"巷弄長照站","zones":["10010150"],"phone":"","owner":"何金娟","start":"20190101","end":"20241231"},{"name":"嘉義縣義竹鄉頭竹社區發展協會","code":"BF1300056","type":"BF","city":"10010","town":"10010100","addr":"嘉義縣義竹鄉頭竹村下寮1號","lng":120.228584,"lat":23.327703,"abc":"C","service":"巷弄長照站","zones":["10010100"],"phone":"","owner":"黃榮利","start":"20190101","end":"20241231"},{"name":"財團法人嘉義縣私立瑞泰社會福利基金會新福站","code":"BD1300025","type":"BD","city":"10010","town":"10010160","addr":"嘉義縣番路鄉新福村大庄14號","lng":120.530388,"lat":23.457369,"abc":"C","service":"巷弄長照站","zones":["10010160"],"phone":"05-2590225","owner":"陳俊男","start":"20190101","end":"20241231"},{"name":"嘉義縣太保市民眾服務社","code":"BF1300057","type":"BF","city":"10010","town":"10010010","addr":"嘉義縣太保市太保里53-1號","lng":120.332329,"lat":23.456602,"abc":"C","service":"巷弄長照站","zones":["10010010"],"phone":"","owner":"鄭嘉發","start":"20190101","end":"20241231"},{"name":"嘉義縣新港鄉北崙社區發展協會","code":"BF1300006","type":"BF","city":"10010","town":"10010070","addr":"嘉義縣新港鄉北崙村11鄰72之10號","lng":120.356812,"lat":23.591093,"abc":"C","service":"巷弄長照站","zones":["10010070"],"phone":"0918-433399","owner":"周德三","start":"20190101","end":"20241231"},{"name":"財團法人嘉義縣私立瑞泰社會福利基金會內甕站","code":"BD1300026","type":"BD","city":"10010","town":"10010160","addr":"嘉義縣番路鄉內甕村凸湖25號","lng":120.523132,"lat":23.463139,"abc":"C","service":"巷弄長照站","zones":["10010160"],"phone":"05-2590225","owner":"陳俊男","start":"20190101","end":"20241231"},{"name":"嘉義縣布袋鎮東港社區發展協會","code":"BF1300001","type":"BF","city":"10010","town":"10010030","addr":"嘉義縣布袋鎮東港里東港130-20號","lng":120.18911,"lat":23.376122,"abc":"C","service":"巷弄長照站","zones":["10010030"],"phone":"05-3471771","owner":"謝武南","start":"20190101","end":"20241231"},{"name":"財團法人柴林腳教育基金會","code":"BD1300002","type":"BD","city":"10010","town":"10010060","addr":"嘉義縣溪口鄉柴林村柴林腳13號","lng":120.374107,"lat":23.604725,"abc":"C","service":"巷弄長照站","zones":["10010060"],"phone":"0933-833846","owner":"王書煌","start":"20190101","end":"20241231"},{"name":"嘉義縣新港鄉菜公社區發展協會","code":"BF1300002","type":"BF","city":"10010","town":"10010070","addr":"嘉義縣新港鄉菜公村咬仔竹41號","lng":120.358391,"lat":23.533903,"abc":"C","service":"巷弄長照站","zones":["10010070"],"phone":"05-3770508","owner":"林茂山","start":"20190101","end":"20241231"},{"name":"社團法人嘉義縣扶緣服務協會","code":"BE1300020","type":"BE","city":"10010","town":"10010070","addr":"嘉義縣新港鄉大興村24鄰新中路264附10號","lng":120.345787,"lat":23.560118,"abc":"C","service":"巷弄長照站","zones":["10010070"],"phone":"","owner":"陳炳村","start":"20190101","end":"20241231"},{"name":"嘉義縣新港鄉安和社區發展協會","code":"BF1300004","type":"BF","city":"10010","town":"10010070","addr":"嘉義縣新港鄉安和村番婆16號之1","lng":120.314911,"lat":23.514051,"abc":"C","service":"巷弄長照站","zones":["10010070"],"phone":"05-3775887","owner":"陳何信慧","start":"20190101","end":"20241231"},{"name":"嘉義縣大林鎮內林社區發展協會","code":"BF1300058","type":"BF","city":"10010","town":"10010040","addr":"嘉義縣大林鎮內林里1鄰內林61號","lng":120.491341,"lat":23.613108,"abc":"C","service":"巷弄長照站","zones":["10010040"],"phone":"","owner":"詹淑麗","start":"20190101","end":"20241231"},{"name":"社團法人嘉義縣基督教青年會","code":"BE1300001","type":"BE","city":"10010","town":"10010100","addr":"嘉義縣義竹鄉東光村東後寮62號-1","lng":120.2472,"lat":23.378679,"abc":"C","service":"巷弄長照站","zones":["10010100"],"phone":"05-3651442","owner":"王淑華","start":"20190101","end":"20241231"},{"name":"財團法人弘道老人福利基金會三和站","code":"BD1300030","type":"BD","city":"10010","town":"10010040","addr":"嘉義縣大林鎮三和里水碓44號","lng":120.471069,"lat":23.602468,"abc":"C","service":"巷弄長照站","zones":["10010040"],"phone":"","owner":"王乃弘","start":"20190401","end":"20241231"},{"name":"嘉義縣大林鎮排路社區發展協會","code":"BF1300060","type":"BF","city":"10010","town":"10010040","addr":"嘉義縣大林鎮排路里排路子167號","lng":120.424278,"lat":23.613052,"abc":"C","service":"巷弄長照站","zones":["10010040"],"phone":"","owner":"黃麗珠","start":"20190101","end":"20241231"},{"name":"嘉義縣中埔鄉和興社區發展協會","code":"BF1300059","type":"BF","city":"10010","town":"10010130","addr":"嘉義縣中埔鄉和興村中華路305巷246號","lng":120.452942,"lat":23.439346,"abc":"C","service":"巷弄長照站","zones":["10010130"],"phone":"","owner":"劉守仁","start":"20190101","end":"20241231"},{"name":"嘉義縣中埔鄉富收社區發展協會","code":"BF1300061","type":"BF","city":"10010","town":"10010130","addr":"嘉義縣中埔鄉富收村9鄰庄內8之1號","lng":120.493195,"lat":23.444296,"abc":"C","service":"巷弄長照站","zones":["10010130"],"phone":"","owner":"王居來","start":"20190101","end":"20241231"},{"name":"財團法人嘉義縣私立天主教安道社會福利慈善事業基金會中埔站","code":"BD1300031","type":"BD","city":"10010","town":"10010130","addr":"嘉義縣中埔鄉同仁村同仁30號","lng":120.512131,"lat":23.401617,"abc":"C","service":"巷弄長照站","zones":["10010130"],"phone":"05-2301988","owner":"鍾安住","start":"20190101","end":"20241231"},{"name":"財團法人嘉義縣私立瑞泰社會福利基金會中埔站","code":"BD1300032","type":"BD","city":"10010","town":"10010130","addr":"嘉義縣中埔鄉社口村番仔坑9鄰7-1號","lng":120.4953,"lat":23.419966,"abc":"C","service":"巷弄長照站","zones":["10010130"],"phone":"05-2590225","owner":"陳俊男","start":"20190101","end":"20241231"},{"name":"嘉義縣中埔鄉石硦村辦公處","code":"BG1300005","type":"BG","city":"10010","town":"10010130","addr":"嘉義縣中埔鄉石硦村6鄰籐寮仔45之2號","lng":120.574966,"lat":23.398647,"abc":"C","service":"巷弄長照站","zones":["10010130"],"phone":"","owner":"林聰柏","start":"20190101","end":"20241231"},{"name":"嘉義縣六腳鄉塗師社區發展協會","code":"BF1300062","type":"BF","city":"10010","town":"10010080","addr":"嘉義縣六腳鄉塗師村6鄰36-1號","lng":120.283813,"lat":23.506615,"abc":"C","service":"巷弄長照站","zones":["10010080"],"phone":"(05)3806904","owner":"蔡寶玉","start":"20190101","end":"20241231"},{"name":"嘉義縣中埔鄉石硦社區發展協會","code":"BF1300063","type":"BF","city":"10010","town":"10010130","addr":"嘉義縣中埔鄉石硦村13鄰22之33號","lng":120.548927,"lat":23.411337,"abc":"C","service":"巷弄長照站","zones":["10010130"],"phone":"","owner":"林聰柏","start":"20190101","end":"20241231"},{"name":"社團法人嘉義縣聽語多重障礙福利協進會-松華站","code":"BE1300021","type":"BE","city":"10010","town":"10010020","addr":"嘉義縣朴子市松華里牛挑灣341-2號","lng":120.251717,"lat":23.410439,"abc":"C","service":"巷弄長照站","zones":["10010020"],"phone":"","owner":"張立志","start":"20190101","end":"20241231"},{"name":"嘉義縣民雄鄉文隆社區發展協會","code":"BF1300005","type":"BF","city":"10010","town":"10010050","addr":"嘉義縣民雄鄉文隆村47之7號","lng":120.420059,"lat":23.537491,"abc":"C","service":"巷弄長照站","zones":["10010050"],"phone":"05-2264893","owner":"何添富","start":"20190101","end":"20241231"},{"name":"嘉義縣大圳尾關懷協會","code":"BE1300022","type":"BE","city":"10010","town":"10010120","addr":"嘉義縣水上鄉大堀村江竹仔腳30-1號","lng":120.374268,"lat":23.440338,"abc":"C","service":"巷弄長照站","zones":["10010120"],"phone":"0919130356","owner":"黃存吉","start":"20190101","end":"20241231"},{"name":"財團法人柴林腳教育基金會","code":"BD1300002","type":"BD","city":"10010","town":"10010060","addr":"嘉義縣溪口鄉柴林村柴林腳13號","lng":120.374107,"lat":23.604725,"abc":"B","service":"營養餐飲服務","zones":["10010060"],"phone":"0933-833846","owner":"王書煌","start":"20190101","end":"20191231"},{"name":"嘉義縣新港鄉頂菜園發展協會","code":"BF1300003","type":"BF","city":"10010","town":"10010070","addr":"嘉義縣新港鄉宮後村頂菜園12號","lng":120.324249,"lat":23.562889,"abc":"C","service":"巷弄長照站","zones":["10010070"],"phone":"05-7813330","owner":"陳明惠","start":"20190101","end":"20241231"},{"name":"財團法人嘉義縣私立天主教安道社會福利慈善事業基金會大埔站","code":"BD1300007","type":"BD","city":"10010","town":"10010170","addr":"嘉義縣大埔鄉和平村雙溪28號","lng":120.596199,"lat":23.301321,"abc":"C","service":"巷弄長照站","zones":["10010170"],"phone":"05-2521001","owner":"鍾安住","start":"20190101","end":"20241231"},{"name":"嘉義縣新港鄉大潭社區發展協會","code":"BF1300024","type":"BF","city":"10010","town":"10010070","addr":"嘉義縣新港鄉大潭村17鄰大潭33號附1","lng":120.370247,"lat":23.552071,"abc":"C","service":"巷弄長照站","zones":["10010070"],"phone":"05-3748858","owner":"林東義","start":"20190101","end":"20241231"},{"name":"財團法人嘉義縣私立瑞泰社會福利基金會江西站","code":"BD1300036","type":"BD","city":"10010","town":"10010160","addr":"嘉義縣番路鄉江西村柿仔腳3號","lng":120.528725,"lat":23.47196,"abc":"C","service":"巷弄長照站","zones":["10010160"],"phone":"05-2590225","owner":"陳俊男","start":"20190401","end":"20241231"},{"name":"財團法人嘉義縣私立瑞泰社會福利基金會番路站","code":"BD1300037","type":"BD","city":"10010","town":"10010160","addr":"嘉義縣番路鄉番路村4鄰54號","lng":120.567528,"lat":23.464863,"abc":"C","service":"巷弄長照站","zones":["10010160"],"phone":"05-2590225","owner":"陳俊男","start":"20190501","end":"20241231"},{"name":"嘉義縣鹿草鄉三角社區發展協會","code":"BF1300064","type":"BF","city":"10010","town":"10010110","addr":"嘉義縣鹿草鄉三角村109之1號","lng":120.340836,"lat":23.400553,"abc":"C","service":"巷弄長照站","zones":["10010110"],"phone":"","owner":"黃寶全","start":"20190501","end":"20241231"},{"name":"嘉義縣番路鄉日安社區發展協會","code":"BF1300065","type":"BF","city":"10010","town":"10010160","addr":"嘉義縣番路鄉新福村1鄰公館仔110號","lng":120.569527,"lat":23.45149,"abc":"C","service":"巷弄長照站","zones":["10010160"],"phone":"","owner":"邱宣旭","start":"20190501","end":"20241231"},{"name":"嘉義縣新港鄉老人會","code":"BF1300066","type":"BF","city":"10010","town":"10010070","addr":"嘉義縣新港鄉宮前村公園路28-1號2樓","lng":120.34565,"lat":23.553379,"abc":"C","service":"巷弄長照站","zones":["10010070"],"phone":"","owner":"陳美華","start":"20190501","end":"20241231"},{"name":"嘉義縣大林鎮溝背里辦公處","code":"BG1300007","type":"BG","city":"10010","town":"10010040","addr":"嘉義縣大林鎮溝背里13鄰溝背280號","lng":120.486549,"lat":23.61478,"abc":"C","service":"巷弄長照站","zones":["10010040"],"phone":"","owner":"江春源","start":"20190501","end":"20241231"},{"name":"社團法人嘉義縣聽語多重障礙福利協進會-正義站","code":"BE1300023","type":"BE","city":"10010","town":"10010080","addr":"嘉義縣六腳鄉正義村15鄰215號","lng":120.245338,"lat":23.477875,"abc":"C","service":"巷弄長照站","zones":["10010080"],"phone":"05-3703222","owner":"張立志","start":"20190301","end":"20241231"},{"name":"社團法人嘉義縣聽語多重障礙福利協進會-大崙站","code":"BE1300024","type":"BE","city":"10010","town":"10010070","addr":"嘉義縣新港鄉南港村大崙12鄰36號","lng":120.311729,"lat":23.553671,"abc":"C","service":"巷弄長照站","zones":["10010070"],"phone":"05-3703222","owner":"張立志","start":"20190601","end":"20241231"},{"name":"財團法人弘道老人福利基金會東石站","code":"BD1300038","type":"BD","city":"10010","town":"10010090","addr":"嘉義縣東石鄉猿樹村151-10號","lng":120.150574,"lat":23.458302,"abc":"C","service":"巷弄長照站","zones":["10010090"],"phone":"","owner":"王乃弘","start":"20190501","end":"20241231"},{"name":"嘉義縣東石鄉塭仔社區發展協會","code":"BF1300068","type":"BF","city":"10010","town":"10010090","addr":"嘉義縣東石鄉塭仔村6鄰999號","lng":120.176666,"lat":23.438559,"abc":"C","service":"巷弄長照站","zones":["10010090"],"phone":"","owner":"陳俊旭","start":"20190501","end":"20241231"},{"name":"臺中榮民總醫院灣橋分院居家長照機構","code":"1F1300001","type":"1","city":"10010","town":"10010140","addr":"嘉義縣竹崎鄉灣橋村石麻園38號","lng":120.506516,"lat":23.487692,"abc":"B","service":"喘息服務","zones":["10010140"],"phone":"05-2791072","owner":"王作仁","start":"20260101","end":"20281231"},{"name":"長春居家物理治療所","code":"B41300004","type":"B4","city":"10010","town":"10010010","addr":"嘉義縣太保市太保五路138號1樓","lng":120.298073,"lat":23.454361,"abc":"B","service":"專業照護服務","zones":["10010010","10010020","10010030","10010040","10010050","10010060","10010070","10010080","10010090","10010100","10010110","10010120","10010130","10010140","10010150","10010160","10010170","10010180"],"phone":"0928391131","owner":"邱潔俞","start":"20240101","end":"20281231"},{"name":"大林樂齡居家物理治療所","code":"B41300005","type":"B4","city":"10010","town":"10010040","addr":"嘉義縣大林鎮明和里甘蔗崙88-6號","lng":120.450768,"lat":23.606548,"abc":"B","service":"專業照護服務","zones":["10010040","10010050","10010060","10010140","10010150","10010180"],"phone":"0988277757","owner":"顏冠杰","start":"20240101","end":"20251231"},{"name":"嘉義縣六腳鄉潭墘社區發展協會","code":"BF1300070","type":"BF","city":"10010","town":"10010080","addr":"嘉義縣六腳鄉潭墘村113號","lng":120.277153,"lat":23.504169,"abc":"C","service":"巷弄長照站","zones":["10010080"],"phone":"0975240280","owner":"侯水順","start":"20190401","end":"20241231"},{"name":"嘉義縣竹崎鄉灣橋社區發展協會","code":"BF1300072","type":"BF","city":"10010","town":"10010140","addr":"嘉義縣竹崎鄉灣橋村16鄰灣橋172號","lng":120.506737,"lat":23.490776,"abc":"C","service":"巷弄長照站","zones":["10010140"],"phone":"0921160834","owner":"戴嘉宏","start":"20190601","end":"20281231"},{"name":"財團法人雙福社會褔利慈善事業基金會","code":"BD1300039","type":"BD","city":"10010","town":"10010180","addr":"嘉義縣阿里山鄉山美村3鄰51號","lng":120.668182,"lat":23.383833,"abc":"C","service":"巷弄長照站","zones":["10010180"],"phone":"05-2586479","owner":"待補","start":"20190101","end":"20191231"},{"name":"嘉義縣私立大福社區式服務類長期照顧服務機構","code":"2X1300004","type":"2","city":"10010","town":"10010050","addr":"嘉義縣民雄鄉寮頂村富義新村240號","lng":120.434181,"lat":23.5658,"abc":"B","service":"家庭托顧服務(BC)","zones":["10010010","10010020","10010030","10010040","10010050","10010060","10010070","10010080","10010090","10010100","10010110","10010120","10010130","10010140","10010150","10010160","10010170","10010180"],"phone":"05-2262842","owner":"鐘敏哲","start":"20190812","end":"20281231"},{"name":"財團法人嘉義縣私立開元殿福松老人養護中心","code":"A11300001","type":"A1","city":"10010","town":"10010060","addr":"嘉義縣溪口鄉柴林村柴林村65-2號","lng":120.374107,"lat":23.604725,"abc":"B","service":"日間照顧服務(BB)","zones":[],"phone":"住宿式電話:05-2691234","owner":"葉松海","start":"20200101","end":"20211231","beds":138,"residents":103},{"name":"嘉義縣太保市安仁社區發展協會","code":"BF1300073","type":"BF","city":"10010","town":"10010010","addr":"嘉義縣太保市安仁里9鄰40-2號","lng":120.294731,"lat":23.447559,"abc":"C","service":"巷弄長照站","zones":["10010010"],"phone":"0933358583","owner":"侯正郎","start":"20190824","end":"20241231"},{"name":"財團法人雙福社會褔利慈善事業基金會","code":"BD1300014","type":"BD","city":"10010","town":"10010180","addr":"嘉義縣阿里山鄉新美村4鄰65號","lng":120.683441,"lat":23.337393,"abc":"C","service":"巷弄長照站","zones":["10010180"],"phone":"05-2513387","owner":"莊淑芬","start":"20190101","end":"20191231"},{"name":"嘉義縣新港鄉古民社區發展協會","code":"BF1300074","type":"BF","city":"10010","town":"10010070","addr":"嘉義縣新港鄉古民村71-3號","lng":120.352318,"lat":23.56485,"abc":"C","service":"巷弄長照站","zones":["10010070"],"phone":"0977151522","owner":"蔡峻傑","start":"20190701","end":"20241231"},{"name":"嘉義縣梅山鄉衛生所","code":"B21300022","type":"B2","city":"10010","town":"10010150","addr":"嘉義縣梅山鄉梅北村華山路18號","lng":120.555595,"lat":23.586552,"abc":"B","service":"居家失能個案家庭醫師照護服務","zones":["10010150"],"phone":"05-2621049","owner":"劉明貞","start":"20240101","end":"20281231"},{"name":"嘉義縣水上鄉衛生所","code":"B21300012","type":"B2","city":"10010","town":"10010120","addr":"嘉義縣水上鄉水上村正義路145號","lng":120.397675,"lat":23.428066,"abc":"B","service":"居家失能個案家庭醫師照護服務","zones":["10010120"],"phone":"05-2682059","owner":"李宗翰","start":"20240101","end":"20281231"},{"name":"嘉義縣阿里山鄉衛生所","code":"B21300013","type":"B2","city":"10010","town":"10010180","addr":"嘉義縣阿里山鄉樂野村樂野3鄰97之2號","lng":120.701866,"lat":23.466516,"abc":"B","service":"居家失能個案家庭醫師照護服務","zones":["10010180"],"phone":"05-2561573","owner":"溫明富","start":"20240101","end":"20281231"},{"name":"嘉義縣中埔鄉衛生所","code":"B21300020","type":"B2","city":"10010","town":"10010130","addr":"嘉義縣中埔鄉中埔村中正路6號","lng":120.523903,"lat":23.423429,"abc":"B","service":"居家失能個案家庭醫師照護服務","zones":["10010130"],"phone":"05-2531008","owner":"郭欽雄","start":"20240101","end":"20281231"},{"name":"嘉義縣鹿草鄉衛生所","code":"B21300011","type":"B2","city":"10010","town":"10010110","addr":"嘉義縣鹿草鄉西井村長壽路226巷2號","lng":120.307686,"lat":23.411802,"abc":"B","service":"居家失能個案家庭醫師照護服務","zones":["10010110"],"phone":"05-3752080","owner":"楊秉勳","start":"20240101","end":"20281231"},{"name":"嘉義縣義竹鄉衛生所","code":"B21300010","type":"B2","city":"10010","town":"10010100","addr":"嘉義縣義竹鄉仁里村422號之1","lng":120.242821,"lat":23.337069,"abc":"B","service":"居家失能個案家庭醫師照護服務","zones":["10010100"],"phone":"05-3415555","owner":"黃梅菊","start":"20240101","end":"20281231"},{"name":"嘉義縣大林鎮衛生所","code":"B21300014","type":"B2","city":"10010","town":"10010040","addr":"嘉義縣大林鎮平林里中山路252號","lng":120.45562,"lat":23.606922,"abc":"B","service":"居家失能個案家庭醫師照護服務","zones":["10010040"],"phone":"05-2652042","owner":"喬嘉","start":"20240101","end":"20281231"},{"name":"嘉義縣東石鄉衛生所","code":"B21300008","type":"B2","city":"10010","town":"10010090","addr":"嘉義縣東石鄉東石村東石3號之7","lng":120.154099,"lat":23.45924,"abc":"B","service":"居家失能個案家庭醫師照護服務","zones":["10010090"],"phone":"05-3732340","owner":"蔡怡瑩","start":"20240101","end":"20281231"},{"name":"嘉義縣六腳鄉衛生所","code":"B21300009","type":"B2","city":"10010","town":"10010080","addr":"嘉義縣六腳鄉蒜頭村蒜頭73號之1","lng":120.291641,"lat":23.493391,"abc":"B","service":"居家失能個案家庭醫師照護服務","zones":["10010080"],"phone":"05-3802016","owner":"于義正","start":"20240101","end":"20281231"},{"name":"嘉義縣溪口鄉衛生所","code":"B21300017","type":"B2","city":"10010","town":"10010060","addr":"嘉義縣溪口鄉溪北村中山路1號","lng":120.394821,"lat":23.606405,"abc":"B","service":"居家失能個案家庭醫師照護服務","zones":["10010060"],"phone":"05-2691046","owner":"翁成傑","start":"20240101","end":"20281231"},{"name":"嘉義縣太保市衛生所","code":"B21300005","type":"B2","city":"10010","town":"10010010","addr":"嘉義縣太保市後潭里443號","lng":120.33947,"lat":23.452932,"abc":"B","service":"居家失能個案家庭醫師照護服務","zones":["10010010"],"phone":"05-3711273","owner":"林家弘","start":"20240101","end":"20281231"},{"name":"嘉義縣番路鄉衛生所","code":"B21300019","type":"B2","city":"10010","town":"10010160","addr":"嘉義縣番路鄉下坑村菜公店60號","lng":120.554016,"lat":23.463354,"abc":"B","service":"居家失能個案家庭醫師照護服務","zones":["10010160"],"phone":"05-2591148","owner":"林文淵","start":"20240101","end":"20281231"},{"name":"嘉義縣民雄鄉福樂社區發展協會","code":"BE1300026","type":"BE","city":"10010","town":"10010050","addr":"嘉義縣民雄鄉福樂村新生1街1號","lng":120.450279,"lat":23.52939,"abc":"C","service":"巷弄長照站","zones":["10010050"],"phone":"0912757055","owner":"簡啓仁","start":"20190801","end":"20241231"},{"name":"臺中榮民總醫院灣橋分院-竹崎鄉緞繻社區活動中心","code":"B21300056","type":"B2","city":"10010","town":"10010140","addr":"嘉義縣竹崎鄉緞繻村19鄰松腳50號","lng":120.595428,"lat":23.523659,"abc":"C","service":"巷弄長照站","zones":["10010140"],"phone":"05-2791072#7390","owner":"李世強","start":"20190901","end":"20241231"},{"name":"嘉義縣竹崎鄉義和社區發展協會","code":"BF1300075","type":"BF","city":"10010","town":"10010140","addr":"嘉義縣竹崎鄉義和村2鄰山子門23號","lng":120.498962,"lat":23.507986,"abc":"C","service":"巷弄長照站","zones":["10010140"],"phone":"05-2110959","owner":"鄭庚辛","start":"20190801","end":"20241231"},{"name":"嘉義縣竹崎鄉復金社區發展協會","code":"BF1300076","type":"BF","city":"10010","town":"10010140","addr":"嘉義縣竹崎鄉復金村覆鼎金59-1號","lng":120.569443,"lat":23.528229,"abc":"C","service":"巷弄長照站","zones":["10010140"],"phone":"0937-557999","owner":"劉國輝","start":"20190801","end":"20241231"},{"name":"嘉義縣竹崎鄉昇平社區發展協會","code":"BF1300077","type":"BF","city":"10010","town":"10010140","addr":"嘉義縣竹崎鄉昇平村頂埔6鄰96-1號","lng":120.564705,"lat":23.475525,"abc":"C","service":"巷弄長照站","zones":["10010140"],"phone":" 0937-354398","owner":"林進文","start":"20190801","end":"20241231"},{"name":"嘉義縣水上鄉農會","code":"BF1300079","type":"BF","city":"10010","town":"10010120","addr":"嘉義縣水上鄉中庄村8號","lng":120.43573,"lat":23.425253,"abc":"C","service":"巷弄長照站","zones":["10010120"],"phone":"05-2682010","owner":"江宗勳","start":"20190901","end":"20241231"},{"name":"嘉義縣大埔鄉衛生所","code":"B21300021","type":"B2","city":"10010","town":"10010170","addr":"嘉義縣大埔鄉大埔村大埔53號之1","lng":120.586929,"lat":23.298695,"abc":"C","service":"巷弄長照站","zones":["10010170"],"phone":"05-2521214","owner":"陳永儒","start":"20190101","end":"20211231"},{"name":"嘉義縣東石鄉衛生所","code":"B21300008","type":"B2","city":"10010","town":"10010090","addr":"嘉義縣東石鄉東石村東石3號之7","lng":120.154099,"lat":23.45924,"abc":"C","service":"巷弄長照站","zones":["10010090"],"phone":"05-3732340","owner":"蔡怡瑩","start":"20190101","end":"20211231"},{"name":"嘉義縣番路鄉衛生所","code":"B21300019","type":"B2","city":"10010","town":"10010160","addr":"嘉義縣番路鄉下坑村菜公店60號","lng":120.554016,"lat":23.463354,"abc":"C","service":"巷弄長照站","zones":["10010160"],"phone":"05-2591148","owner":"林文淵","start":"20190101","end":"20211231"},{"name":"嘉義縣鹿草鄉衛生所","code":"B21300011","type":"B2","city":"10010","town":"10010110","addr":"嘉義縣鹿草鄉西井村長壽路226巷2號","lng":120.307686,"lat":23.411802,"abc":"C","service":"巷弄長照站","zones":["10010110"],"phone":"05-3752080","owner":"楊秉勳","start":"20190101","end":"20211231"},{"name":"嘉義縣水上鄉衛生所","code":"B21300012","type":"B2","city":"10010","town":"10010120","addr":"嘉義縣水上鄉水上村正義路145號","lng":120.397675,"lat":23.428066,"abc":"B","service":"居家失能個案家庭醫師照護服務","zones":["10010030"],"phone":"05-2682059","owner":"李宗翰","start":"20240101","end":"20281231"},{"name":"嘉義縣布袋鎮衛生所","code":"B21300007","type":"B2","city":"10010","town":"10010030","addr":"嘉義縣布袋鎮新厝里21號","lng":120.169899,"lat":23.381451,"abc":"B","service":"居家失能個案家庭醫師照護服務","zones":["10010030"],"phone":"05-3472032","owner":"黃嘉文","start":"20240101","end":"20281231"},{"name":"嘉義縣阿里山鄉衛生所","code":"B21300013","type":"B2","city":"10010","town":"10010180","addr":"嘉義縣阿里山鄉樂野村樂野3鄰97之2號","lng":120.701866,"lat":23.466516,"abc":"B","service":"居家失能個案家庭醫師照護服務","zones":["10010030"],"phone":"05-2561573","owner":"溫明富","start":"20240101","end":"20281231"},{"name":"嘉義縣鹿草鄉衛生所","code":"B21300011","type":"B2","city":"10010","town":"10010110","addr":"嘉義縣鹿草鄉西井村長壽路226巷2號","lng":120.307686,"lat":23.411802,"abc":"B","service":"居家失能個案家庭醫師照護服務","zones":["10010030"],"phone":"05-3752080","owner":"楊秉勳","start":"20240101","end":"20281231"},{"name":"嘉義縣梅山鄉衛生所","code":"B21300022","type":"B2","city":"10010","town":"10010150","addr":"嘉義縣梅山鄉梅北村華山路18號","lng":120.555595,"lat":23.586552,"abc":"B","service":"居家失能個案家庭醫師照護服務","zones":["10010030"],"phone":"05-2621049","owner":"劉明貞","start":"20240101","end":"20281231"},{"name":"嘉義縣中埔鄉衛生所","code":"B21300020","type":"B2","city":"10010","town":"10010130","addr":"嘉義縣中埔鄉中埔村中正路6號","lng":120.523903,"lat":23.423429,"abc":"B","service":"居家失能個案家庭醫師照護服務","zones":["10010030"],"phone":"05-2531008","owner":"郭欽雄","start":"20240101","end":"20281231"},{"name":"嘉義長庚醫院-溪洲村活動中心","code":"B21300060","type":"B2","city":"10010","town":"10010100","addr":"嘉義縣義竹鄉溪洲村65號","lng":120.242599,"lat":23.391203,"abc":"C","service":"巷弄長照站","zones":["10010100"],"phone":"05-3621000#2177","owner":"楊仁宗","start":"20190901","end":"20211231"},{"name":"嘉義長庚醫院-中安里活動中心","code":"B21300061","type":"B2","city":"10010","town":"10010030","addr":"嘉義縣布袋鎮中安里8鄰過溝頂厝71號","lng":120.181564,"lat":23.418287,"abc":"C","service":"巷弄長照站","zones":["10010030"],"phone":"05-3621000#2177","owner":"楊仁宗","start":"20190901","end":"20211231"},{"name":"社團法人台灣長期照護推廣協會附設嘉義縣私立福佑居家長照機構","code":"1R1300002","type":"1","city":"10010","town":"10010020","addr":"嘉義縣朴子市大葛里朴子三路179號","lng":120.288528,"lat":23.459669,"abc":"B","service":"居家服務","zones":["10010010","10010020","10010030","10010040","10010060","10010070","10010080","10010090","10010100","10010110","10010120","10010130","10010150","10010160","10010170"],"phone":"05-3628158","owner":"柯冠妤","start":"20210101","end":"20271231"},{"name":"嘉義縣新港鄉衛生所","code":"B21300016","type":"B2","city":"10010","town":"10010070","addr":"嘉義縣新港鄉宮後村嘉民北路5號","lng":120.347565,"lat":23.552404,"abc":"B","service":"居家失能個案家庭醫師照護服務","zones":["10010070"],"phone":"05-3742025","owner":"林吟珮","start":"20240101","end":"20281231"},{"name":"白惠文診所(嘉義縣)","code":"B21300063","type":"B2","city":"10010","town":"10010070","addr":"嘉義縣新港鄉宮前村9鄰中山路81號","lng":120.347527,"lat":23.554577,"abc":"B","service":"居家失能個案家庭醫師照護服務","zones":["10010020","10010070"],"phone":"052752338","owner":"白惠文","start":"20191119","end":"20201231"},{"name":"大林慈濟醫院-梅山圳北村社區活動中心","code":"BD1300041","type":"BD","city":"10010","town":"10010150","addr":"嘉義縣梅山鄉圳北村3鄰麻園寮27號","lng":120.572517,"lat":23.57571,"abc":"C","service":"巷弄長照站","zones":["10010150"],"phone":"05-2648000","owner":"賴寧生","start":"20190901","end":"20211231"},{"name":"大林慈濟醫院-松山村社區活動中心","code":"BD1300042","type":"BD","city":"10010","town":"10010050","addr":"嘉義縣民雄鄉松山村5鄰51之2號","lng":120.476463,"lat":23.540161,"abc":"C","service":"巷弄長照站","zones":["10010050"],"phone":"05-2648000#5292","owner":"賴寧生","start":"20190901","end":"20211231"},{"name":"大林慈濟醫院-民雄鄉鎮北村活動中心","code":"BD1300043","type":"BD","city":"10010","town":"10010050","addr":"嘉義縣民雄鄉鎮北村7鄰土庫子24號之2","lng":120.449799,"lat":23.576576,"abc":"C","service":"巷弄長照站","zones":["10010050"],"phone":"05-2648000#5292","owner":"賴寧生","start":"20190901","end":"20211231"},{"name":"衛生福利部朴子醫院附設社區長照機構","code":"2A1300001","type":"2","city":"10010","town":"10010020","addr":"嘉義縣朴子市永和里42之50號","lng":120.234634,"lat":23.464434,"abc":"B","service":"日間照顧服務(BB)","zones":["10010010","10010020","10010030","10010040","10010050","10010060","10010070","10010080","10010090","10010100","10010110","10010120","10010130","10010140","10010150","10010160","10010170","10010180"],"phone":"05-3790600#243","owner":"曹承榮","start":"20191101","end":"20271231"},{"name":"嘉安藥局","code":"B31300008","type":"B3","city":"10010","town":"10010010","addr":"嘉義縣太保市麻寮里麻寮中山路二段46號","lng":120.374535,"lat":23.499208,"abc":"C","service":"巷弄長照站","zones":["10010010"],"phone":"05-2387670","owner":"黃永志","start":"20180101","end":"20210131"},{"name":"國泰診所-中樂巷弄長照站","code":"B21300064","type":"B2","city":"10010","town":"10010050","addr":"嘉義縣民雄鄉中樂村復興路33號","lng":120.430267,"lat":23.556965,"abc":"C","service":"巷弄長照站","zones":["10010050"],"phone":"0912515846","owner":"汪淑娟","start":"20190401","end":"20211231"},{"name":"嘉義縣布袋鎮衛生所","code":"B21300007","type":"B2","city":"10010","town":"10010030","addr":"嘉義縣布袋鎮新厝里21號","lng":120.169899,"lat":23.381451,"abc":"C","service":"巷弄長照站","zones":["10010030"],"phone":"05-3472032","owner":"黃嘉文","start":"20240101","end":"20281231"},{"name":"長春居家物理治療所-建德宮","code":"B41300006","type":"B4","city":"10010","town":"10010030","addr":"嘉義縣布袋鎮西安里過溝廈厝30之22號","lng":120.180786,"lat":23.416088,"abc":"C","service":"巷弄長照站","zones":["10010030"],"phone":"0985338807","owner":"邱潔俞","start":"20190901","end":"20211231"},{"name":"嘉義縣大林鎮衛生所","code":"B21300014","type":"B2","city":"10010","town":"10010040","addr":"嘉義縣大林鎮平林里中山路252號","lng":120.45562,"lat":23.606922,"abc":"C","service":"巷弄長照站","zones":["10010040"],"phone":"05-2652042","owner":"喬嘉","start":"20240101","end":"20281231"},{"name":"嘉義縣竹崎鄉衛生所","code":"B21300018","type":"B2","city":"10010","town":"10010140","addr":"嘉義縣竹崎鄉竹崎村文化路19之1號","lng":120.552116,"lat":23.521408,"abc":"C","service":"巷弄長照站","zones":["10010140"],"phone":"05-2611264","owner":"陳雅雯","start":"20240101","end":"20281231"},{"name":"嘉義縣阿里山鄉衛生所","code":"B21300013","type":"B2","city":"10010","town":"10010180","addr":"嘉義縣阿里山鄉樂野村樂野3鄰97之2號","lng":120.701866,"lat":23.466516,"abc":"C","service":"巷弄長照站","zones":["10010180"],"phone":"05-2561573","owner":"溫明富","start":"20240101","end":"20281231"},{"name":"陽明醫院附設護理之家(下麻巷弄長照站)","code":"B21300066","type":"B2","city":"10010","town":"10010110","addr":"嘉義縣鹿草鄉下麻村麻豆店5-7號","lng":120.346687,"lat":23.408363,"abc":"C","service":"巷弄長照站","zones":["10010110"],"phone":"05-2225200#1257","owner":"謝景詳","start":"20190901","end":"20211231"},{"name":"陽明醫院附設護理之家(民和)","code":"B21300067","type":"B2","city":"10010","town":"10010150","addr":"嘉義縣梅山鄉安靖村3鄰柿仔寮3號","lng":120.577187,"lat":23.553318,"abc":"C","service":"巷弄長照站","zones":["10010150"],"phone":"05-2225200#1257","owner":"謝景詳","start":"20190901","end":"20211231"},{"name":"陽明醫院附設護理之家(施家)","code":"B21300068","type":"B2","city":"10010","town":"10010110","addr":"嘉義縣鹿草鄉施家村嘉義縣鹿草鄉施家村2鄰施家寮91號","lng":120.314491,"lat":23.391968,"abc":"C","service":"巷弄長照站","zones":["10010110"],"phone":"05-2225200#1257","owner":"謝景詳","start":"20190901","end":"20211231"},{"name":"陽明醫院附設護理之家(雙溪)","code":"B21300070","type":"B2","city":"10010","town":"10010150","addr":"嘉義縣梅山鄉双溪村陽明醫院","lng":120.544228,"lat":23.565603,"abc":"C","service":"巷弄長照站","zones":["10010150"],"phone":"05-2225200#1257","owner":"謝景詳","start":"20190901","end":"20211231"},{"name":"陽明醫院附設護理之家(新店)","code":"B21300071","type":"B2","city":"10010","town":"10010100","addr":"嘉義縣義竹鄉新店村2號","lng":120.197868,"lat":23.337124,"abc":"C","service":"巷弄長照站","zones":["10010100"],"phone":"05-2225200#1257","owner":"謝景詳","start":"20190901","end":"20211231"},{"name":"嘉義縣水上鄉衛生所","code":"B21300012","type":"B2","city":"10010","town":"10010120","addr":"嘉義縣水上鄉水上村正義路145號","lng":120.397675,"lat":23.428066,"abc":"C","service":"巷弄長照站","zones":["10010120"],"phone":"05-2682059","owner":"李宗翰","start":"20240101","end":"20281231"},{"name":"臺中榮民總醫院嘉義分院-中庄","code":"B21300073","type":"B2","city":"10010","town":"10010120","addr":"嘉義縣水上鄉中庄村16鄰40之2號","lng":120.433037,"lat":23.424465,"abc":"C","service":"巷弄長照站","zones":["10010120"],"phone":"05-2359630","owner":"李世強","start":"20190901","end":"20211231"},{"name":"嘉義縣中埔鄉衛生所","code":"B21300020","type":"B2","city":"10010","town":"10010130","addr":"嘉義縣中埔鄉中埔村中正路6號","lng":120.523903,"lat":23.423429,"abc":"C","service":"巷弄長照站","zones":["10010130"],"phone":"05-2531008","owner":"郭欽雄","start":"20240101","end":"20281231"},{"name":"嘉義縣義竹鄉衛生所","code":"B21300010","type":"B2","city":"10010","town":"10010100","addr":"嘉義縣義竹鄉仁里村422號之1","lng":120.242821,"lat":23.337069,"abc":"C","service":"巷弄長照站","zones":["10010100"],"phone":"05-3415555","owner":"黃梅菊","start":"20190501","end":"20221231"},{"name":"嘉義縣梅山鄉衛生所","code":"B21300022","type":"B2","city":"10010","town":"10010150","addr":"嘉義縣梅山鄉梅北村華山路18號","lng":120.555595,"lat":23.586552,"abc":"C","service":"巷弄長照站","zones":["10010150"],"phone":"05-2621049","owner":"劉明貞","start":"20190501","end":"20221230"},{"name":"陽明醫院附設護理之家(和平)","code":"B21300074","type":"B2","city":"10010","town":"10010140","addr":"嘉義縣竹崎鄉和平村5鄰坑仔坪139之1號","lng":120.549271,"lat":23.517439,"abc":"C","service":"巷弄長照站","zones":["10010140"],"phone":"05-2225200#1257","owner":"謝景詳","start":"20190901","end":"20221231"},{"name":"嘉義縣民雄鄉衛生所","code":"B21300015","type":"B2","city":"10010","town":"10010050","addr":"嘉義縣民雄鄉中樂村文化路7號之2","lng":120.428452,"lat":23.551538,"abc":"C","service":"巷弄長照站","zones":["10010050"],"phone":"05-2262018","owner":"曾玉枝","start":"20190401","end":"20211230"},{"name":"嘉義縣朴子市衛生所","code":"B21300006","type":"B2","city":"10010","town":"10010020","addr":"嘉義縣朴子市安福里光復路40號","lng":120.246582,"lat":23.465593,"abc":"C","service":"巷弄長照站","zones":["10010020"],"phone":"05-3792037","owner":"王淑茹","start":"20190701","end":"20221231"},{"name":"大林樂齡居家物理治療所-沙坑","code":"B41300007","type":"B4","city":"10010","town":"10010140","addr":"嘉義縣竹崎鄉沙坑村61號","lng":120.51944,"lat":23.529163,"abc":"C","service":"巷弄長照站","zones":["10010140"],"phone":"0978119807","owner":"黃詠琳","start":"20190901","end":"20221229"},{"name":"大林樂齡居家物理治療所-灣南灣北","code":"B41300008","type":"B4","city":"10010","town":"10010080","addr":"嘉義縣六腳鄉灣南村28號","lng":120.30925,"lat":23.49691,"abc":"C","service":"巷弄長照站","zones":["10010080"],"phone":"0978119807","owner":"黃詠琳","start":"20190901","end":"20221230"},{"name":"大林樂齡居家物理治療所-朴子雙溪口","code":"B41300009","type":"B4","city":"10010","town":"10010020","addr":"嘉義縣朴子市双溪里40之2號","lng":120.279198,"lat":23.48517,"abc":"C","service":"巷弄長照站","zones":["10010020"],"phone":"0978119807","owner":"黃詠琳","start":"20190901","end":"20211231"},{"name":"財團法人嘉義縣私立天主教安道社會福利慈善事業基金會附設嘉義縣私立雅敬社區長照機構","code":"2S1300008","type":"2","city":"10010","town":"10010040","addr":"嘉義縣大林鎮平林里東榮街40號3樓","lng":120.457588,"lat":23.60504,"abc":"B","service":"日間照顧服務(BB)","zones":["10010010","10010020","10010030","10010040","10010050","10010060","10010070","10010080","10010090","10010100","10010110","10010120","10010130","10010140","10010150","10010160","10010170","10010180"],"phone":"05-2650889","owner":"浦英雄","start":"20200101","end":"20281231"},{"name":"嘉義長庚醫院-菜舖里","code":"B21300075","type":"B2","city":"10010","town":"10010030","addr":"嘉義縣布袋鎮菜舖里菜舖廍70號","lng":120.216896,"lat":23.389511,"abc":"C","service":"巷弄長照站","zones":["10010030"],"phone":"05-2648000#5292","owner":"楊仁宗","start":"20190901","end":"20221231"},{"name":"衛生福利部朴子醫院-鰲鼓","code":"B21300077","type":"B2","city":"10010","town":"10010090","addr":"嘉義縣東石鄉鰲鼓村鰲鼓5鄰43之1號","lng":120.172501,"lat":23.494238,"abc":"C","service":"巷弄長照站","zones":["10010090"],"phone":"05-3790600#321","owner":"賴仲亮","start":"20190901","end":"20221231"},{"name":"大林慈濟醫院-游東活動中心","code":"B21300078","type":"B2","city":"10010","town":"10010060","addr":"嘉義縣溪口鄉游東村嘉義縣溪口鄉游東村１０鄰游厝庄７３號之１","lng":120.401794,"lat":23.617531,"abc":"C","service":"巷弄長照站","zones":["10010060"],"phone":"05-2648000#5292","owner":"賴寧生","start":"20190901","end":"20211231"},{"name":"衛生福利部朴子醫院-塭港","code":"B21300079","type":"B2","city":"10010","town":"10010090","addr":"嘉義縣東石鄉塭港村19鄰200號","lng":120.146347,"lat":23.470648,"abc":"C","service":"巷弄長照站","zones":["10010090"],"phone":"05-3790600#321","owner":"賴仲亮","start":"20190901","end":"20211231"},{"name":"嘉義縣私立溫心社區式服務類長期照顧服務機構","code":"2X1300006","type":"2","city":"10010","town":"10010010","addr":"嘉義縣太保市舊埤里21鄰新埤7-233號","lng":120.347015,"lat":23.491762,"abc":"B","service":"家庭托顧服務(BC)","zones":["10010010","10010020","10010030","10010040","10010050","10010060","10010070","10010080","10010090","10010100","10010110","10010120","10010130","10010140","10010150","10010160","10010170","10010180"],"phone":"05-3613683","owner":"陳賽琴","start":"20200201","end":"20281231"},{"name":"嘉義縣私立永馨社區式服務類長期照顧服務機構","code":"2X1300005","type":"2","city":"10010","town":"10010120","addr":"嘉義縣水上鄉粗溪村4鄰粗溪38-16號","lng":120.3974,"lat":23.435545,"abc":"B","service":"家庭托顧服務(BC)","zones":["10010010","10010020","10010030","10010040","10010050","10010060","10010070","10010080","10010090","10010100","10010110","10010120","10010130","10010140","10010150","10010160","10010170","10010180"],"phone":"05-2601069","owner":"曾靜蝶","start":"20200201","end":"20281231"},{"name":"春日禾社會企業股份有限公司附設嘉義縣私立春日禾居家長照機構","code":"1R1300003","type":"1","city":"10010","town":"10010010","addr":"嘉義縣太保市安仁里太保二路39號","lng":120.295746,"lat":23.458614,"abc":"B","service":"居家服務","zones":["10010100","10010110","10010120"],"phone":"05-3625593","owner":"黃起富","start":"20210101","end":"20261231"},{"name":"社團法人台灣立享長照服務教育發展協會附設嘉義縣私立立享居家長照機構","code":"1R1300004","type":"1","city":"10010","town":"10010020","addr":"嘉義縣朴子市竹圍里16鄰光復新路89號","lng":120.245193,"lat":23.457678,"abc":"B","service":"居家服務","zones":["10010010","10010020","10010030","10010040","10010060","10010070","10010080","10010090","10010100","10010110","10010120","10010150"],"phone":"05-3706685","owner":"王淳中","start":"20210101","end":"20271231"},{"name":"佛教慈濟醫療財團法人大林慈濟醫院梅大林環保教育站","code":"B21300085","type":"B2","city":"10010","town":"10010040","addr":"嘉義縣大林鎮平林里民生路2號","lng":120.457451,"lat":23.596312,"abc":"C","service":"巷弄長照站","zones":["10010040"],"phone":"05-2648000 轉1168","owner":"賴寧生","start":"20190301","end":"20211231"},{"name":"長春居家物理治療所-西崙","code":"B41300011","type":"B4","city":"10010","town":"10010090","addr":"嘉義縣東石鄉西崙村嘉義縣東石鄉第4鄰97-1號","lng":120.187012,"lat":23.432842,"abc":"C","service":"巷弄長照站","zones":["10010090"],"phone":"0985338807","owner":"邱潔俞","start":"20190301","end":"20220501"},{"name":"嘉義縣太保市衛生所","code":"B21300005","type":"B2","city":"10010","town":"10010010","addr":"嘉義縣太保市後潭里443號","lng":120.33947,"lat":23.452932,"abc":"C","service":"巷弄長照站","zones":["10010010"],"phone":"05-3711273","owner":"林家弘","start":"20190301","end":"20211130"},{"name":"嘉義縣新港鄉衛生所","code":"B21300016","type":"B2","city":"10010","town":"10010070","addr":"嘉義縣新港鄉宮後村嘉民北路5號","lng":120.347565,"lat":23.552404,"abc":"C","service":"巷弄長照站","zones":["10010070"],"phone":"05-3742025","owner":"林吟珮","start":"20190301","end":"20210331"},{"name":"戴德森醫療財團法人嘉義基督教醫院-營養餐飲","code":"B21300086","type":"B2","city":"10010","town":"10010050","addr":"嘉義縣民雄鄉北斗村北勢子95之9號","lng":120.458168,"lat":23.534681,"abc":"B","service":"營養餐飲服務","zones":["10010010","10010020","10010030","10010040","10010050","10010060","10010070","10010080","10010090","10010100","10010110","10010120","10010130","10010140","10010150","10010160","10010170","10010180"],"phone":"05-2212120","owner":"陳煒","start":"20200101","end":"20211231"},{"name":"財團法人嘉義縣私立天主教安道社會福利慈善事業基金會","code":"BD1300044","type":"BD","city":"10010","town":"10010020","addr":"嘉義縣朴子市順天里5鄰開元路258號","lng":120.242706,"lat":23.466015,"abc":"B","service":"社區式交通接送服務(BD03)","zones":["10010020","10010030","10010090","10010100"],"phone":"(05)3703168#27","owner":"鍾安住","start":"20200101","end":"20281231"},{"name":"共樂居家護理所","code":"B11300029","type":"B1","city":"10010","town":"10010100","addr":"嘉義縣義竹鄉六桂村2鄰義竹154之27號","lng":120.245544,"lat":23.338717,"abc":"B","service":"專業照護服務","zones":["10010010","10010020","10010030","10010070","10010080","10010090","10010100","10010110","10010120","10010130","10010160","10010170"],"phone":"0911020210","owner":"郭芳雅","start":"20240101","end":"20281231"},{"name":"佛教慈濟醫療財團法人附設大林慈濟居家護理所","code":"B11300030","type":"B1","city":"10010","town":"10010040","addr":"嘉義縣大林鎮平林里民生路2號","lng":120.457451,"lat":23.596312,"abc":"B","service":"專業照護服務","zones":["10010040","10010050","10010060","10010070","10010140","10010150"],"phone":"05-2648000#5429","owner":"簡玉婷","start":"20210101","end":"20240630"},{"name":"奉天宮濟公廟","code":"BF1300080","type":"BF","city":"10010","town":"10010120","addr":"嘉義縣水上鄉寬士村25鄰崎仔頭736-1號","lng":120.431953,"lat":23.447029,"abc":"C","service":"巷弄長照站","zones":["10010120"],"phone":"05-2352649","owner":"鄭火炎","start":"20200101","end":"20241231"},{"name":"社團法人嘉義縣仁里慈濟會","code":"BE1300027","type":"BE","city":"10010","town":"10010130","addr":"嘉義縣中埔鄉社口村檨仔林路43-20號","lng":120.542229,"lat":23.4445,"abc":"C","service":"巷弄長照站","zones":["10010130"],"phone":"05-2533441","owner":"黃國寶","start":"20200101","end":"20241231"},{"name":"嘉義縣六腳鄉蘇厝社區發展協會","code":"BF1300081","type":"BF","city":"10010","town":"10010080","addr":"嘉義縣六腳鄉蘇厝村82號","lng":120.29998,"lat":23.559017,"abc":"C","service":"巷弄長照站","zones":["10010080"],"phone":"0921306246","owner":"姚蔡春美","start":"20200101","end":"20241231"},{"name":"嘉義縣新港鄉馨園社區發展協會","code":"BF1300082","type":"BF","city":"10010","town":"10010070","addr":"嘉義縣新港鄉宮前村公園路28-1號3樓","lng":120.34565,"lat":23.553379,"abc":"C","service":"巷弄長照站","zones":["10010070"],"phone":"05-3749386","owner":"曾敏欽","start":"20200101","end":"20241231"},{"name":"特富野文化健康站","code":"BF1300083","type":"BF","city":"10010","town":"10010180","addr":"嘉義縣阿里山鄉特富野8鄰197號","lng":120.758369,"lat":23.463478,"abc":"C","service":"巷弄長照站","zones":["10010180"],"phone":"05-2511328","owner":"陳婉琳","start":"20200101","end":"20201231"},{"name":"嘉義縣私立養生老人長期照顧中心（養護型）","code":"A11300016","type":"A1","city":"10010","town":"10010140","addr":"嘉義縣竹崎鄉灣橋村6鄰李厝10-1號","lng":120.525139,"lat":23.493708,"abc":"B","service":"喘息服務","zones":["10010010","10010020","10010030","10010040","10010050","10010060","10010070","10010080","10010090","10010100","10010110","10010120","10010130","10010140","10010150","10010160","10010170","10010180"],"phone":"05-2791700","owner":"劉易青","start":"20210101","end":"20281231","beds":49,"residents":47},{"name":"財團法人台南市私立萬安社會福利慈善事業基金會附設嘉義縣私立萬安居家長照機構","code":"1S1300004","type":"1","city":"10010","town":"10010050","addr":"嘉義縣民雄鄉中樂村文化路1之23號1樓","lng":120.428505,"lat":23.550812,"abc":"B","service":"居家服務","zones":["10010010","10010040","10010050","10010060","10010070","10010080","10010140","10010150","10010180"],"phone":"05-2265020","owner":"盧振華","start":"20210101","end":"20271231"},{"name":"和融健康產業股份有限公司附設私立和融居家長照機構","code":"1V1300001","type":"1","city":"10010","town":"10010100","addr":"嘉義縣義竹鄉岸腳村59-26號1樓","lng":120.251488,"lat":23.340986,"abc":"B","service":"居家服務","zones":["10010040","10010060","10010100","10010110","10010120","10010150"],"phone":"05-3412889","owner":"林雨正","start":"20210101","end":"20261231"},{"name":"嘉義縣太保市新埤社區發展協會","code":"BF1300084","type":"BF","city":"10010","town":"10010010","addr":"嘉義縣太保市舊埤里52-11號","lng":120.333336,"lat":23.491081,"abc":"C","service":"巷弄長照站","zones":["10010010"],"phone":"0933379505","owner":"劉金枝","start":"20200106","end":"20241231"},{"name":"慶昇醫療社團法人慶昇醫院-柳鄉C級巷弄長照站","code":"BE1200014","type":"BE","city":"10010","town":"10010120","addr":"嘉義縣水上鄉柳鄉村4鄰柳子林97號","lng":120.443977,"lat":23.480028,"abc":"C","service":"巷弄長照站","zones":["10010120"],"phone":"05-2229191#886","owner":"黃旭揚","start":"20200501","end":"20251223"},{"name":"慶昇醫療社團法人慶昇醫院-美南C級巷弄長照站","code":"B21200050","type":"B2","city":"10010","town":"10010060","addr":"嘉義縣溪口鄉美南村8鄰崙尾139-2號","lng":120.443977,"lat":23.480028,"abc":"C","service":"巷弄長照站","zones":["10010060"],"phone":"05-2229191#886","owner":"黃旭揚","start":"20200501","end":"20231231"},{"name":"慶昇醫療社團法人慶昇醫院-西安歡樂 健康興進 C級巷弄長照站","code":"B21200051","type":"B2","city":"10010","town":"10010050","addr":"嘉義縣民雄鄉西安村民溪路69號","lng":120.443977,"lat":23.480028,"abc":"C","service":"巷弄長照站","zones":["10010050"],"phone":"05-2229191#886","owner":"黃旭揚","start":"20200501","end":"20231231"},{"name":"慶昇醫療社團法人慶昇醫院-竹旺大林 健康西林 C級巷弄長照站","code":"B21200052","type":"B2","city":"10010","town":"10010040","addr":"嘉義縣大林鎮西林里中正路408號","lng":120.452629,"lat":23.601151,"abc":"C","service":"巷弄長照站","zones":["10010040"],"phone":"05-2229191#886","owner":"黃旭揚","start":"20200501","end":"20231231"},{"name":"陽明醫院附設護理之家(龍蛟)","code":"A31300026","type":"A3","city":"10010","town":"10010100","addr":"嘉義縣義竹鄉龍蛟村嘉義縣義竹鄉龍蛟村龍蛟潭170號","lng":120.224335,"lat":23.370996,"abc":"C","service":"巷弄長照站","zones":["10010100"],"phone":"05-2225200#1257","owner":"謝景祥","start":"20200501","end":"20231231","beds":60},{"name":"全安藥局-全安診所巷弄長照站","code":"B31300017","type":"B3","city":"10010","town":"10010070","addr":"嘉義縣新港鄉宮前村全安藥局","lng":120.349083,"lat":23.553301,"abc":"C","service":"巷弄長照站","zones":["10010070"],"phone":"0986112606","owner":"趙坤賢","start":"20200501","end":"20231231"},{"name":"喜樂園長照股份有限公司附設嘉義縣私立喜樂園居家長照機構","code":"1V1300002","type":"1","city":"10010","town":"10010040","addr":"嘉義縣大林鎮中正路442之1號","lng":120.382019,"lat":23.4977,"abc":"B","service":"居家服務","zones":["10010040","10010050","10010060","10010100","10010110","10010120","10010140","10010150","10010180"],"phone":"05-2376222","owner":"張經緯","start":"20210101","end":"20281231"},{"name":"平安診所-岑海里長青會","code":"B21300087","type":"B2","city":"10010","town":"10010030","addr":"嘉義縣布袋鎮岑海里新北一街122號","lng":120.152069,"lat":23.38088,"abc":"C","service":"巷弄長照站","zones":["10010030"],"phone":"0905-065-163","owner":"曾仁德","start":"20200501","end":"20131231"},{"name":"平安診所-岑海里長青會","code":"B21300087","type":"B2","city":"10010","town":"10010030","addr":"嘉義縣布袋鎮岑海里新北一街122號","lng":120.152069,"lat":23.38088,"abc":"C","service":"巷弄長照站","zones":["10010030"],"phone":"0905-065-163","owner":"曾仁德","start":"20200501","end":"20211231"},{"name":"臺中榮總嘉義分院-三界","code":"B21300088","type":"B2","city":"10010","town":"10010120","addr":"嘉義縣水上鄉三界村嘉義縣水上鄉三界村9鄰196號","lng":120.472588,"lat":23.430046,"abc":"C","service":"巷弄長照站","zones":["10010120"],"phone":"05-2359630","owner":"李世強","start":"20200501","end":"20240724"},{"name":"大林樂齡居家物理治療所-溪口游西","code":"B41300013","type":"B4","city":"10010","town":"10010060","addr":"嘉義縣溪口鄉嘉義縣溪口鄉游西村3鄰潭肚寮56號-1","lng":120.393784,"lat":23.617188,"abc":"C","service":"巷弄長照站","zones":["10010060"],"phone":"0978119807","owner":"黃詠琳","start":"20200501","end":"20231231"},{"name":"大林樂齡居家物理治療所-溪口溪西","code":"B41300014","type":"B4","city":"10010","town":"10010060","addr":"嘉義縣溪口鄉溪西村166號","lng":120.395882,"lat":23.603386,"abc":"C","service":"巷弄長照站","zones":["10010060"],"phone":"0978119807","owner":"黃詠琳","start":"20200501","end":"20231226"},{"name":"樂鄰居家職能治療所-德家","code":"B51300007","type":"B5","city":"10010","town":"10010020","addr":"嘉義縣朴子市德家里嘉義縣朴子市德家里6鄰吳竹子繳51-1號","lng":120.24955,"lat":23.423555,"abc":"C","service":"巷弄長照站","zones":["10010020"],"phone":"0966128196","owner":"楊景瀚","start":"20200501","end":"20231221"},{"name":"社團法人台灣長期照護推廣協會附設嘉義縣私立福佑居家長照機構","code":"1R1300002","type":"1","city":"10010","town":"10010020","addr":"嘉義縣朴子市大葛里朴子三路179號","lng":120.288528,"lat":23.459669,"abc":"B","service":"喘息服務","zones":["10010010","10010020","10010030","10010040","10010060","10010070","10010080","10010090","10010100","10010110","10010120","10010130","10010150","10010160","10010170"],"phone":"05-3628158","owner":"柯冠妤","start":"20210101","end":"20281231"},{"name":"春日禾社會企業股份有限公司附設嘉義縣私立春日禾居家長照機構","code":"1R1300003","type":"1","city":"10010","town":"10010010","addr":"嘉義縣太保市安仁里太保二路39號","lng":120.295746,"lat":23.458614,"abc":"B","service":"喘息服務","zones":["10010100","10010110","10010120"],"phone":"05-3625593","owner":"黃起富","start":"20210101","end":"20281231"},{"name":"財團法人台南市私立萬安社會福利慈善事業基金會附設嘉義縣私立萬安居家長照機構","code":"1S1300004","type":"1","city":"10010","town":"10010050","addr":"嘉義縣民雄鄉中樂村文化路1之23號1樓","lng":120.428505,"lat":23.550812,"abc":"B","service":"喘息服務","zones":["10010010","10010040","10010050","10010060","10010070","10010080","10010140","10010150","10010180"],"phone":"05-2265020","owner":"盧振華","start":"20210101","end":"20281231"},{"name":"孝親護理之家","code":"A31300004","type":"A3","city":"10010","town":"10010120","addr":"嘉義縣水上鄉南和村後寮2-2號","lng":120.364693,"lat":23.410686,"abc":"B","service":"喘息服務","zones":["10010010","10010020","10010030","10010040","10010050","10010060","10010070","10010080","10010090","10010100","10010110","10010120","10010130","10010140","10010150","10010160","10010170","10010180"],"phone":"05-2683858","owner":"王敏宇","start":"20210101","end":"20281231","beds":138,"residents":107},{"name":"樂鄰居家職能治療所-崁後","code":"B51300008","type":"B5","city":"10010","town":"10010020","addr":"嘉義縣朴子市崁後里嘉義縣朴子市崁後里5鄰37-9號附1","lng":120.22908,"lat":23.447557,"abc":"C","service":"巷弄長照站","zones":["10010020"],"phone":"0966128196","owner":"楊景瀚","start":"20200101","end":"20231231"},{"name":"嘉義縣太保市舊埤社區發展協會","code":"BF1300085","type":"BF","city":"10010","town":"10010010","addr":"嘉義縣太保市舊埤里新平路35號","lng":120.340111,"lat":23.498062,"abc":"C","service":"巷弄長照站","zones":["10010010"],"phone":"0955800857","owner":"蘇逸婷","start":"20200114","end":"20241231"},{"name":"健安健保藥局(六斗社區)","code":"B31300018","type":"B3","city":"10010","town":"10010080","addr":"嘉義縣六腳鄉六斗村嘉義縣六腳鄉六斗村六斗尾2鄰12號","lng":120.286697,"lat":23.541267,"abc":"C","service":"巷弄長照站","zones":["10010080"],"phone":"0926209557","owner":"黃居文","start":"20200501","end":"20221231"},{"name":"佛教慈濟醫療財團法人大林慈濟醫院鹿草村","code":"B21300089","type":"B2","city":"10010","town":"10010110","addr":"嘉義縣鹿草鄉鹿草村嘉義縣鹿草鄉鹿草村3鄰圓山路218號3樓","lng":120.308777,"lat":23.415409,"abc":"C","service":"巷弄長照站","zones":["10010110"],"phone":"05-2648000#1168","owner":"賴寧生","start":"20200501","end":"20221201"},{"name":"臺中榮總嘉義分院-忠和","code":"B21300090","type":"B2","city":"10010","town":"10010120","addr":"嘉義縣水上鄉忠和村忠和","lng":120.4356,"lat":23.417007,"abc":"C","service":"巷弄長照站","zones":["10010120"],"phone":"05-2359630","owner":"李世強","start":"20200501","end":"20221231"},{"name":"陽明醫院附設護理之家(月潭改鹿東)","code":"B21300091","type":"B2","city":"10010","town":"10010110","addr":"嘉義縣鹿草鄉鹿東村陽明醫院護家","lng":120.351006,"lat":23.522255,"abc":"C","service":"巷弄長照站","zones":["10010070"],"phone":"05-2225200#1257","owner":"謝景祥","start":"20200501","end":"20221231"},{"name":"嘉義縣中埔鄉灣潭社區發展協會","code":"BF1300086","type":"BF","city":"10010","town":"10010130","addr":"嘉義縣中埔鄉客庄17之2號","lng":120.559563,"lat":23.428165,"abc":"C","service":"巷弄長照站","zones":["10010130"],"phone":"0977358246","owner":"黃順忠","start":"20200306","end":"20241231"},{"name":"嘉義縣福龍長期照顧服務發展協會","code":"BF1300087","type":"BF","city":"10010","town":"10010070","addr":"嘉義縣新港鄉中洋村4-1號","lng":120.370987,"lat":23.522289,"abc":"C","service":"巷弄長照站","zones":["10010070"],"phone":"0933285408","owner":"楊永成","start":"20200701","end":"20241231"},{"name":"後潭藥局","code":"B31300019","type":"B3","city":"10010","town":"10010010","addr":"嘉義縣太保市前潭里後潭184號","lng":120.345261,"lat":23.452156,"abc":"B","service":"專業照護服務","zones":["10010010","10010110"],"phone":"05-3711261","owner":"石祐瑭","start":"20210101","end":"20230630"},{"name":"大林樂齡居家物理治療所-溪口溪東","code":"B41300012","type":"B4","city":"10010","town":"10010060","addr":"嘉義縣溪口鄉溪東村18鄰中正路133號","lng":120.395683,"lat":23.603832,"abc":"C","service":"巷弄長照站","zones":["10010060"],"phone":"0978119807","owner":"黃詠琳","start":"20200501","end":"20221229"},{"name":"財團法人嘉義縣私立瑞泰社會福利基金會私立幸福居家長照機構","code":"1S1300003","type":"1","city":"10010","town":"10010160","addr":"嘉義縣番路鄉新福村大庄36之2號","lng":120.542305,"lat":23.457687,"abc":"B","service":"專業照護服務","zones":["10010010","10010020","10010030","10010040","10010050","10010060","10010070","10010080","10010090","10010100","10010110","10010120","10010130","10010140","10010150","10010160","10010170","10010180"],"phone":"05-2590225","owner":"歐陽克言","start":"20210101","end":"20271231"},{"name":"財團法人嘉義縣私立瑞泰社會福利基金會私立幸福居家長照機構","code":"1S1300003","type":"1","city":"10010","town":"10010160","addr":"嘉義縣番路鄉新福村大庄36之2號","lng":120.542305,"lat":23.457687,"abc":"B","service":"居家服務","zones":["10010010","10010020","10010030","10010040","10010050","10010060","10010070","10010080","10010090","10010100","10010110","10010120","10010130","10010140","10010150","10010160","10010170","10010180"],"phone":"05-2590225","owner":"歐陽克言","start":"20210101","end":"20271231"},{"name":"戴德森醫療財團法人附設嘉義縣私立多加居家式服務類長期照顧服務機構","code":"1U1300001","type":"1","city":"10010","town":"10010050","addr":"嘉義縣民雄鄉北斗村北勢子95之9號1樓及3樓","lng":120.457756,"lat":23.534863,"abc":"B","service":"居家服務","zones":["10010010","10010020","10010030","10010040","10010050","10010060","10010070","10010080","10010090","10010100","10010110","10010120","10010130","10010140","10010150","10010160","10010180"],"phone":"05-2212120","owner":"高堂恩","start":"20210101","end":"20281231"},{"name":"戴德森醫療財團法人附設嘉義縣私立多加居家式服務類長期照顧服務機構","code":"1U1300001","type":"1","city":"10010","town":"10010050","addr":"嘉義縣民雄鄉北斗村北勢子95之9號1樓及3樓","lng":120.457756,"lat":23.534863,"abc":"B","service":"居家服務","zones":["10010010","10010020","10010030","10010040","10010050","10010060","10010070","10010080","10010090","10010100","10010110","10010120","10010130","10010140","10010150","10010160","10010170","10010180"],"phone":"05-2212120","owner":"高堂恩","start":"20200101","end":"20211231"},{"name":"約翰樂活護理之家","code":"A31300012","type":"A3","city":"10010","town":"10010130","addr":"嘉義縣中埔鄉金蘭村金蘭村頂山門20-5號","lng":120.496788,"lat":23.442804,"abc":"C","service":"巷弄長照站","zones":["10010130"],"phone":"05-2307699","owner":"楊椀婷","start":"20210101","end":"20281231","beds":108,"residents":157},{"name":"臺中榮民總醫院灣橋分院附設護理之家","code":"A31300013","type":"A3","city":"10010","town":"10010140","addr":"嘉義縣竹崎鄉灣橋村石麻園三十八號","lng":120.506882,"lat":23.48818,"abc":"B","service":"喘息服務","zones":["10010050","10010130","10010140","10010160"],"phone":"05-2791072","owner":"蔡佩珊","start":"20200101","end":"20281231","beds":125,"residents":109},{"name":"嘉義縣柳新美上美關懷協會","code":"BF1300091","type":"BF","city":"10010","town":"10010120","addr":"嘉義縣水上鄉柳新村125-1號","lng":120.409943,"lat":23.431681,"abc":"C","service":"巷弄長照站","zones":["10010120"],"phone":"0975579372","owner":"林光輝","start":"20200519","end":"20241231"},{"name":"財團法人嘉義縣私立開元殿福松老人養護中心","code":"A11300001","type":"A1","city":"10010","town":"10010060","addr":"嘉義縣溪口鄉柴林村柴林村65-2號","lng":120.374107,"lat":23.604725,"abc":"B","service":"居家服務","zones":["10010010","10010040","10010060","10010070","10010080","10010150"],"phone":"住宿式電話:05-2691234","owner":"葉松海","start":"20200101","end":"20211231","beds":138,"residents":103},{"name":"社團法人中華長照協會附設嘉義縣私立永樂居家長照機構","code":"1R1300005","type":"1","city":"10010","town":"10010030","addr":"嘉義縣布袋鎮光復路二段103號2樓","lng":120.162636,"lat":23.376709,"abc":"B","service":"居家服務","zones":["10010020","10010030","10010090"],"phone":"05-3473833","owner":"金浩鑫","start":"20210101","end":"20261231"},{"name":"嘉義縣私立雙福寶慈濟佛門老人長期照顧中心(養護型)","code":"A11300006","type":"A1","city":"10010","town":"10010040","addr":"嘉義縣大林鎮平林里下潭底69號","lng":120.457092,"lat":23.593678,"abc":"B","service":"喘息服務","zones":["10010010","10010020","10010030","10010040","10010050","10010060","10010070","10010080","10010090","10010100","10010110","10010120","10010130","10010140","10010150","10010160","10010170","10010180"],"phone":"05-2657899","owner":"許哲源","start":"20210101","end":"20281231","beds":46,"residents":41},{"name":"上億汽車行","code":"BA1300001","type":"BA","city":"10010","town":"10010070","addr":"嘉義縣新港鄉月眉村月眉潭208號","lng":120.35405,"lat":23.521536,"abc":"B","service":"社區式交通接送服務(BD03)","zones":["10010010","10010020","10010030","10010040","10010050","10010060","10010070","10010080","10010090","10010100","10010110","10010120","10010130","10010140","10010150","10010160","10010170","10010180"],"phone":"0910-787749","owner":"林嘉上","start":"20201101","end":"20281231"},{"name":"亞輝汽車行","code":"BA1300002","type":"BA","city":"10010","town":"10010020","addr":"嘉義縣朴子市開元里開元路160號","lng":120.244476,"lat":23.467167,"abc":"B","service":"社區式交通接送服務(BD03)","zones":["10010020","10010080","10010090"],"phone":"0978-951555","owner":"辜文亮","start":"20200701","end":"20281231"},{"name":"臺中榮民總醫院灣橋分院居家長照機構","code":"1F1300001","type":"1","city":"10010","town":"10010140","addr":"嘉義縣竹崎鄉灣橋村石麻園38號","lng":120.506516,"lat":23.487692,"abc":"B","service":"居家服務","zones":["10010140"],"phone":"05-2791072","owner":"王作仁","start":"20210101","end":"20261231"},{"name":"喜樂園長照股份有限公司附設嘉義縣私立喜樂園居家長照機構","code":"1V1300002","type":"1","city":"10010","town":"10010040","addr":"嘉義縣大林鎮中正路442之1號","lng":120.382019,"lat":23.4977,"abc":"B","service":"喘息服務","zones":["10010040","10010050","10010060","10010100","10010110","10010120","10010140","10010150","10010180"],"phone":"05-2376222","owner":"張經緯","start":"20260101","end":"20281231"},{"name":"嘉義縣私立大心社區式服務類長期照顧服務機構","code":"2X1300007","type":"2","city":"10010","town":"10010050","addr":"嘉義縣民雄鄉寮頂村富義新村252號","lng":120.434258,"lat":23.565672,"abc":"B","service":"家庭托顧服務(BC)","zones":["10010010","10010020","10010030","10010040","10010050","10010060","10010070","10010080","10010090","10010100","10010110","10010120","10010130","10010140","10010150","10010160","10010170","10010180"],"phone":"05-2260609","owner":"鐘沛瑜","start":"20200101","end":"20281231"},{"name":"嘉義縣私立倍安社區式服務類長期照顧服務機構","code":"2X1300008","type":"2","city":"10010","town":"10010070","addr":"嘉義縣新港鄉宮後村24鄰新民路183巷22號","lng":120.352142,"lat":23.556755,"abc":"B","service":"家庭托顧服務(BC)","zones":["10010010","10010020","10010030","10010040","10010050","10010060","10010070","10010080","10010090","10010100","10010110","10010120","10010130","10010140","10010150","10010160","10010170","10010180"],"phone":"05-3741357","owner":"陳克宇","start":"20200101","end":"20281231"},{"name":"佛教慈濟醫療財團法人附設嘉義縣私立大林慈濟居家式服務類長期照顧服務機構","code":"1U1300002","type":"1","city":"10010","town":"10010040","addr":"嘉義縣大林鎮平林里民生路2號","lng":120.457451,"lat":23.596312,"abc":"B","service":"喘息服務","zones":["10010040","10010050","10010060","10010150"],"phone":"05-2648000#1161","owner":"釋證嚴","start":"20260101","end":"20281231"},{"name":"財團法人嘉義縣私立瑞泰社會福利基金會私立幸福居家長照機構","code":"1S1300003","type":"1","city":"10010","town":"10010160","addr":"嘉義縣番路鄉新福村大庄36之2號","lng":120.542305,"lat":23.457687,"abc":"B","service":"喘息服務","zones":["10010010","10010020","10010030","10010040","10010050","10010060","10010070","10010080","10010090","10010100","10010110","10010120","10010130","10010140","10010150","10010160","10010170","10010180"],"phone":"05-2590225","owner":"歐陽克言","start":"20210714","end":"20281231"},{"name":"戴德森醫療財團法人嘉義基督教醫院-(A)-太保市,新港鄉,民雄鄉,阿里山鄉","code":"B21300030","type":"B2","city":"10010","town":"10010050","addr":"嘉義縣民雄鄉北斗村北勢子95-9號","lng":120.458168,"lat":23.534679,"abc":"B","service":"社區式交通接送服務(BD03)","zones":["10010050","10010070"],"phone":"05-2212120","owner":"姚維仁","start":"20200101","end":"20281231"},{"name":"財團法人嘉義縣私立天主教安道社會福利慈善事業基金會","code":"BD1300035","type":"BD","city":"10010","town":"10010170","addr":"嘉義縣大埔鄉和平村雙溪28號","lng":120.596169,"lat":23.301975,"abc":"B","service":"社區式交通接送服務(BD03)","zones":["10010020","10010030","10010090","10010100","10010170"],"phone":"05-2521001","owner":"浦英雄","start":"20200101","end":"20281231"},{"name":"嘉義縣私立六福老人長期照顧中心(養護型)","code":"A11300025","type":"A1","city":"10010","town":"10010050","addr":"嘉義縣民雄鄉建國路2段273巷12號","lng":120.43158,"lat":23.547094,"abc":"B","service":"喘息服務","zones":["10010010","10010020","10010030","10010040","10010050","10010060","10010070","10010080","10010090","10010100","10010110","10010120","10010130","10010140","10010150","10010160","10010170","10010180"],"phone":"05-2066161","owner":"鄭嘉信","start":"20190529","end":"20281231","beds":49,"residents":22},{"name":"長順護理之家","code":"A31300017","type":"A3","city":"10010","town":"10010080","addr":"嘉義縣六腳鄉正義村占富厝1-2號","lng":120.253479,"lat":23.491982,"abc":"B","service":"喘息服務","zones":["10010010","10010020","10010030","10010040","10010050","10010060","10010070","10010080","10010090","10010100","10010110","10010120","10010130","10010140","10010150","10010160","10010170","10010180"],"phone":"05-3706930","owner":"侯書雅","start":"20210101","end":"20281231","beds":44,"residents":32},{"name":"財團法人嘉義縣私立瑞泰社會福利基金會-(A)-番路鄉,民雄鄉,鹿草鄉","code":"BD1300003","type":"BD","city":"10010","town":"10010160","addr":"嘉義縣番路鄉新福村大庄36之2號","lng":120.542305,"lat":23.457687,"abc":"B","service":"社區式交通接送服務(BD03)","zones":["10010010","10010020","10010030","10010040","10010050","10010060","10010070","10010080","10010090","10010100","10010110","10010120","10010130","10010140","10010150","10010160","10010170","10010180"],"phone":"05-2590225","owner":"歐陽克言","start":"20200101","end":"20281231"},{"name":"財團法人雙福社會褔利慈善事業基金會","code":"BD1300039","type":"BD","city":"10010","town":"10010180","addr":"嘉義縣阿里山鄉山美村3鄰51號","lng":120.668182,"lat":23.383833,"abc":"B","service":"交通接送服務","zones":["10010010","10010020","10010030","10010040","10010050","10010060","10010070","10010080","10010090","10010100","10010110","10010120","10010130","10010140","10010150","10010160","10010170","10010180"],"phone":"05-2586479","owner":"待補","start":"20200101","end":"20201231"},{"name":"臺中榮民總醫院灣橋分院附設護理之家","code":"A31300013","type":"A3","city":"10010","town":"10010140","addr":"嘉義縣竹崎鄉灣橋村石麻園三十八號","lng":120.506882,"lat":23.48818,"abc":"B","service":"日間照顧服務(BB)","zones":["10010010","10010020","10010030","10010040","10010050","10010060","10010070","10010080","10010090","10010100","10010110","10010120","10010130","10010140","10010150","10010160","10010170","10010180"],"phone":"05-2791072","owner":"蔡佩珊","start":"20200101","end":"20261231","beds":125,"residents":109},{"name":"嘉義縣私立慧欣旺社區式服務類長期照顧服務機構","code":"2X1300009","type":"2","city":"10010","town":"10010050","addr":"嘉義縣民雄鄉東興村葉子寮33之9號","lng":120.497498,"lat":23.561495,"abc":"B","service":"家庭托顧服務(BC)","zones":["10010010","10010020","10010030","10010040","10010050","10010060","10010070","10010080","10010090","10010100","10010110","10010120","10010130","10010140","10010150","10010160","10010170","10010180"],"phone":"0933132237","owner":"陳秋慧","start":"20210101","end":"20281231"},{"name":"萬安共益股份有限公司附設嘉義縣私立嘉偉居家長照機構","code":"1V1300003","type":"1","city":"10010","town":"10010020","addr":"嘉義縣朴子市仁和里小槺榔一路329號1樓及2樓","lng":120.283508,"lat":23.469761,"abc":"B","service":"喘息服務","zones":["10010020","10010030","10010090","10010100","10010110","10010120"],"phone":"05-3790290","owner":"盧振華","start":"20210101","end":"20281231"},{"name":"共樂居家護理所","code":"B11300029","type":"B1","city":"10010","town":"10010100","addr":"嘉義縣義竹鄉六桂村2鄰義竹154之27號","lng":120.245544,"lat":23.338717,"abc":"B","service":"社區式交通接送服務(BD03)","zones":["10010020","10010030","10010090","10010100"],"phone":"0911020210","owner":"郭芳雅","start":"20201201","end":"20281231"},{"name":"財團法人嘉義縣私立開元殿福松老人養護中心","code":"A11300001","type":"A1","city":"10010","town":"10010060","addr":"嘉義縣溪口鄉柴林村柴林村65-2號","lng":120.374107,"lat":23.604725,"abc":"B","service":"喘息服務","zones":["10010010","10010020","10010030","10010040","10010050","10010060","10010070","10010080","10010090","10010100","10010110","10010120","10010130","10010140","10010150","10010160"],"phone":"住宿式電話:05-2691234","owner":"葉松海","start":"20200101","end":"20281231","beds":138,"residents":103},{"name":"財團法人嘉義縣私立開元殿福松老人養護中心","code":"A11300001","type":"A1","city":"10010","town":"10010060","addr":"嘉義縣溪口鄉柴林村柴林村65-2號","lng":120.374107,"lat":23.604725,"abc":"B","service":"居家服務","zones":["10010010","10010040","10010060","10010070","10010080","10010150"],"phone":"住宿式電話:05-2691234","owner":"葉松海","start":"20210101","end":"20261231","beds":138,"residents":103},{"name":"財團法人嘉義縣私立開元殿福松老人養護中心","code":"A11300001","type":"A1","city":"10010","town":"10010060","addr":"嘉義縣溪口鄉柴林村柴林村65-2號","lng":120.374107,"lat":23.604725,"abc":"B","service":"日間照顧服務(BB)","zones":[],"phone":"住宿式電話:05-2691234","owner":"葉松海","start":"20180401","end":"20271231","beds":138,"residents":103},{"name":"戴德森醫療財團法人嘉義基督教醫院-營養餐飲","code":"B21300086","type":"B2","city":"10010","town":"10010050","addr":"嘉義縣民雄鄉北斗村北勢子95之9號","lng":120.458168,"lat":23.534681,"abc":"B","service":"營養餐飲服務","zones":["10010010","10010020","10010030","10010040","10010050","10010060","10010070","10010080","10010090","10010100","10010110","10010120","10010130","10010140","10010150","10010160","10010170","10010180"],"phone":"05-2212120","owner":"陳煒","start":"20200101","end":"20201231"},{"name":"嘉義縣仁安長期照顧促進協會附設嘉義縣私立仁安居家長照機構","code":"1N1300001","type":"1","city":"10010","town":"10010010","addr":"嘉義縣太保市過溝里八德街692號1樓","lng":120.359604,"lat":23.499258,"abc":"B","service":"居家服務","zones":["10010010","10010050","10010070","10010080","10010100","10010110","10010120","10010140","10010180"],"phone":"05-2255718","owner":"劉宗誠","start":"20210105","end":"20261231"},{"name":"萬安共益股份有限公司附設嘉義縣私立嘉偉居家長照機構","code":"1V1300003","type":"1","city":"10010","town":"10010020","addr":"嘉義縣朴子市仁和里小槺榔一路329號1樓及2樓","lng":120.283508,"lat":23.469761,"abc":"B","service":"居家服務","zones":["10010020","10010030","10010090","10010100","10010110","10010120"],"phone":"05-3790290","owner":"盧振華","start":"20210101","end":"20261231"},{"name":"嘉義縣私立嘉馨居家長照機構","code":"1X1300001","type":"1","city":"10010","town":"10010010","addr":"嘉義縣太保市中山路一段228巷19弄16號1-2樓","lng":120.380463,"lat":23.499266,"abc":"B","service":"居家服務","zones":["10010010","10010070","10010080","10010100","10010110","10010120"],"phone":"05-3622372","owner":"林侑瑩","start":"20210108","end":"20261231"},{"name":"臺中榮民總醫院灣橋分院","code":"B21300039","type":"B2","city":"10010","town":"10010140","addr":"嘉義縣竹崎鄉灣橋村石麻園38號","lng":120.506378,"lat":23.48778,"abc":"B","service":"專業照護服務","zones":["10010040","10010050","10010060","10010140","10010150","10010180"],"phone":"05-2791072轉7537","owner":"王作仁","start":"20240101","end":"20281231"},{"name":"臺灣原衣時尚有限公司附設嘉義縣私立鶴顏居家長照機構","code":"1V1300004","type":"1","city":"10010","town":"10010100","addr":"嘉義縣義竹鄉義竹村90之16號","lng":120.245605,"lat":23.337215,"abc":"B","service":"居家服務","zones":["10010100","10010110","10010120","10010130","10010160","10010170"],"phone":"05-3411234","owner":"張秉鈞","start":"20210118","end":"20261231"},{"name":"嘉義縣六腳鄉潭墘社區發展協會","code":"BF1300070","type":"BF","city":"10010","town":"10010080","addr":"嘉義縣六腳鄉潭墘村113號","lng":120.277153,"lat":23.504169,"abc":"B","service":"喘息服務","zones":["10010080"],"phone":"0975240280","owner":"侯水順","start":"20210101","end":"20211231"},{"name":"振興健康股份有限公司附設嘉義縣私立德興居家長照機構","code":"1V1300005","type":"1","city":"10010","town":"10010130","addr":"嘉義縣中埔鄉和睦村23鄰中華路348號","lng":120.452415,"lat":23.437086,"abc":"B","service":"居家服務","zones":["10010050","10010130","10010140","10010160","10010170","10010180"],"phone":"05-2398977","owner":"李淑儀","start":"20210201","end":"20261231"},{"name":"嘉義縣私立家安社區式服務類長期照顧服務機構","code":"2X1300011","type":"2","city":"10010","town":"10010120","addr":"嘉義縣水上鄉柳新村14鄰柳子林1828號","lng":120.411011,"lat":23.431055,"abc":"B","service":"家庭托顧服務(BC)","zones":["10010010","10010020","10010030","10010040","10010050","10010060","10010070","10010080","10010090","10010100","10010110","10010120","10010130","10010140","10010150","10010160","10010170","10010180"],"phone":"05-2687653","owner":"陳紅英","start":"20210201","end":"20281231"},{"name":"社團法人台灣立享長照服務教育發展協會附設嘉義縣私立立享居家長照機構","code":"1R1300004","type":"1","city":"10010","town":"10010020","addr":"嘉義縣朴子市竹圍里16鄰光復新路89號","lng":120.245193,"lat":23.457678,"abc":"B","service":"喘息服務","zones":["10010010","10010020","10010030","10010040","10010060","10010070","10010080","10010090","10010100","10010110","10010120","10010150"],"phone":"05-3706685","owner":"王淳中","start":"20210201","end":"20281231"},{"name":"社團法人中華長照協會附設嘉義縣私立永樂居家長照機構","code":"1R1300005","type":"1","city":"10010","town":"10010030","addr":"嘉義縣布袋鎮光復路二段103號2樓","lng":120.162636,"lat":23.376709,"abc":"B","service":"喘息服務","zones":["10010020","10010030","10010090"],"phone":"05-3473833","owner":"金浩鑫","start":"20210201","end":"20281231"},{"name":"財團法人嘉義縣私立開元殿福松老人養護中心","code":"A11300001","type":"A1","city":"10010","town":"10010060","addr":"嘉義縣溪口鄉柴林村柴林村65-2號","lng":120.374107,"lat":23.604725,"abc":"B","service":"日間照顧服務(BB)","zones":["10010040","10010050","10010060","10010070","10010080"],"phone":"住宿式電話:05-2691234","owner":"葉松海","start":"20210205","end":"20241231","beds":138,"residents":103},{"name":"振興健康股份有限公司附設嘉義縣私立德興居家長照機構","code":"1V1300005","type":"1","city":"10010","town":"10010130","addr":"嘉義縣中埔鄉和睦村23鄰中華路348號","lng":120.452415,"lat":23.437086,"abc":"B","service":"喘息服務","zones":["10010050","10010130","10010140","10010160","10010170","10010180"],"phone":"05-2398977","owner":"李淑儀","start":"20260101","end":"20281231"},{"name":"財團法人雙福社會福利慈善事業基金會附設嘉義縣私立阿里山南三村社區長照機構","code":"2S1300009","type":"2","city":"10010","town":"10010180","addr":"嘉義縣阿里山鄉新美村4鄰66號1樓","lng":120.683746,"lat":23.337811,"abc":"B","service":"日間照顧服務(BB)","zones":["10010180"],"phone":"2765041","owner":"吳英賓","start":"20210218","end":"20261231"},{"name":"長庚醫療財團法人附設嘉義長庚護理之家","code":"A31300001","type":"A3","city":"10010","town":"10010020","addr":"嘉義縣朴子市仁和里長庚一路6號","lng":120.284042,"lat":23.464806,"abc":"B","service":"喘息服務","zones":["10010010","10010020","10010070","10010080","10010110","10010120"],"phone":"05-3621000#2400","owner":"蕭雅君","start":"20210224","end":"20281231","beds":70,"residents":53},{"name":"嘉義縣仁安長期照顧促進協會附設嘉義縣私立仁安居家長照機構","code":"1N1300001","type":"1","city":"10010","town":"10010010","addr":"嘉義縣太保市過溝里八德街692號1樓","lng":120.359604,"lat":23.499258,"abc":"B","service":"喘息服務","zones":["10010010","10010020","10010030","10010040","10010050","10010060","10010070","10010080","10010090","10010100","10010110","10010120","10010140","10010150","10010180"],"phone":"05-2255718","owner":"劉宗誠","start":"20210224","end":"20281231"},{"name":"嘉義縣私立嘉馨居家長照機構","code":"1X1300001","type":"1","city":"10010","town":"10010010","addr":"嘉義縣太保市中山路一段228巷19弄16號1-2樓","lng":120.380463,"lat":23.499266,"abc":"B","service":"喘息服務","zones":["10010010","10010070","10010080","10010100","10010110","10010120"],"phone":"05-3622372","owner":"林侑瑩","start":"20210305","end":"20281231"},