[{"name":"社團法人嘉義市弱勢關懷協會","code":"BE1200001","type":"BE","city":"10020","town":"10020010","addr":"嘉義市東區興村里過溪110號之5","lng":120.456543,"lat":23.45179,"abc":"B","service":"專業照護服務","zones":["10008010","10008020","10008030","10008040","10008060","10008070","10008080","10008090","10008100","10008110"],"phone":"09-75336555","owner":"林國欽","start":"20190101","end":"20201231"},{"name":"嘉義市私立金蓮園老人長期照顧中心（養護型）","code":"A11200002","type":"A1","city":"10020","town":"10020010","addr":"嘉義市東區後庄里林森東路875號","lng":120.48233,"lat":23.495199,"abc":"B","service":"喘息服務","zones":["10010010","10010020","10010030","10010040","10010050","10010060","10010070","10010080","10010090","10010100","10010110","10010120","10010130","10010140","10010150","10010160","10010170","10010180"],"phone":"05-2741616","owner":"郭美君","start":"20210101","end":"20281231","beds":49,"residents":48},{"name":"嘉義市私立梅香園老人長期照顧中心（養護型）","code":"A11200003","type":"A1","city":"10020","town":"10020010","addr":"嘉義市東區後庄里林森東路877號","lng":120.482384,"lat":23.495279,"abc":"B","service":"喘息服務","zones":["10010010","10010020","10010030","10010040","10010050","10010060","10010070","10010080","10010090","10010100","10010110","10010120","10010130","10010140","10010150","10010160","10010170","10010180"],"phone":"05-2741717","owner":"郭皇村","start":"20210101","end":"20281231","beds":47,"residents":45},{"name":"財團法人嘉義市私立保康社會福利慈善事業基金會附設嘉義市私立保康老人長期照顧中心(長期照護型)","code":"A11200005","type":"A1","city":"10020","town":"10020010","addr":"嘉義市東區後湖里保順路121號","lng":120.450493,"lat":23.50556,"abc":"B","service":"喘息服務","zones":["10010010","10010020","10010030","10010040","10010050","10010060","10010070","10010080","10010090","10010100","10010110","10010120","10010130","10010140","10010150","10010160","10010170","10010180"],"phone":"05-2718003","owner":"陳煒","start":"20210101","end":"20281231","beds":196,"residents":175},{"name":"嘉義市私立瑞泰護理之家","code":"A31200001","type":"A3","city":"10020","town":"10020020","addr":"嘉義市西區光彩街595號","lng":120.441338,"lat":23.477358,"abc":"B","service":"喘息服務","zones":["10010010","10010020","10010030","10010040","10010050","10010060","10010070","10010080","10010090","10010100","10010110","10010120","10010130","10010140","10010150","10010160","10010170","10010180"],"phone":"05-2258852","owner":"劉富丞","start":"20210101","end":"20281231","beds":95,"residents":88},{"name":"臺中榮民總醫院嘉義分院附設護理之家","code":"A31200002","type":"A3","city":"10020","town":"10020020","addr":"嘉義市西區劉厝里世賢路二段６００號","lng":120.422997,"lat":23.467415,"abc":"B","service":"喘息服務","zones":["10010010","10010020","10010030","10010040","10010050","10010060","10010070","10010080","10010090","10010100","10010110","10010120","10010130","10010140","10010150","10010160","10010170","10010180"],"phone":"05-23596303#3170","owner":"李金霞","start":"20210101","end":"20281231","beds":274,"residents":260},{"name":"衛生福利部嘉義醫院附設護理之家","code":"A31200003","type":"A3","city":"10020","town":"10020020","addr":"嘉義市西區北港路312號","lng":120.429321,"lat":23.481089,"abc":"B","service":"喘息服務","zones":["10010010","10010020","10010030","10010040","10010050","10010060","10010070","10010080","10010090","10010100","10010110","10010120","10010130","10010140","10010150","10010160","10010170","10010180"],"phone":"05-2319090","owner":"謝佳如","start":"20210101","end":"20241231","beds":133,"residents":101},{"name":"陽明醫院附設護理之家","code":"A31200006","type":"A3","city":"10020","town":"10020020","addr":"嘉義市西區民權路387號2.3樓","lng":120.448814,"lat":23.482065,"abc":"B","service":"喘息服務","zones":["10010010","10010020","10010030","10010040","10010050","10010060","10010070","10010080","10010090","10010100","10010110","10010120","10010130","10010140","10010150","10010160","10010170","10010180"],"phone":"05-2252007","owner":"楊雅喬","start":"20200101","end":"20281231","beds":95,"residents":97},{"name":"忠孝護理之家","code":"A31200007","type":"A3","city":"10020","town":"10020010","addr":"嘉義市東區林森里12鄰忠孝路250號","lng":120.453789,"lat":23.48419,"abc":"B","service":"喘息服務","zones":["10010010","10010040","10010050","10010060","10010070","10010080","10010100","10010110","10010120","10010130","10010140","10010150","10010160","10010170"],"phone":"05-2716106#115","owner":"鄭淑芬","start":"20210101","end":"20281231","beds":99,"residents":70},{"name":"大仁康復護理之家","code":"A31200008","type":"A3","city":"10020","town":"10020020","addr":"嘉義市西區民族路666號","lng":120.444191,"lat":23.475622,"abc":"B","service":"喘息服務","zones":["10010010","10010020","10010030","10010040","10010050","10010060","10010070","10010080","10010090","10010100","10010110","10010120","10010130","10010140","10010150","10010160","10010170","10010180"],"phone":"05-2282666","owner":"李淑嬪","start":"20210101","end":"20281231","beds":65,"residents":59},{"name":"財團法人私立天主教中華聖母社會福利慈善事業基金會附設嘉義市私立中華聖母居家式服務類長期照顧服務機構","code":"1S1200002","type":"1","city":"10020","town":"10020010","addr":"嘉義市東區中山里民權路60號5樓","lng":120.461571,"lat":23.483955,"abc":"B","service":"居家服務","zones":["10020010","10020020"],"phone":"05-2780040#3226","owner":"韓玲玲","start":"20240701","end":"20261231"},{"name":"財團法人伊甸社會福利基金會附設嘉義市私立嘉義居家式長期照顧服務機構","code":"1S1200003","type":"1","city":"10020","town":"10020020","addr":"嘉義市西區車店里貴州街123號","lng":120.432289,"lat":23.467979,"abc":"B","service":"居家服務","zones":["10020010","10020020"],"phone":"05-2860065","owner":"陳宇昭","start":"20240701","end":"20261231"},{"name":"嘉義縣勞動力服務人員職業工會附設嘉義市私立仁安居家式長期照顧服務機構","code":"1R1200001","type":"1","city":"10020","town":"10020020","addr":"嘉義市西區文化里國華街245號7樓15","lng":120.448341,"lat":23.479231,"abc":"B","service":"居家服務","zones":["10020010","10020020"],"phone":"05-2277660","owner":"劉宗誠","start":"20240701","end":"20261231"},{"name":"戴德森醫療財團法人私立拾智園社區長照機構","code":"2S1200001","type":"2","city":"10020","town":"10020020","addr":"嘉義市西區重興里7鄰北興街178號1樓","lng":120.441139,"lat":23.48444,"abc":"B","service":"小規模多機能服務","zones":["10020010","10020020"],"phone":"05-2316717","owner":"高堂恩","start":"20180701","end":"20261231"},{"name":"戴德森醫療財團法人私立長青園社區長照機構","code":"2S1200002","type":"2","city":"10020","town":"10020010","addr":"嘉義市東區短竹里11鄰公義路1號2樓","lng":120.463608,"lat":23.476265,"abc":"B","service":"日間照顧服務(BB)","zones":["10020010","10020020"],"phone":"05-2763636*207","owner":"高堂恩","start":"20180701","end":"20261231"},{"name":"財團法人私立天主教中華聖母社會福利慈善事業基金會附設嘉義市私立聖母團體家屋社區式服務類長期照顧服務機構","code":"2S1200005","type":"2","city":"10020","town":"10020010","addr":"嘉義市東區蘭潭里小雅路513巷48號、50號","lng":120.468292,"lat":23.475634,"abc":"B","service":"團體家屋服務","zones":["10020010","10020020"],"phone":"05-2756000*3282","owner":"韓玲玲","start":"20190101","end":"20241231"},{"name":"社團法人嘉義市陽明健康促進會","code":"BE1200003","type":"BE","city":"10020","town":"10020010","addr":"嘉義市東區東興里東吳鳳北路252號12樓","lng":120.453514,"lat":23.480476,"abc":"B","service":"社區式交通接送服務(BD03)","zones":["10020010","10020020"],"phone":"05-2286868","owner":"謝景祥","start":"20190101","end":"20261231"},{"name":"嘉義市私立蘭潭家福護理之家","code":"A31200009","type":"A3","city":"10020","town":"10020010","addr":"嘉義市東區學府路二九九號","lng":120.478584,"lat":23.462847,"abc":"B","service":"喘息服務","zones":["10020010","10020020"],"phone":"05-2759200","owner":"蔡素琴","start":"20190101","end":"20261231","beds":99,"residents":99},{"name":"嘉義市私立東洋護理之家","code":"A31200010","type":"A3","city":"10020","town":"10020010","addr":"嘉義市東區文雅里文心街162號","lng":120.486671,"lat":23.48188,"abc":"B","service":"喘息服務","zones":["10020010","10020020"],"phone":"05-2761297","owner":"胡閔閔","start":"20190101","end":"20261231","beds":62,"residents":58},{"name":"陽明醫院","code":"B21200015","type":"B2","city":"10020","town":"10020010","addr":"嘉義市東區東興里東吳鳳北路252號","lng":120.455063,"lat":23.480181,"abc":"A","service":"個案管理服務","zones":["10020010","10020020"],"phone":"05-2284567","owner":"謝景祥","start":"20190401","end":"20261231"},{"name":"陽明醫院","code":"B21200015","type":"B2","city":"10020","town":"10020010","addr":"嘉義市東區東興里東吳鳳北路252號","lng":120.455063,"lat":23.480181,"abc":"B","service":"專業照護服務","zones":["10020010","10020020"],"phone":"05-2284567","owner":"謝景祥","start":"20190401","end":"20261231"},{"name":"臺中榮民總醫院嘉義分院","code":"B21200001","type":"B2","city":"10020","town":"10020020","addr":"嘉義市西區劉厝里世賢路二段600號","lng":120.422974,"lat":23.467548,"abc":"A","service":"個案管理服務","zones":["10020010","10020020"],"phone":"05 2359630","owner":"陳正榮","start":"20190401","end":"20261231"},{"name":"嘉義縣勞動力服務人員職業工會附設嘉義市私立仁安居家式長期照顧服務機構","code":"1R1200001","type":"1","city":"10020","town":"10020020","addr":"嘉義市西區文化里國華街245號7樓15","lng":120.448341,"lat":23.479231,"abc":"B","service":"喘息服務","zones":["10020010","10020020"],"phone":"05-2277660","owner":"劉宗誠","start":"20240701","end":"20261231"},{"name":"陽明長照社團法人私立陽明綜合長照機構","code":"4L1200001","type":"4","city":"10020","town":"10020020","addr":"嘉義市西區國華里民權路387號4、5樓","lng":120.448814,"lat":23.482065,"abc":"B","service":"居家服務","zones":["10020010","10020020"],"phone":"05-2271288","owner":"謝景祥","start":"20190305","end":"20261231","residents":48},{"name":"陽明長照社團法人私立陽明綜合長照機構","code":"4L1200001","type":"4","city":"10020","town":"10020020","addr":"嘉義市西區國華里民權路387號4、5樓","lng":120.448814,"lat":23.482065,"abc":"B","service":"日間照顧服務(BB)","zones":["10020010","10020020"],"phone":"05-2271288","owner":"謝景祥","start":"20190305","end":"20261231","residents":48},{"name":"戴德森醫療財團法人私立拾智園社區長照機構","code":"2S1200001","type":"2","city":"10020","town":"10020020","addr":"嘉義市西區重興里7鄰北興街178號1樓","lng":120.441139,"lat":23.48444,"abc":"B","service":"喘息服務","zones":["10020010","10020020"],"phone":"05-2316717","owner":"高堂恩","start":"20180701","end":"20261231"},{"name":"好好居家職能治療所","code":"B51200001","type":"B5","city":"10020","town":"10020010","addr":"嘉義市東區頂庄里台林街146-13號","lng":120.455566,"lat":23.496603,"abc":"B","service":"專業照護服務","zones":["10020010","10020020"],"phone":"0980-963767","owner":"陳璟儫","start":"20190101","end":"20261231"},{"name":"天主教中華聖母修女會醫療財團法人天主教聖馬爾定醫院","code":"B21200003","type":"B2","city":"10020","town":"10020010","addr":"嘉義市東區蘭潭里大雅路二段565號","lng":120.468018,"lat":23.477394,"abc":"B","service":"專業照護服務","zones":["10020010","10020020"],"phone":"05-2756000","owner":"王中敬","start":"20190101","end":"20261231"},{"name":"喜樂康居家護理所","code":"B11200006","type":"B1","city":"10020","town":"10020010","addr":"嘉義市東區中庄里忠孝路577號","lng":120.448662,"lat":23.501934,"abc":"B","service":"專業照護服務","zones":["10020010","10020020"],"phone":"05-2752338","owner":"邱梅昭","start":"20190101","end":"20261231"},{"name":"大仁康復護理之家","code":"A31200008","type":"A3","city":"10020","town":"10020020","addr":"嘉義市西區民族路666號","lng":120.444191,"lat":23.475622,"abc":"B","service":"喘息服務","zones":["10020010","10020020"],"phone":"05-2282666","owner":"李淑嬪","start":"20190101","end":"20261231","beds":65,"residents":59},{"name":"忠孝護理之家","code":"A31200007","type":"A3","city":"10020","town":"10020010","addr":"嘉義市東區林森里12鄰忠孝路250號","lng":120.453789,"lat":23.48419,"abc":"B","service":"喘息服務","zones":["10020010","10020020"],"phone":"05-2716106#115","owner":"鄭淑芬","start":"20190101","end":"20261231","beds":99,"residents":70},{"name":"陽明醫院附設護理之家","code":"A31200006","type":"A3","city":"10020","town":"10020020","addr":"嘉義市西區民權路387號2.3樓","lng":120.448814,"lat":23.482065,"abc":"B","service":"喘息服務","zones":["10020010","10020020"],"phone":"05-2252007","owner":"楊雅喬","start":"20190101","end":"20261231","beds":95,"residents":97},{"name":"天主教中華聖母修女會醫療財團法人附設天主教聖馬爾定護理之家","code":"A31200005","type":"A3","city":"10020","town":"10020010","addr":"嘉義市東區芳草里3鄰芳安路103號","lng":120.463043,"lat":23.46843,"abc":"B","service":"喘息服務","zones":["10020010","10020020"],"phone":"05-2289916","owner":"王曉萍","start":"20190101","end":"20261231","beds":258,"residents":252},{"name":"仁德醫療社團法人附設護理之家","code":"A31200004","type":"A3","city":"10020","town":"10020020","addr":"嘉義市西區慶昇里林森西路285號","lng":120.443298,"lat":23.480051,"abc":"B","service":"喘息服務","zones":["10020010","10020020"],"phone":"05-2258279","owner":"李淑儀","start":"20190101","end":"20261231","beds":40,"residents":40},{"name":"衛生福利部嘉義醫院附設護理之家","code":"A31200003","type":"A3","city":"10020","town":"10020020","addr":"嘉義市西區北港路312號","lng":120.429321,"lat":23.481089,"abc":"B","service":"喘息服務","zones":["10020010","10020020"],"phone":"05-2319090","owner":"謝佳如","start":"20190101","end":"20261231","beds":133,"residents":101},{"name":"臺中榮民總醫院嘉義分院附設護理之家","code":"A31200002","type":"A3","city":"10020","town":"10020020","addr":"嘉義市西區劉厝里世賢路二段６００號","lng":120.422997,"lat":23.467415,"abc":"B","service":"喘息服務","zones":["10020010","10020020"],"phone":"05-23596303#3170","owner":"李金霞","start":"20190101","end":"20261231","beds":274,"residents":260},{"name":"嘉義市私立瑞泰護理之家","code":"A31200001","type":"A3","city":"10020","town":"10020020","addr":"嘉義市西區光彩街595號","lng":120.441338,"lat":23.477358,"abc":"B","service":"喘息服務","zones":["10020010","10020020"],"phone":"05-2258852","owner":"劉富丞","start":"20190101","end":"20261231","beds":95,"residents":88},{"name":"延松護理之家","code":"A31200012","type":"A3","city":"10020","town":"10020020","addr":"嘉義市西區大同路256號","lng":120.42717,"lat":23.47724,"abc":"B","service":"喘息服務","zones":["10020010","10020020"],"phone":"235-3942","owner":"趙淑琪","start":"20190101","end":"20261231","beds":51,"residents":50},{"name":"翔宇物理治療所","code":"B41200001","type":"B4","city":"10020","town":"10020020","addr":"嘉義市西區福安里泰瑞二街7巷7號","lng":120.425598,"lat":23.4842,"abc":"B","service":"專業照護服務","zones":["10020010","10020020"],"phone":"0925970598","owner":"朱世瑋","start":"20190101","end":"20261231"},{"name":"財團法人台灣省私立嘉義仁愛之家","code":"A11200007","type":"A1","city":"10020","town":"10020010","addr":"嘉義市東區芳草里草地尾8號","lng":120.463867,"lat":23.467047,"abc":"B","service":"喘息服務","zones":["10020010","10020020"],"phone":"05-2250065#1007","owner":"陳俊雄","start":"20190101","end":"20261231","beds":173,"residents":140},{"name":"財團法人台灣省私立嘉義濟美仁愛之家","code":"A11200008","type":"A1","city":"10020","town":"10020010","addr":"嘉義市東區圳頭里盧義路361號","lng":120.483734,"lat":23.492344,"abc":"B","service":"喘息服務","zones":["10020010","10020020"],"phone":"05-2766130","owner":"蔡啟芳","start":"20190101","end":"20261231","beds":197,"residents":182},{"name":"財團法人嘉義市私立瑞泰老人長期照護中心","code":"A11200006","type":"A1","city":"10020","town":"10020020","addr":"嘉義市西區劉厝里玉山路699號","lng":120.413589,"lat":23.468931,"abc":"C","service":"巷弄長照站","zones":["10020020"],"phone":"05-2352600","owner":"陳蔡美惠","start":"20190101","end":"20221231","beds":90,"residents":88},{"name":"仁德醫療社團法人陳仁德醫院(番社里)","code":"B21200005","type":"B2","city":"10020","town":"10020020","addr":"嘉義市西區番社里4鄰北榮街221巷2號","lng":120.443489,"lat":23.480021,"abc":"C","service":"巷弄長照站","zones":["10020020"],"phone":"05-2258279*116","owner":"陳仁德","start":"20190101","end":"20231231"},{"name":"王國哲診所(福全里)","code":"B21200006","type":"B2","city":"10020","town":"10020020","addr":"嘉義市西區福全里6鄰北港路11號","lng":120.435387,"lat":23.475739,"abc":"C","service":"巷弄長照站","zones":["10020020"],"phone":"05-2310550*30","owner":"王國哲","start":"20190101","end":"20231231"},{"name":"戴德森醫療財團法人嘉義基督教醫院(嘉義大學林森校區)","code":"B21200007","type":"B2","city":"10020","town":"10020010","addr":"嘉義市東區太平里太林森東路151號","lng":120.458534,"lat":23.48735,"abc":"C","service":"巷弄長照站","zones":["10020010"],"phone":"05-2348836","owner":"姚維仁","start":"20190401","end":"20231231"},{"name":"嘉義市東區衛生所","code":"B21200008","type":"B2","city":"10020","town":"10020010","addr":"嘉義市東區長竹里大雅路2段625號","lng":120.466324,"lat":23.476862,"abc":"C","service":"巷弄長照站","zones":["10020010"],"phone":"05-2750423#315","owner":"林唐逵","start":"20190101","end":"20231231"},{"name":"嘉義市西區衛生所","code":"B21200012","type":"B2","city":"10020","town":"10020020","addr":"嘉義市西區福全里福德明路1號","lng":120.431068,"lat":23.479977,"abc":"C","service":"巷弄長照站","zones":["10020020"],"phone":"05-2337355#222","owner":"吳姿瑢","start":"20190101","end":"20231231"},{"name":"慶昇醫療社團法人慶昇醫院(芳草里)","code":"B21200013","type":"B2","city":"10020","town":"10020010","addr":"嘉義市東區芳草里芳安路83號","lng":120.4636,"lat":23.46862,"abc":"C","service":"巷弄長照站","zones":["10020010"],"phone":"05-2229191#202","owner":"黃旭揚","start":"20190101","end":"20231231"},{"name":"財團法人雙福社會福利慈善事業基金會(常樂園)","code":"BD1200002","type":"BD","city":"10020","town":"10020020","addr":"嘉義市西區致遠里新榮路35巷11號1樓","lng":120.443947,"lat":23.469959,"abc":"C","service":"巷弄長照站","zones":["10020020"],"phone":"05-2277939","owner":"吳英賓","start":"20190101","end":"20231231"},{"name":"嘉義市西區劉厝社區發展協會","code":"BF1200002","type":"BF","city":"10020","town":"10020020","addr":"嘉義市西區劉厝里劉厝路131號","lng":120.417557,"lat":23.46368,"abc":"C","service":"巷弄長照站","zones":["10020020"],"phone":"05-2850878","owner":"魏正城","start":"20190101","end":"20231231"},{"name":"臺中榮民總醫院嘉義分院(嘉義市-C)","code":"B21200014","type":"B2","city":"10020","town":"10020020","addr":"嘉義市西區致遠里新榮路35巷1號","lng":120.444138,"lat":23.46977,"abc":"C","service":"巷弄長照站","zones":["10020020"],"phone":"05-2226729","owner":"李世民","start":"20190401","end":"20231231"},{"name":"財團法人私立天主教中華聖母社會福利慈善事業基金會附設嘉義市私立中華聖母居家式服務類長期照顧服務機構","code":"1S1200002","type":"1","city":"10020","town":"10020010","addr":"嘉義市東區中山里民權路60號5樓","lng":120.461571,"lat":23.483955,"abc":"B","service":"居家服務","zones":["10010010","10010020","10010030","10010040","10010050","10010060","10010070","10010080","10010090","10010100","10010110","10010120","10010130","10010140","10010150","10010160"],"phone":"05-2780040#3226","owner":"韓玲玲","start":"20210101","end":"20271231"},{"name":"財團法人伊甸社會福利基金會附設嘉義市私立嘉義居家式長期照顧服務機構","code":"1S1200003","type":"1","city":"10020","town":"10020020","addr":"嘉義市西區車店里貴州街123號","lng":120.432289,"lat":23.467979,"abc":"B","service":"居家服務","zones":["10010010","10010020","10010050","10010070","10010080","10010110","10010120","10010140"],"phone":"05-2860065","owner":"陳宇昭","start":"20210101","end":"20251231"},{"name":"財團法人雙福社會福利慈善事業基金會","code":"BD1200004","type":"BD","city":"10020","town":"10020010","addr":"嘉義市東區公義路1號","lng":120.463608,"lat":23.476265,"abc":"B","service":"交通接送服務","zones":["10010010","10010060","10010070","10010080","10010110","10010120","10010170"],"phone":"","owner":"吳英賓","start":"20190101","end":"20191231"},{"name":"社團法人嘉義市陽明健康促進會","code":"BE1200011","type":"BE","city":"10020","town":"10020010","addr":"嘉義市東區吳鳳北路252號","lng":120.453194,"lat":23.48057,"abc":"B","service":"交通接送服務","zones":["10010010","10010020","10010030","10010040","10010050","10010060","10010070","10010080","10010090","10010100","10010110","10010120","10010130","10010140","10010150","10010160","10010170","10010180"],"phone":"","owner":"許雅雯","start":"20190101","end":"20191231"},{"name":"財團法人嘉義市私立瑞泰老人長期照護中心附設私立瑞泰居家長照機構","code":"1S1200004","type":"1","city":"10020","town":"10020020","addr":"嘉義市西區保福里4鄰興達路502號","lng":120.43116,"lat":23.48527,"abc":"B","service":"居家服務","zones":["10020010","10020020"],"phone":"05-2321591","owner":"陳蔡美惠","start":"20240701","end":"20261231"},{"name":"財團法人嘉義市私立瑞泰老人長期照護中心附設私立瑞泰居家長照機構","code":"1S1200004","type":"1","city":"10020","town":"10020020","addr":"嘉義市西區保福里4鄰興達路502號","lng":120.43116,"lat":23.48527,"abc":"B","service":"喘息服務","zones":["10020010","10020020"],"phone":"05-2321591","owner":"陳蔡美惠","start":"20240701","end":"20261231"},{"name":"嘉義市私立梅香園老人長期照顧中心（養護型）","code":"A11200003","type":"A1","city":"10020","town":"10020010","addr":"嘉義市東區後庄里林森東路877號","lng":120.482384,"lat":23.495279,"abc":"B","service":"喘息服務","zones":["10020010","10020020"],"phone":"05-2741717","owner":"郭皇村","start":"20190819","end":"20261231","beds":47,"residents":45},{"name":"嘉義市私立金蓮園老人長期照顧中心（養護型）","code":"A11200002","type":"A1","city":"10020","town":"10020010","addr":"嘉義市東區後庄里林森東路875號","lng":120.48233,"lat":23.495199,"abc":"B","service":"喘息服務","zones":["10020010","10020020"],"phone":"05-2741616","owner":"郭美君","start":"20190819","end":"20261231","beds":49,"residents":48},{"name":"衛生福利部嘉義醫院附設居家護理所","code":"B11200001","type":"B1","city":"10020","town":"10020020","addr":"嘉義市西區福安里北港路312號","lng":120.429321,"lat":23.481089,"abc":"B","service":"專業照護服務","zones":["10010010","10010020","10010030","10010040","10010050","10010060","10010070","10010080","10010090","10010100","10010110","10010120","10010130","10010140","10010150","10010160","10010170"],"phone":"05-2319090#8173","owner":"蘇雅琴","start":"20210101","end":"20240630"},{"name":"好好居家職能治療所","code":"B51200001","type":"B5","city":"10020","town":"10020010","addr":"嘉義市東區頂庄里台林街146-13號","lng":120.455566,"lat":23.496603,"abc":"B","service":"專業照護服務","zones":["10010010","10010020","10010030","10010040","10010050","10010060","10010070","10010080","10010090","10010100","10010110","10010120","10010130","10010140","10010150","10010160","10010170","10010180"],"phone":"0980-963767","owner":"陳璟儫","start":"20240101","end":"20281231"},{"name":"嘉義市私立家福居家式服務類長期照顧服務機構","code":"1X1200001","type":"1","city":"10020","town":"10020010","addr":"嘉義市東區長竹里18鄰雅竹路106號1樓","lng":120.472099,"lat":23.47558,"abc":"B","service":"居家服務","zones":["10020010","10020020"],"phone":"05-2255810","owner":"蔡素琴","start":"20240701","end":"20261231"},{"name":"嘉義市私立家福居家式服務類長期照顧服務機構","code":"1X1200001","type":"1","city":"10020","town":"10020010","addr":"嘉義市東區長竹里18鄰雅竹路106號1樓","lng":120.472099,"lat":23.47558,"abc":"B","service":"喘息服務","zones":["10020010","10020020"],"phone":"05-2255810","owner":"蔡素琴","start":"20240701","end":"20261231"},{"name":"慶昇醫療社團法人慶昇醫院(保福里)","code":"B21200027","type":"B2","city":"10020","town":"10020020","addr":"嘉義市西區保福里德安路116號1樓","lng":120.429451,"lat":23.4841,"abc":"C","service":"巷弄長照站","zones":["10020010","10020020"],"phone":"05-2229191#202","owner":"黃旭揚","start":"20190901","end":"20231231"},{"name":"衛生福利部嘉義醫院(嘉義市-C)","code":"B21200029","type":"B2","city":"10020","town":"10020020","addr":"嘉義市西區新富里13鄰新榮路163號","lng":120.444572,"lat":23.47459,"abc":"C","service":"巷弄長照站","zones":["10020010","10020020"],"phone":"05-2319090*2551","owner":"黃元德","start":"20190901","end":"20231231"},{"name":"嘉義市東區興仁社區發展協會","code":"BF1200003","type":"BF","city":"10020","town":"10020010","addr":"嘉義市東區興仁里1鄰軍輝路47號","lng":120.463448,"lat":23.455759,"abc":"C","service":"巷弄長照站","zones":["10020010"],"phone":"05-2392307","owner":"盧綉珠","start":"20190901","end":"20231231"},{"name":"嘉義市西區福民社區發展協會","code":"BF1200004","type":"BF","city":"10020","town":"10020020","addr":"嘉義市西區福民里蘭州一街31號","lng":120.435379,"lat":23.4645,"abc":"C","service":"巷弄長照站","zones":["10020020"],"phone":"05-2369222","owner":"李宗亮","start":"20190901","end":"20231231"},{"name":"嘉義市西區文化社區發展協會","code":"BF1200005","type":"BF","city":"10020","town":"10020020","addr":"嘉義市西區文化里9鄰文化路81之1號3樓","lng":120.449638,"lat":23.477501,"abc":"C","service":"巷弄長照站","zones":["10020020"],"phone":"2292690","owner":"蘇隆顯","start":"20190901","end":"20231231"},{"name":"嘉義市西區鳳梨會社社區發展協會","code":"BF1200006","type":"BF","city":"10020","town":"10020020","addr":"嘉義市西區垂楊里6鄰建成街58巷73號","lng":120.440514,"lat":23.472281,"abc":"C","service":"巷弄長照站","zones":["10020020"],"phone":"05-2850580","owner":"黃琮榮","start":"20190901","end":"20211231"},{"name":"嘉義市西區車店社區發展協會","code":"BF1200007","type":"BF","city":"10020","town":"10020020","addr":"嘉義市西區車店里5鄰車店街2號","lng":120.4347,"lat":23.46571,"abc":"C","service":"巷弄長照站","zones":["10020020"],"phone":"0928-132978","owner":"陳姿羽","start":"20190901","end":"20231231"},{"name":"佛光山圓福寺","code":"BF1200009","type":"BF","city":"10020","town":"10020020","addr":"嘉義市西區後驛里9鄰博愛路2段241號","lng":120.438301,"lat":23.47974,"abc":"C","service":"巷弄長照站","zones":["10020020"],"phone":"05-2325982*8106","owner":"蘇秋色","start":"20190901","end":"20231231"},{"name":"嘉義市嘉北社區關懷發展協會","code":"BF1200010","type":"BF","city":"10020","town":"10020010","addr":"嘉義市東區仁義里15鄰嘉北街66巷19號","lng":120.454712,"lat":23.494261,"abc":"C","service":"巷弄長照站","zones":["10020010"],"phone":"05-2778567","owner":"蔡振嘉","start":"20190901","end":"20221231"},{"name":"財團法人雙福社會福利慈善事業基金會(祈樂園)","code":"BD1200005","type":"BD","city":"10020","town":"10020020","addr":"嘉義市西區保生里12鄰自由路426號","lng":120.433456,"lat":23.491751,"abc":"C","service":"巷弄長照站","zones":["10020020"],"phone":"05-2348836 ","owner":"吳英賓","start":"20190901","end":"20231231"},{"name":"社團法人嘉義市家庭關懷協會","code":"BE1200012","type":"BE","city":"10020","town":"10020020","addr":"嘉義市西區西平里永春一街101號","lng":120.425568,"lat":23.477301,"abc":"C","service":"巷弄長照站","zones":["10020020"],"phone":"05-2842782","owner":"方照佳","start":"20190901","end":"20231231"},{"name":"社團法人嘉義市真正好全人關顧協會","code":"BE1200013","type":"BE","city":"10020","town":"10020010","addr":"嘉義市東區王田里15鄰圓福街82號","lng":120.46479,"lat":23.486691,"abc":"C","service":"巷弄長照站","zones":["10020010"],"phone":"05-2772077","owner":"劉茂約","start":"20190901","end":"20231231"},{"name":"嘉義市國華杏福檜樂福利協會","code":"BF1200011","type":"BF","city":"10020","town":"10020020","addr":"嘉義市西區國華里3鄰文化路193巷8號","lng":120.448792,"lat":23.48135,"abc":"C","service":"巷弄長照站","zones":["10020020"],"phone":"05-2287776","owner":"葉勝利","start":"20190901","end":"20231231"},{"name":"財團法人嘉義市慈龍寺","code":"BD1200006","type":"BD","city":"10020","town":"10020010","addr":"嘉義市東區北門里8鄰長榮街206號","lng":120.449623,"lat":23.483393,"abc":"C","service":"巷弄長照站","zones":["10020010"],"phone":"05-2774488","owner":"林亮光","start":"20190901","end":"20231231"},{"name":"財團法人私立天主教中華聖母社會福利慈善事業基金會(嘉義市-C)","code":"BD1200007","type":"BD","city":"10020","town":"10020020","addr":"嘉義市西區致遠里20鄰新榮路35巷14號1樓 ","lng":120.444603,"lat":23.469999,"abc":"C","service":"巷弄長照站","zones":["10020020"],"phone":"05-2253901","owner":"陳美惠","start":"20190901","end":"20231231"},{"name":"測試","code":"BF1200012","type":"BF","city":"10020","town":"10020010","addr":"嘉義市東區芳草里00","lng":120.46656,"lat":23.467131,"abc":"B","service":"居家服務","zones":["10020010"],"phone":"05-55555555","owner":"測試","start":"20191001","end":"20191231"},{"name":"慶昇醫療社團法人慶昇醫院","code":"B21200048","type":"B2","city":"10020","town":"10020020","addr":"嘉義市西區番社里新榮路339、339-1號","lng":120.443977,"lat":23.48003,"abc":"B","service":"專業照護服務","zones":["10010040","10010050","10010060","10010070","10010080","10010110","10010120","10010130","10010140","10010150","10010170","10010180"],"phone":"05-2229191#202","owner":"黃旭揚","start":"20240101","end":"20281231"},{"name":"陽明長照社團法人私立陽明綜合長照機構","code":"4L1200001","type":"4","city":"10020","town":"10020020","addr":"嘉義市西區國華里民權路387號4、5樓","lng":120.448814,"lat":23.482065,"abc":"B","service":"居家服務","zones":["10010010","10010070","10010080","10010100","10010110","10010120"],"phone":"05-2271288","owner":"謝景祥","start":"20210101","end":"20261231","residents":48},{"name":"長鴻診所","code":"B21200031","type":"B2","city":"10020","town":"10020010","addr":"嘉義市東區北門里民權路322號","lng":120.450348,"lat":23.48246,"abc":"B","service":"居家失能個案家庭醫師照護服務","zones":["10020010","10020020"],"phone":"2782113","owner":"李長鴻","start":"20190912","end":"20241231"},{"name":"施穎敏診所","code":"B21200033","type":"B2","city":"10020","town":"10020020","addr":"嘉義市西區美源里014鄰興業西路７７號1樓","lng":120.444656,"lat":23.46829,"abc":"B","service":"居家失能個案家庭醫師照護服務","zones":["10020010","10020020"],"phone":"2253652","owner":"施穎敏","start":"20191017","end":"20241231"},{"name":"衛生福利部嘉義醫院附設活力園全責式社區長照機構","code":"2A1200001","type":"2","city":"10020","town":"10020020","addr":"嘉義市西區福安里北港路312號2樓","lng":120.42907,"lat":23.481171,"abc":"B","service":"日間照顧服務(BB)","zones":["10020010","10020020"],"phone":"05-2319090*2642","owner":"周上琳","start":"20191101","end":"20261231"},{"name":"春日禾社會企業股份有限公司附設嘉義市私立春日禾居家長照機構","code":"1X1200002","type":"1","city":"10020","town":"10020010","addr":"嘉義市東區過溝里011鄰垂楊路316號6樓2","lng":120.45192,"lat":23.47436,"abc":"B","service":"居家服務","zones":["10020010","10020020"],"phone":"05-2256939","owner":"黃起富","start":"20240701","end":"20261231"},{"name":"喜樂康居家護理所","code":"B11200006","type":"B1","city":"10020","town":"10020010","addr":"嘉義市東區中庄里忠孝路577號","lng":120.448662,"lat":23.501934,"abc":"A","service":"個案管理服務","zones":["10020010","10020020"],"phone":"05-2752338","owner":"邱梅昭","start":"20190101","end":"20261231"},{"name":"財團法人伊甸社會福利基金會附設嘉義市私立嘉義居家式長期照顧服務機構","code":"1S1200003","type":"1","city":"10020","town":"10020020","addr":"嘉義市西區車店里貴州街123號","lng":120.432289,"lat":23.467979,"abc":"A","service":"個案管理服務","zones":["10020010","10020020"],"phone":"05-2860065","owner":"陳宇昭","start":"20240701","end":"20261231"},{"name":"戴徳森醫療財團法人附設私立長安園社區長照機構","code":"2U1200001","type":"2","city":"10020","town":"10020010","addr":"嘉義市東區短竹里11鄰公義路1號1樓","lng":120.463608,"lat":23.476265,"abc":"B","service":"小規模多機能服務","zones":["10020010","10020020"],"phone":"05-2763636*161","owner":"高堂恩","start":"20200101","end":"20261231"},{"name":"財團法人雙福社會福利慈善事業基金會","code":"BD1200008","type":"BD","city":"10020","town":"10020010","addr":"嘉義市東區短竹里公義路1號","lng":120.463608,"lat":23.476265,"abc":"B","service":"交通接送服務","zones":["10020010","10020020"],"phone":"05-2763636*103","owner":"吳英賓","start":"20200101","end":"20221231"},{"name":"財團法人私立天主教中華聖母社會福利慈善事業基金會附設嘉義市私立中華聖母居家式服務類長期照顧服務機構","code":"1S1200002","type":"1","city":"10020","town":"10020010","addr":"嘉義市東區中山里民權路60號5樓","lng":120.461571,"lat":23.483955,"abc":"B","service":"到宅沐浴車服務","zones":["10020010","10020020"],"phone":"05-2780040#3226","owner":"韓玲玲","start":"20240701","end":"20261231"},{"name":"永佑居家職能治療所","code":"B51200011","type":"B5","city":"10020","town":"10020020","addr":"嘉義市西區車店里車店街39號","lng":120.43409,"lat":23.46616,"abc":"B","service":"專業照護服務","zones":["10010010","10010020","10010030","10010040","10010050","10010060","10010070","10010080","10010090","10010100","10010110","10010120","10010130","10010140","10010150","10010160","10010170","10010180"],"phone":"05-2832757","owner":"楊育哲","start":"20240101","end":"20281231"},{"name":"財團法人私立天主教中華聖母社會福利慈善事業基金會","code":"BD1200009","type":"BD","city":"10020","town":"10020010","addr":"嘉義市東區民權路60號","lng":120.461479,"lat":23.484179,"abc":"B","service":"社區式交通接送服務(BD03)","zones":["10010040","10010050","10010130","10010140","10010150","10010160","10010170","10010180"],"phone":"05-2780040#1601","owner":"陳美惠","start":"20240101","end":"20281231"},{"name":"慶昇醫療社團法人慶昇醫院","code":"B21200048","type":"B2","city":"10020","town":"10020020","addr":"嘉義市西區番社里新榮路339、339-1號","lng":120.443977,"lat":23.48003,"abc":"B","service":"社區式交通接送服務(BD03)","zones":["10010010","10010020","10010030","10010040","10010050","10010060","10010070","10010080","10010090","10010100","10010110","10010120","10010130","10010140","10010150","10010160","10010170","10010180"],"phone":"05-2229191#202","owner":"黃旭揚","start":"20240101","end":"20281231"},{"name":"嘉義市東區精忠社區發展協會","code":"BF1200013","type":"BF","city":"10020","town":"10020010","addr":"嘉義市東區圳頭里精忠一村1-6號","lng":120.476738,"lat":23.49157,"abc":"C","service":"巷弄長照站","zones":["10020010","10020020"],"phone":"05-2776068","owner":"楊文俊","start":"20200101","end":"20211231"},{"name":"嘉義市西區育英里辦公處","code":"BG1200001","type":"BG","city":"10020","town":"10020020","addr":"嘉義市西區育英里國華街52號","lng":120.448372,"lat":23.47106,"abc":"C","service":"巷弄長照站","zones":["10020010","10020020"],"phone":"0936419566","owner":"林峯輝","start":"20200101","end":"20231231"},{"name":"財團法人臺南市私立靜觀社會福利慈善事業基金會嘉義分會","code":"BD1200010","type":"BD","city":"10020","town":"10020020","addr":"嘉義市西區大溪里大溪路595號","lng":120.408928,"lat":23.48271,"abc":"C","service":"巷弄長照站","zones":["10020010","10020020"],"phone":"0933364788","owner":"高快榮","start":"20200401","end":"20231231"},{"name":"陽明長照社團法人私立北門日間照顧社區長照機構","code":"2L1200001","type":"2","city":"10020","town":"10020010","addr":"嘉義市東區中央里民權路315號2樓","lng":120.45208,"lat":23.482651,"abc":"B","service":"日間照顧服務(BB)","zones":["10020010","10020020"],"phone":"05-2271290","owner":"謝景祥","start":"20200601","end":"20261231"},{"name":"嘉義市私立新仁友老人長期照顧中心（養護型）","code":"A11200017","type":"A1","city":"10020","town":"10020010","addr":"嘉義市東區北門里民權路332巷38號","lng":120.449409,"lat":23.482563,"abc":"B","service":"喘息服務","zones":["10020010","10020020"],"phone":"05-2786603","owner":"陳郁雯","start":"20200520","end":"20261231","beds":49,"residents":39},{"name":"大恩整體自然醫學診所","code":"B21200049","type":"B2","city":"10020","town":"10020020","addr":"嘉義市西區國華里林森西路200號1、2樓","lng":120.447937,"lat":23.48411,"abc":"B","service":"居家失能個案家庭醫師照護服務","zones":["10020010","10020020"],"phone":"05-2234829","owner":"羅大恩","start":"20230915","end":"20241231"},{"name":"仁德醫療社團法人附設私立仁德社區長照機構","code":"2U1200002","type":"2","city":"10020","town":"10020020","addr":"嘉義市西區番社里林森西路285號5樓","lng":120.443237,"lat":23.480169,"abc":"B","service":"日間照顧服務(BB)","zones":["10020010","10020020"],"phone":"05-2258279*168","owner":"陳仁德","start":"20200622","end":"20261231"},{"name":"嘉義市私立仁友老人長期照顧中心(養護型)","code":"A11200024","type":"A1","city":"10020","town":"10020010","addr":"嘉義市東區1鄰文化路254-1號","lng":120.449226,"lat":23.482651,"abc":"B","service":"喘息服務","zones":["10010010","10010020","10010030","10010040","10010050","10010060","10010070","10010080","10010090","10010100","10010110","10010120","10010130","10010140","10010150","10010160","10010170","10010180"],"phone":"05-2786606","owner":"陳郁雯","start":"20210101","end":"20281231","beds":49,"residents":27},{"name":"嘉義市私立新仁友老人長期照顧中心（養護型）","code":"A11200017","type":"A1","city":"10020","town":"10020010","addr":"嘉義市東區北門里民權路332巷38號","lng":120.449409,"lat":23.482563,"abc":"B","service":"喘息服務","zones":["10010010","10010020","10010030","10010040","10010050","10010060","10010070","10010080","10010090","10010100","10010110","10010120","10010130","10010140","10010150","10010160","10010170","10010180"],"phone":"05-2786603","owner":"陳郁雯","start":"20210101","end":"20281231","beds":49,"residents":39},{"name":"全台通小客車租賃有限公司","code":"BA1200001","type":"BA","city":"10020","town":"10020010","addr":"嘉義市東區東興里和平路283-1號2F","lng":120.456429,"lat":23.480799,"abc":"B","service":"社區式交通接送服務(BD03)","zones":["10020010","10020020"],"phone":"05-2293294","owner":"林舜卿","start":"20200601","end":"20261231"},{"name":"嘉安健康事業有限公司附設嘉義市私立嘉安居家長照機構","code":"1X1200003","type":"1","city":"10020","town":"10020020","addr":"嘉義市西區致遠里18鄰新榮路35巷2號1樓","lng":120.444595,"lat":23.469999,"abc":"B","service":"居家服務","zones":["10020010","10020020"],"phone":"05-2778785","owner":"黃椘玉","start":"20240701","end":"20261231"},{"name":"天主教中華聖母修女會醫療財團法人天主教聖馬爾定醫院(中山里)","code":"B21200053","type":"B2","city":"10020","town":"10020010","addr":"嘉義市東區中山里16鄰民權路52之9號","lng":120.461899,"lat":23.484276,"abc":"C","service":"巷弄長照站","zones":["10020010","10020020"],"phone":"05-2756000*3309","owner":"王中敬","start":"20200801","end":"20231231"},{"name":"天主教中華聖母修女會醫療財團法人天主教聖馬爾定醫院(蘭潭里)","code":"B21200054","type":"B2","city":"10020","town":"10020010","addr":"嘉義市東區蘭潭里12鄰小雅路513巷10之1號","lng":120.468712,"lat":23.476595,"abc":"C","service":"巷弄長照站","zones":["10020010","10020020"],"phone":"05-2756000*3309","owner":"王中敬","start":"20200801","end":"20231231"},{"name":"王國哲診所(重興里)","code":"B21200055","type":"B2","city":"10020","town":"10020020","addr":"嘉義市西區重興里5鄰興達路129號","lng":120.442085,"lat":23.488905,"abc":"C","service":"巷弄長照站","zones":["10020020"],"phone":"05-2310550*30","owner":"王國哲","start":"20200801","end":"20231231"},{"name":"王國哲診所(磚磘里)","code":"B21200056","type":"B2","city":"10020","town":"10020020","addr":"嘉義市西區磚磘里8鄰大統路167號","lng":120.425453,"lat":23.475491,"abc":"C","service":"巷弄長照站","zones":["10020020"],"phone":"05-2310550*30","owner":"王國哲","start":"20200801","end":"20231231"},{"name":"仁德醫療社團法人陳仁德醫院(芳安里)","code":"B21200057","type":"B2","city":"10020","town":"10020010","addr":"嘉義市東區芳安里6鄰南興路20號","lng":120.461617,"lat":23.466911,"abc":"C","service":"巷弄長照站","zones":["10020010"],"phone":"05-2272556","owner":"陳仁德","start":"20200801","end":"20231231"},{"name":"嘉澤居家長照有限公司附設嘉義市私立嘉澤居家長照機構","code":"1X1200004","type":"1","city":"10020","town":"10020010","addr":"嘉義市東區新開里體育路11-7號","lng":120.459892,"lat":23.47197,"abc":"B","service":"居家服務","zones":["10020010","10020020"],"phone":"05-2277538","owner":"何翊慈","start":"20240701","end":"20261231"},{"name":"仁德醫療社團法人附設私立仁德社區長照機構","code":"2U1200002","type":"2","city":"10020","town":"10020020","addr":"嘉義市西區番社里林森西路285號5樓","lng":120.443237,"lat":23.480169,"abc":"B","service":"喘息服務","zones":["10020010","10020020"],"phone":"05-2258279*168","owner":"陳仁德","start":"20200622","end":"20261231"},{"name":"嘉義市私立博仁老人養護中心","code":"A11200009","type":"A1","city":"10020","town":"10020020","addr":"嘉義市西區保安里北社尾路49號","lng":120.427917,"lat":23.49193,"abc":"B","service":"喘息服務","zones":["10020010","10020020"],"phone":"05-2372088","owner":"陳志仁","start":"20200702","end":"20261231","beds":49,"residents":45},{"name":"嘉義市社區醫療發展協會","code":"BF1200014","type":"BF","city":"10020","town":"10020010","addr":"嘉義市東區芳安里7鄰宣信街157號","lng":120.461197,"lat":23.467669,"abc":"C","service":"巷弄長照站","zones":["10020010"],"phone":"0932807885","owner":"楊百文","start":"20200801","end":"20231231"},{"name":"陽明長照社團法人私立陽明綜合長照機構","code":"4L1200001","type":"4","city":"10020","town":"10020020","addr":"嘉義市西區國華里民權路387號4、5樓","lng":120.448814,"lat":23.482065,"abc":"B","service":"喘息服務","zones":["10020010","10020020"],"phone":"05-2271288","owner":"謝景祥","start":"20190305","end":"20261231","residents":48},{"name":"戴德森醫療財團法人嘉義基督教醫院","code":"B21200004","type":"B2","city":"10020","town":"10020020","addr":"嘉義市西區保生里自由路426號","lng":120.433456,"lat":23.491751,"abc":"B","service":"居家失能個案家庭醫師照護服務","zones":["10020010","10020020"],"phone":"05-2348836","owner":"陳煒","start":"20200803","end":"20241231"},{"name":"天主教中華聖母修女會醫療財團法人天主教聖馬爾定醫院","code":"B21200003","type":"B2","city":"10020","town":"10020010","addr":"嘉義市東區蘭潭里大雅路二段565號","lng":120.468018,"lat":23.477394,"abc":"B","service":"居家失能個案家庭醫師照護服務","zones":["10020010","10020020"],"phone":"05-2756000","owner":"王中敬","start":"20200803","end":"20241231"},{"name":"陽明醫院","code":"B21200015","type":"B2","city":"10020","town":"10020010","addr":"嘉義市東區東興里東吳鳳北路252號","lng":120.455063,"lat":23.480181,"abc":"B","service":"居家失能個案家庭醫師照護服務","zones":["10020010","10020020"],"phone":"05-2284567","owner":"謝景祥","start":"20200803","end":"20241231"},{"name":"慶昇醫療社團法人慶昇醫院","code":"B21200048","type":"B2","city":"10020","town":"10020020","addr":"嘉義市西區番社里新榮路339、339-1號","lng":120.443977,"lat":23.48003,"abc":"B","service":"居家失能個案家庭醫師照護服務","zones":["10020010","10020020"],"phone":"05-2229191#202","owner":"黃旭揚","start":"20200803","end":"20241231"},{"name":"衛生福利部嘉義醫院","code":"B21200002","type":"B2","city":"10020","town":"10020020","addr":"嘉義市西區福全里北港路312號","lng":120.429321,"lat":23.481089,"abc":"B","service":"居家失能個案家庭醫師照護服務","zones":["10020010","10020020"],"phone":"05-2319090#2539","owner":"陳殷正","start":"20200803","end":"20241231"},{"name":"仁德醫療社團法人陳仁德醫院","code":"B21200016","type":"B2","city":"10020","town":"10020020","addr":"嘉義市西區番社里林森西路285號","lng":120.443298,"lat":23.480051,"abc":"B","service":"居家失能個案家庭醫師照護服務","zones":["10020010","10020020"],"phone":"05-2165868#36","owner":"陳仁德","start":"20200803","end":"20241231"},{"name":"曾良達診所","code":"B21200058","type":"B2","city":"10020","town":"10020020","addr":"嘉義市西區保安里八德路338號","lng":120.430206,"lat":23.49132,"abc":"B","service":"居家失能個案家庭醫師照護服務","zones":["10020010","10020020"],"phone":"05 2333928","owner":"曾良達","start":"20200710","end":"20241231"},{"name":"嘉義市東區頂庄社區發展協會","code":"BF1200015","type":"BF","city":"10020","town":"10020010","addr":"嘉義市東區頂庄里義教街538號","lng":120.457802,"lat":23.49869,"abc":"C","service":"巷弄長照站","zones":["10020010","10020020"],"phone":"05-2765298","owner":"鄭淑芬","start":"20200901","end":"20211231"},{"name":"嘉義市西區下埤社區發展協會","code":"BF1200016","type":"BF","city":"10020","town":"10020020","addr":"嘉義市西區下埤里3鄰下埤路126號","lng":120.412666,"lat":23.492418,"abc":"C","service":"巷弄長照站","zones":["10020020"],"phone":"0937354321","owner":"楊竹發","start":"20200901","end":"20221231"},{"name":"天主教中華聖母修女會醫療財團法人天主教聖馬爾定醫院","code":"B21200003","type":"B2","city":"10020","town":"10020010","addr":"嘉義市東區蘭潭里大雅路二段565號","lng":120.468018,"lat":23.477394,"abc":"B","service":"專業照護服務","zones":["10010010","10010020","10010030","10010040","10010050","10010060","10010070","10010080","10010090","10010100","10010110","10010120","10010130","10010140","10010150","10010160","10010170","10010180"],"phone":"05-2756000","owner":"王中敬","start":"20240101","end":"20281231"},{"name":"衛生福利部嘉義醫院","code":"B21200002","type":"B2","city":"10020","town":"10020020","addr":"嘉義市西區福全里北港路312號","lng":120.429321,"lat":23.481089,"abc":"B","service":"專業照護服務","zones":["10010010","10010020","10010030","10010090","10010100","10010160"],"phone":"05-2319090#2539","owner":"陳殷正","start":"20240101","end":"20281231"},{"name":"戴德森醫療財團法人附設嘉基居家護理所","code":"B11200003","type":"B1","city":"10020","town":"10020010","addr":"嘉義市東區中庄里忠孝路539號","lng":120.450165,"lat":23.499418,"abc":"B","service":"專業照護服務","zones":["10010040","10010050","10010060","10010070","10010080","10010110","10010120","10010130","10010140","10010150","10010170","10010180"],"phone":"0910120531","owner":"李雅卿","start":"20240101","end":"20281231"},{"name":"陽明醫院","code":"B21200015","type":"B2","city":"10020","town":"10020010","addr":"嘉義市東區東興里東吳鳳北路252號","lng":120.455063,"lat":23.480181,"abc":"B","service":"專業照護服務","zones":["10010040","10010050","10010060","10010070","10010080","10010110","10010120","10010130","10010140","10010150","10010170","10010180"],"phone":"05-2284567","owner":"謝景祥","start":"20240101","end":"20281231"},{"name":"喜樂康居家護理所","code":"B11200006","type":"B1","city":"10020","town":"10020010","addr":"嘉義市東區中庄里忠孝路577號","lng":120.448662,"lat":23.501934,"abc":"B","service":"專業照護服務","zones":["10010010","10010020","10010030","10010040","10010050","10010060","10010070","10010080","10010090","10010100","10010110","10010120","10010130","10010140","10010150","10010160","10010170","10010180"],"phone":"05-2752338","owner":"邱梅昭","start":"20240101","end":"20281231"},{"name":"喜樂康居家護理所","code":"B11200006","type":"B1","city":"10020","town":"10020010","addr":"嘉義市東區中庄里忠孝路577號","lng":120.448662,"lat":23.501934,"abc":"A","service":"個案管理服務","zones":["10010120"],"phone":"05-2752338","owner":"邱梅昭","start":"20240101","end":"20281231"},{"name":"嘉義市私立沐光居家長照機構","code":"1X1200005","type":"1","city":"10020","town":"10020020","addr":"嘉義市西區國華里1鄰北榮街121號4樓","lng":120.447853,"lat":23.4807,"abc":"B","service":"居家服務","zones":["10020010","10020020"],"phone":"05-2250565","owner":"羅啟光","start":"20201123","end":"20261231"},{"name":"天主教中華聖母修女會醫療財團法人附設天主教聖馬爾定護理之家","code":"A31200005","type":"A3","city":"10020","town":"10020010","addr":"嘉義市東區芳草里3鄰芳安路103號","lng":120.463043,"lat":23.46843,"abc":"B","service":"喘息服務","zones":["10010010","10010020","10010030","10010040","10010050","10010060","10010070","10010080","10010090","10010100","10010110","10010120","10010130","10010140","10010150","10010160","10010170","10010180"],"phone":"05-2289916","owner":"王曉萍","start":"20200101","end":"20281231","beds":258,"residents":252},{"name":"衛生福利部嘉義醫院附設護理之家","code":"A31200003","type":"A3","city":"10020","town":"10020020","addr":"嘉義市西區北港路312號","lng":120.429321,"lat":23.481089,"abc":"B","service":"喘息服務","zones":["10010010","10010020","10010030","10010040","10010050","10010060","10010070","10010080","10010090","10010100","10010110","10010120","10010130","10010140","10010150","10010160","10010170","10010180"],"phone":"05-2319090","owner":"謝佳如","start":"20210101","end":"20281231","beds":133,"residents":101},{"name":"財團法人嘉義市私立瑞泰老人長期照護中心","code":"A11200006","type":"A1","city":"10020","town":"10020020","addr":"嘉義市西區劉厝里玉山路699號","lng":120.413589,"lat":23.468931,"abc":"B","service":"喘息服務","zones":["10010010","10010020","10010030","10010040","10010050","10010060","10010070","10010080","10010090","10010100","10010110","10010120","10010130","10010140","10010150","10010160","10010170","10010180"],"phone":"05-2352600","owner":"陳蔡美惠","start":"20190809","end":"20281231","beds":90,"residents":88},{"name":"財團法人雙福社會福利慈善事業基金會","code":"BD1200008","type":"BD","city":"10020","town":"10020010","addr":"嘉義市東區短竹里公義路1號","lng":120.463608,"lat":23.476265,"abc":"B","service":"交通接送服務","zones":["10010010","10010020","10010030","10010040","10010050","10010060","10010070","10010080","10010090","10010100","10010110","10010120","10010130","10010140","10010150","10010160","10010170","10010180"],"phone":"05-2763636*103","owner":"吳英賓","start":"20200101","end":"20231231"},{"name":"全台通小客車租賃有限公司","code":"BA1200001","type":"BA","city":"10020","town":"10020010","addr":"嘉義市東區東興里和平路283-1號2F","lng":120.456429,"lat":23.480799,"abc":"B","service":"交通接送服務","zones":["10010010","10010020","10010030","10010040","10010050","10010060","10010070","10010080","10010090","10010100","10010110","10010120","10010130","10010140","10010150","10010160","10010170","10010180"],"phone":"05-2293294","owner":"林舜卿","start":"20201001","end":"20231231"},{"name":"全台通小客車租賃有限公司(嘉義縣)","code":"BA1200002","type":"BA","city":"10020","town":"10020010","addr":"嘉義市東區東興里和平路283-1號2F","lng":120.456429,"lat":23.480799,"abc":"B","service":"社區式交通接送服務(BD03)","zones":["10010010","10010020","10010030","10010040","10010050","10010060","10010070","10010080","10010090","10010100","10010110","10010120","10010130","10010140","10010150","10010160","10010170","10010180"],"phone":"05-5518199","owner":"林舜卿","start":"20200101","end":"20281231"},{"name":"財團法人雙福社會福利慈善事業基金會","code":"BD1200008","type":"BD","city":"10020","town":"10020010","addr":"嘉義市東區短竹里公義路1號","lng":120.463608,"lat":23.476265,"abc":"B","service":"喘息服務","zones":["10010180"],"phone":"05-2763636*103","owner":"吳英賓","start":"20200226","end":"20211231"},{"name":"戴德森醫療財團法人嘉義基督教醫院","code":"B21200004","type":"B2","city":"10020","town":"10020020","addr":"嘉義市西區保生里自由路426號","lng":120.433456,"lat":23.491751,"abc":"A","service":"個案管理服務","zones":["10020010","10020020"],"phone":"05-2348836","owner":"陳煒","start":"20210101","end":"20261231"},{"name":"嘉澤居家長照有限公司附設嘉義市私立嘉澤居家長照機構","code":"1X1200004","type":"1","city":"10020","town":"10020010","addr":"嘉義市東區新開里體育路11-7號","lng":120.459892,"lat":23.47197,"abc":"B","service":"喘息服務","zones":["10020010","10020020"],"phone":"05-2277538","owner":"何翊慈","start":"20210101","end":"20261231"},{"name":"財團法人雙福社會福利慈善事業基金會","code":"BD1200008","type":"BD","city":"10020","town":"10020010","addr":"嘉義市東區短竹里公義路1號","lng":120.463608,"lat":23.476265,"abc":"B","service":"喘息服務","zones":["63000010","63000020","63000030","63000040","63000050","63000060","63000070","63000080","63000090","63000100","63000110","63000120"],"phone":"05-2763636*103","owner":"吳英賓","start":"20190917","end":"20241231"},{"name":"嘉義市私立林森樂活社區長照機構","code":"2X1200002","type":"2","city":"10020","town":"10020010","addr":"嘉義市東區新店里19鄰林森東路269巷58弄20號","lng":120.465271,"lat":23.491739,"abc":"B","service":"家庭托顧服務(BC)","zones":["10020010","10020020"],"phone":"05-2773231","owner":"劉柏亨","start":"20201126","end":"20261231"},{"name":"私立家寶居家護理所","code":"B11200025","type":"B1","city":"10020","town":"10020020","addr":"嘉義市西區光路里民生南路498號","lng":120.443382,"lat":23.460058,"abc":"B","service":"專業照護服務","zones":["10010010","10010020","10010030","10010040","10010050","10010060","10010070","10010080","10010090","10010100","10010110","10010120","10010130","10010140","10010150","10010160","10010170","10010180"],"phone":"0975055851","owner":"林素華","start":"20210101","end":"20231231"},{"name":"戴德森醫療財團法人嘉義基督教醫院","code":"B21200004","type":"B2","city":"10020","town":"10020020","addr":"嘉義市西區保生里自由路426號","lng":120.433456,"lat":23.491751,"abc":"B","service":"營養餐飲服務","zones":["10020010","10020020"],"phone":"05-2348836","owner":"陳煒","start":"20210101","end":"20261231"},{"name":"社團法人嘉義市陽明健康促進會","code":"BE1200003","type":"BE","city":"10020","town":"10020010","addr":"嘉義市東區東興里東吳鳳北路252號12樓","lng":120.453514,"lat":23.480476,"abc":"B","service":"社區式交通接送服務(BD03)","zones":["10010010","10010020","10010030","10010040","10010050","10010060","10010070","10010080","10010090","10010100","10010110","10010120","10010130","10010140","10010150","10010160","10010170","10010180"],"phone":"05-2286868","owner":"謝景祥","start":"20210101","end":"20281231"},{"name":"戴德森醫療財團法人私立祈樂園綜合長照機構","code":"4S1200001","type":"4","city":"10020","town":"10020020","addr":"嘉義市西區保生里12鄰自由路426、428號","lng":120.433456,"lat":23.491751,"abc":"B","service":"喘息服務","zones":["10020010","10020020"],"phone":"05-2348836","owner":"高堂恩","start":"20210101","end":"20240630"},{"name":"戴德森醫療財團法人私立祈樂園綜合長照機構","code":"4S1200001","type":"4","city":"10020","town":"10020020","addr":"嘉義市西區保生里12鄰自由路426、428號","lng":120.433456,"lat":23.491751,"abc":"B","service":"日間照顧服務(BB)","zones":["10020010","10020020"],"phone":"05-2348836","owner":"高堂恩","start":"20180701","end":"20261231"},{"name":"戴德森醫療財團法人私立祈樂園綜合長照機構","code":"4S1200001","type":"4","city":"10020","town":"10020020","addr":"嘉義市西區保生里12鄰自由路426、428號","lng":120.433456,"lat":23.491751,"abc":"B","service":"居家服務","zones":["10020010","10020020"],"phone":"05-2348836","owner":"高堂恩","start":"20240701","end":"20261231"},{"name":"臺中榮民總醫院嘉義分院","code":"B21200001","type":"B2","city":"10020","town":"10020020","addr":"嘉義市西區劉厝里世賢路二段600號","lng":120.422974,"lat":23.467548,"abc":"B","service":"專業照護服務","zones":["10010010","10010020","10010050","10010110","10010120","10010130"],"phone":"05 2359630","owner":"陳正榮","start":"20210101","end":"20240630"},{"name":"嘉義市私立蘭潭家福護理之家","code":"A31200009","type":"A3","city":"10020","town":"10020010","addr":"嘉義市東區學府路二九九號","lng":120.478584,"lat":23.462847,"abc":"B","service":"喘息服務","zones":["10010010","10010020","10010040","10010050","10010070","10010110","10010120","10010130","10010140","10010160"],"phone":"05-2759200","owner":"蔡素琴","start":"20210101","end":"20281231","beds":99,"residents":99},{"name":"仁德醫療社團法人陳仁德醫院","code":"B21200016","type":"B2","city":"10020","town":"10020020","addr":"嘉義市西區番社里林森西路285號","lng":120.443298,"lat":23.480051,"abc":"B","service":"專業照護服務","zones":["10020010","10020020"],"phone":"05-2165868#36","owner":"陳仁德","start":"20210101","end":"20261231"},{"name":"王國哲診所","code":"B21200017","type":"B2","city":"10020","town":"10020020","addr":"嘉義市西區福全里博愛路二段359號","lng":120.435181,"lat":23.475965,"abc":"B","service":"居家失能個案家庭醫師照護服務","zones":["10020010","10020020"],"phone":"291-1231","owner":"王國哲","start":"20210101","end":"20241231"},{"name":"臺中榮民總醫院嘉義分院綜合長照機構","code":"4C1200001","type":"4","city":"10020","town":"10020010","addr":"嘉義市東區過溝里吳鳳北路35巷4號2樓","lng":120.453331,"lat":23.475031,"abc":"B","service":"日間照顧服務(BB)","zones":["10020010","10020020"],"phone":"05-2168371*7926","owner":"陳正榮","start":"20180516","end":"20261231"},{"name":"臺中榮民總醫院嘉義分院綜合長照機構","code":"4C1200001","type":"4","city":"10020","town":"10020010","addr":"嘉義市東區過溝里吳鳳北路35巷4號2樓","lng":120.453331,"lat":23.475031,"abc":"B","service":"居家服務","zones":["10020010","10020020"],"phone":"05-2168371*7926","owner":"陳正榮","start":"20210101","end":"20261231"},{"name":"戴徳森醫療財團法人附設私立長安園社區長照機構","code":"2U1200001","type":"2","city":"10020","town":"10020010","addr":"嘉義市東區短竹里11鄰公義路1號1樓","lng":120.463608,"lat":23.476265,"abc":"B","service":"喘息服務","zones":["10020010","10020020"],"phone":"05-2763636*161","owner":"高堂恩","start":"20210101","end":"20261231"},{"name":"六福診所","code":"B21200059","type":"B2","city":"10020","town":"10020020","addr":"嘉義市西區興業西路333號1樓","lng":120.437866,"lat":23.467468,"abc":"B","service":"居家失能個案家庭醫師照護服務","zones":["10020010","10020020"],"phone":"05-2853300","owner":"吳培正","start":"20210121","end":"20241231"},{"name":"仁德醫療社團法人陳仁德醫院(文雅里)","code":"B21200060","type":"B2","city":"10020","town":"10020010","addr":"嘉義市東區文雅里大雅路一段786號","lng":120.485947,"lat":23.480625,"abc":"C","service":"巷弄長照站","zones":["10020010","10020020"],"phone":"05-2758600","owner":"陳仁德","start":"20210101","end":"20231231"},{"name":"仁德醫療社團法人陳仁德醫院(光路里)","code":"B21200061","type":"B2","city":"10020","town":"10020020","addr":"嘉義市西區光路里新民路555巷6號","lng":120.440086,"lat":23.46073,"abc":"C","service":"巷弄長照站","zones":["10020010","10020020"],"phone":"05-2855258","owner":"陳仁德","start":"20210101","end":"20231231"},{"name":"仁德醫療社團法人附設護理之家","code":"A31200004","type":"A3","city":"10020","town":"10020020","addr":"嘉義市西區慶昇里林森西路285號","lng":120.443298,"lat":23.480051,"abc":"A","service":"個案管理服務","zones":["10020010","10020020"],"phone":"05-2258279","owner":"李淑儀","start":"20210223","end":"20261231","beds":40,"residents":40},{"name":"戴德森醫療財團法人嘉義基督教醫院","code":"B21200004","type":"B2","city":"10020","town":"10020020","addr":"嘉義市西區保生里自由路426號","lng":120.433456,"lat":23.491751,"abc":"B","service":"社區式交通接送服務(BD03)","zones":["10020010","10020020"],"phone":"05-2348836","owner":"陳煒","start":"20210101","end":"20261231"},{"name":"路加診所","code":"B21200062","type":"B2","city":"10020","town":"10020020","addr":"嘉義市西區國華里林森西路198號","lng":120.447906,"lat":23.4841,"abc":"B","service":"居家失能個案家庭醫師照護服務","zones":["10020010","10020020"],"phone":"2234829","owner":"林惠姿","start":"20210304","end":"20221231"},{"name":"好好居家職能治療所","code":"B51200001","type":"B5","city":"10020","town":"10020010","addr":"嘉義市東區頂庄里台林街146-13號","lng":120.455566,"lat":23.496603,"abc":"A","service":"個案管理服務","zones":["10020010","10020020"],"phone":"0980-963767","owner":"陳璟儫","start":"20210222","end":"20261231"},{"name":"財團法人雙福社會福利慈善事業基金會","code":"BD1200008","type":"BD","city":"10020","town":"10020010","addr":"嘉義市東區短竹里公義路1號","lng":120.463608,"lat":23.476265,"abc":"C","service":"巷弄長照站","zones":["63000010","63000020","63000030","63000040","63000050","63000060","63000070","63000080","63000090","63000100","63000110","63000120"],"phone":"05-2763636*103","owner":"吳英賓","start":"20190917","end":"20241231"},{"name":"仁德醫療社團法人陳仁德醫院","code":"B21200016","type":"B2","city":"10020","town":"10020020","addr":"嘉義市西區番社里林森西路285號","lng":120.443298,"lat":23.480051,"abc":"B","service":"專業照護服務","zones":["10010040","10010050","10010060","10010070","10010080","10010110","10010120","10010130","10010140","10010150","10010170","10010180"],"phone":"05-2165868#36","owner":"陳仁德","start":"20240101","end":"20281231"},{"name":"順安診所","code":"B21300092","type":"B2","city":"10020","town":"10020010","addr":"嘉義市東區吳鳳南路248號","lng":120.300644,"lat":23.559692,"abc":"B","service":"居家失能個案家庭醫師照護服務","zones":["10010020","10010070","10010080","10010090","10010110"],"phone":"05-7812101","owner":"楊百文","start":"20210322","end":"20211231"},{"name":"嘉義市私立東洋護理之家","code":"A31200010","type":"A3","city":"10020","town":"10020010","addr":"嘉義市東區文雅里文心街162號","lng":120.486671,"lat":23.48188,"abc":"B","service":"喘息服務","zones":["10010010","10010020","10010030","10010040","10010050","10010060","10010070","10010080","10010090","10010100","10010110","10010120","10010130","10010140","10010150","10010160","10010170","10010180"],"phone":"05-2761297","owner":"胡閔閔","start":"20210101","end":"20281231","beds":62,"residents":58},{"name":"財團法人私立天主教中華聖母社會福利慈善事業基金會附設嘉義市私立中華聖母居家式服務類長期照顧服務機構","code":"1S1200002","type":"1","city":"10020","town":"10020010","addr":"嘉義市東區中山里民權路60號5樓","lng":120.461571,"lat":23.483955,"abc":"B","service":"到宅沐浴車服務","zones":["10010010","10010020","10010030","10010040","10010050","10010060","10010070","10010080","10010090","10010100","10010110","10010120","10010130","10010140","10010150","10010160"],"phone":"05-2780040#3226","owner":"韓玲玲","start":"20210101","end":"20271231"},{"name":"仁德醫療社團法人附設護理之家","code":"A31200004","type":"A3","city":"10020","town":"10020020","addr":"嘉義市西區慶昇里林森西路285號","lng":120.443298,"lat":23.480051,"abc":"B","service":"喘息服務","zones":["10010010","10010020","10010030","10010040","10010050","10010060","10010070","10010080","10010090","10010100","10010110","10010120","10010130","10010140","10010150","10010160","10010170","10010180"],"phone":"05-2258279","owner":"李淑儀","start":"20210101","end":"20281231","beds":40,"residents":40},{"name":"順安診所","code":"B21300092","type":"B2","city":"10020","town":"10020010","addr":"嘉義市東區吳鳳南路248號","lng":120.300644,"lat":23.559692,"abc":"B","service":"居家失能個案家庭醫師照護服務","zones":["10020010","10020020"],"phone":"05-7812101","owner":"楊百文","start":"20210414","end":"20241231"},{"name":"延松護理之家","code":"A31200012","type":"A3","city":"10020","town":"10020020","addr":"嘉義市西區大同路256號","lng":120.42717,"lat":23.47724,"abc":"B","service":"喘息服務","zones":["10010010","10010020","10010030","10010040","10010050","10010060","10010070","10010080","10010090","10010100","10010110","10010120","10010130","10010140","10010150","10010160","10010170","10010180"],"phone":"235-3942","owner":"趙淑琪","start":"20210101","end":"20281231","beds":51,"residents":50},{"name":"有限責任嘉義市樂善照顧服務勞動合作社附設私立樂善居家長照機構","code":"1T1200001","type":"1","city":"10020","town":"10020010","addr":"嘉義市東區芳安里7鄰宣信街177巷2號1樓","lng":120.460716,"lat":23.46796,"abc":"B","service":"居家服務","zones":["10020010","10020020"],"phone":"05-2253500","owner":"鍾承翰","start":"20240701","end":"20261231"},{"name":"佛教慈濟醫療財團法人附設嘉義市私立慈濟居家長照機構","code":"1S1200005","type":"1","city":"10020","town":"10020020","addr":"嘉義市西區書院里延平街448號三樓之4","lng":120.441689,"lat":23.476151,"abc":"B","service":"居家服務","zones":["10020010","10020020"],"phone":"2275708","owner":"釋證嚴","start":"20240701","end":"20261231"},{"name":"嘉安健康事業有限公司附設嘉義市私立嘉安居家長照機構","code":"1X1200003","type":"1","city":"10020","town":"10020020","addr":"嘉義市西區致遠里18鄰新榮路35巷2號1樓","lng":120.444595,"lat":23.469999,"abc":"B","service":"喘息服務","zones":["10020010","10020020"],"phone":"05-2778785","owner":"黃椘玉","start":"20210506","end":"20261231"},{"name":"天主教中華聖母修女會醫療財團法人附設天主教聖馬爾定居家護理所","code":"B11200002","type":"B1","city":"10020","town":"10020010","addr":"嘉義市東區芳草里芳安路103號","lng":120.463127,"lat":23.468452,"abc":"B","service":"專業照護服務","zones":["10010010","10010020","10010030","10010040","10010050","10010060","10010070","10010080","10010100","10010110","10010120","10010130","10010140","10010150","10010160"],"phone":"05-2289916","owner":"藍慧娟","start":"20210101","end":"20211231"},{"name":"戴德森醫療財團法人嘉義基督教醫院","code":"B21200004","type":"B2","city":"10020","town":"10020020","addr":"嘉義市西區保生里自由路426號","lng":120.433456,"lat":23.491751,"abc":"A","service":"個案管理服務","zones":["10010010","10010050","10010070"],"phone":"05-2348836","owner":"陳煒","start":"20260101","end":"20271231"},{"name":"財團法人私立天主教中華聖母社會福利慈善事業基金會","code":"BD1200009","type":"BD","city":"10020","town":"10020010","addr":"嘉義市東區民權路60號","lng":120.461479,"lat":23.484179,"abc":"A","service":"個案管理服務","zones":["10010110","10010120"],"phone":"05-2780040#1601","owner":"陳美惠","start":"20240101","end":"20281231"},{"name":"陽明醫院","code":"B21200015","type":"B2","city":"10020","town":"10020010","addr":"嘉義市東區東興里東吳鳳北路252號","lng":120.455063,"lat":23.480181,"abc":"A","service":"個案管理服務","zones":["10010010","10010080"],"phone":"05-2284567","owner":"謝景祥","start":"20260101","end":"20271231"},{"name":"貴族養生股份有限公司附設嘉義市私立貴族居家長照機構","code":"1R1200002","type":"1","city":"10020","town":"10020020","addr":"嘉義市西區竹圍里友愛路288號5樓6","lng":120.433922,"lat":23.4841,"abc":"B","service":"居家服務","zones":["10020010","10020020"],"phone":"2325222","owner":"張經恆","start":"20211227","end":"20261231"},{"name":"嘉義市私立幸福樹社區長照機構","code":"2X1200003","type":"2","city":"10020","town":"10020010","addr":"嘉義市東區林森里3鄰安和街199號3、4樓","lng":120.457207,"lat":23.484264,"abc":"B","service":"日間照顧服務(BB)","zones":["10020010","10020020"],"phone":"05-2780688","owner":"朱耀宗","start":"20220101","end":"20261231"},{"name":"嘉義市私立幸福樹社區長照機構","code":"2X1200003","type":"2","city":"10020","town":"10020010","addr":"嘉義市東區林森里3鄰安和街199號3、4樓","lng":120.457207,"lat":23.484264,"abc":"B","service":"喘息服務","zones":["10020010","10020020"],"phone":"05-2780688","owner":"朱耀宗","start":"20220101","end":"20261231"},{"name":"財團法人私立天主教中華聖母社會福利慈善事業基金會","code":"BD1200009","type":"BD","city":"10020","town":"10020010","addr":"嘉義市東區民權路60號","lng":120.461479,"lat":23.484179,"abc":"A","service":"個案管理服務","zones":["10020010","10020020"],"phone":"05-2780040#1601","owner":"陳美惠","start":"20220101","end":"20261231"},{"name":"嘉義市私立沐光居家長照機構","code":"1X1200005","type":"1","city":"10020","town":"10020020","addr":"嘉義市西區國華里1鄰北榮街121號4樓","lng":120.447853,"lat":23.4807,"abc":"B","service":"喘息服務","zones":["10020010","10020020"],"phone":"05-2250565","owner":"羅啟光","start":"20201123","end":"20261231"},{"name":"衛生福利部嘉義醫院附設活力園全責式社區長照機構","code":"2A1200001","type":"2","city":"10020","town":"10020020","addr":"嘉義市西區福安里北港路312號2樓","lng":120.42907,"lat":23.481171,"abc":"B","service":"喘息服務","zones":["10020010","10020020"],"phone":"05-2319090*2642","owner":"周上琳","start":"20191101","end":"20261231"},{"name":"財團法人嘉義市私立瑞泰老人長期照護中心","code":"A11200006","type":"A1","city":"10020","town":"10020020","addr":"嘉義市西區劉厝里玉山路699號","lng":120.413589,"lat":23.468931,"abc":"B","service":"喘息服務","zones":["10020010","10020020"],"phone":"05-2352600","owner":"陳蔡美惠","start":"20190101","end":"20221231","beds":90,"residents":88},{"name":"財團法人私立天主教中華聖母社會福利慈善事業基金會","code":"BD1200009","type":"BD","city":"10020","town":"10020010","addr":"嘉義市東區民權路60號","lng":120.461479,"lat":23.484179,"abc":"B","service":"社區式交通接送服務(BD03)","zones":["10020010","10020020"],"phone":"05-2780040#1601","owner":"陳美惠","start":"20220101","end":"20261231"},{"name":"群庭有限公司私立幸福田社區長照機構","code":"2V1200001","type":"2","city":"10020","town":"10020010","addr":"嘉義市東區荖藤里8鄰忠孝路790號之1、790號之2二樓","lng":120.442047,"lat":23.516224,"abc":"B","service":"日間照顧服務(BB)","zones":["10020010","10020020"],"phone":"05-2210081","owner":"許廸程","start":"20220207","end":"20261231"},{"name":"群庭有限公司私立幸福田社區長照機構","code":"2V1200001","type":"2","city":"10020","town":"10020010","addr":"嘉義市東區荖藤里8鄰忠孝路790號之1、790號之2二樓","lng":120.442047,"lat":23.516224,"abc":"B","service":"喘息服務","zones":["10020010","10020020"],"phone":"05-2210081","owner":"許廸程","start":"20220207","end":"20261231"},{"name":"財團法人私立天主教中華聖母社會福利慈善事業基金會附設嘉義市私立聖愛家園社區式服務類長期照顧服務機構","code":"2S1200004","type":"2","city":"10020","town":"10020010","addr":"嘉義市東區芳草里芳安路103號1樓","lng":120.463127,"lat":23.468452,"abc":"B","service":"日間照顧服務(BB)","zones":["10020010","10020020"],"phone":"05-2289916*1800","owner":"韓玲玲","start":"20220101","end":"20261231"},{"name":"人敏健康事業有限公司附設嘉義市私立德善居家長照機構","code":"1V1200001","type":"1","city":"10020","town":"10020020","addr":"嘉義市西區劉厝里大平街168號1樓","lng":120.415665,"lat":23.469105,"abc":"B","service":"居家服務","zones":["10020010","10020020"],"phone":"05-2350998","owner":"李佩蓉","start":"20240701","end":"20261231"},{"name":"(嘉義縣)社團法人銀色大門老人福利協會","code":"BE1200016","type":"BE","city":"10020","town":"10020020","addr":"嘉義市西區蘭州一街62號","lng":120.431068,"lat":23.46537,"abc":"B","service":"營養餐飲服務","zones":["10010010","10010020","10010030","10010040","10010050","10010060","10010070","10010080","10010090","10010100","10010110","10010120","10010130","10010140","10010150","10010160","10010170","10010180"],"phone":"0975917343","owner":"孫士姍","start":"20220601","end":"20221231"},{"name":"振興長照社團法人附設私立國泰綜合長照機構","code":"4L1200002","type":"4","city":"10020","town":"10020020","addr":"嘉義市西區港坪里2鄰育人路329號","lng":120.419006,"lat":23.472145,"abc":"B","service":"喘息服務","zones":["10020010","10020020"],"phone":"05-2363963","owner":"李淑儀","start":"20220707","end":"20261231","residents":45},{"name":"振興長照社團法人附設私立國泰綜合長照機構","code":"4L1200002","type":"4","city":"10020","town":"10020020","addr":"嘉義市西區港坪里2鄰育人路329號","lng":120.419006,"lat":23.472145,"abc":"B","service":"日間照顧服務(BB)","zones":["10020010","10020020"],"phone":"05-2363963","owner":"李淑儀","start":"20220707","end":"20261231","residents":45},{"name":"翔宇物理治療所","code":"B41200001","type":"B4","city":"10020","town":"10020020","addr":"嘉義市西區福安里泰瑞二街7巷7號","lng":120.425598,"lat":23.4842,"abc":"B","service":"專業照護服務","zones":["10010010","10010020","10010030","10010040","10010050","10010060","10010070","10010080","10010090","10010100","10010110","10010120","10010130","10010140","10010150","10010160","10010170","10010180"],"phone":"0925970598","owner":"朱世瑋","start":"20240101","end":"20281231"},{"name":"財團法人私立天主教中華聖母社會福利慈善事業基金會附設嘉義市私立聖仁失智照護家園社區長照機構","code":"2S1200006","type":"2","city":"10020","town":"10020010","addr":"嘉義市東區蘭潭里12鄰小雅路513巷32號二~四樓","lng":120.468163,"lat":23.47607,"abc":"B","service":"日間照顧服務(BB)","zones":["10020010","10020020"],"phone":"05-2772268","owner":"韓玲玲","start":"20220921","end":"20261231"},{"name":"財團法人私立天主教中華聖母社會福利慈善事業基金會附設嘉義市私立聖仁失智照護家園社區長照機構","code":"2S1200006","type":"2","city":"10020","town":"10020010","addr":"嘉義市東區蘭潭里12鄰小雅路513巷32號二~四樓","lng":120.468163,"lat":23.47607,"abc":"B","service":"團體家屋服務","zones":["10020010","10020020"],"phone":"05-2772268","owner":"韓玲玲","start":"20220901","end":"20241231"},{"name":"慈恩居家護理所","code":"B11200005","type":"B1","city":"10020","town":"10020010","addr":"嘉義市東區世賢路4段460號","lng":120.453522,"lat":23.4653,"abc":"B","service":"專業照護服務","zones":["10010010","10010020","10010030","10010070","10010080","10010090","10010100","10010110","10010120","10010130","10010160","10010170"],"phone":"0975328751","owner":"曾羿婷","start":"20240101","end":"20251231"},{"name":"財團法人嘉義市私立保康社會福利慈善事業基金會","code":"BD1200001","type":"BD","city":"10020","town":"10020010","addr":"嘉義市東區長竹里公義路1號","lng":120.463684,"lat":23.476042,"abc":"B","service":"社區式交通接送服務(BD03)","zones":["10010010","10010060","10010070","10010080","10010110","10010120"],"phone":"05-2763636#103","owner":"陳煒","start":"20221201","end":"20281231"},{"name":"財團法人嘉義市私立保康社會福利慈善事業基金會","code":"BD1200001","type":"BD","city":"10020","town":"10020010","addr":"嘉義市東區長竹里公義路1號","lng":120.463684,"lat":23.476042,"abc":"B","service":"社區式交通接送服務(BD03)","zones":["10020010","10020020"],"phone":"05-2763636#103","owner":"陳煒","start":"20230101","end":"20261231"},{"name":"財團法人私立天主教中華聖母社會福利慈善事業基金會附設嘉義市私立聖仁失智照護家園社區長照機構","code":"2S1200006","type":"2","city":"10020","town":"10020010","addr":"嘉義市東區蘭潭里12鄰小雅路513巷32號二~四樓","lng":120.468163,"lat":23.47607,"abc":"B","service":"喘息服務","zones":["10020010"],"phone":"05-2772268","owner":"韓玲玲","start":"20220921","end":"20261231"},{"name":"陽明長照社團法人私立北門日間照顧社區長照機構","code":"2L1200001","type":"2","city":"10020","town":"10020010","addr":"嘉義市東區中央里民權路315號2樓","lng":120.45208,"lat":23.482651,"abc":"B","service":"喘息服務","zones":["10020010","10020020"],"phone":"05-2271290","owner":"謝景祥","start":"20200601","end":"20261231"},{"name":"臺中榮民總醫院嘉義分院綜合長照機構","code":"4C1200001","type":"4","city":"10020","town":"10020010","addr":"嘉義市東區過溝里吳鳳北路35巷4號2樓","lng":120.453331,"lat":23.475031,"abc":"B","service":"喘息服務","zones":["10020010","10020020"],"phone":"05-2168371*7926","owner":"陳正榮","start":"20180516","end":"20261231"},{"name":"財團法人私立天主教中華聖母社會福利慈善事業基金會附設嘉義市私立聖愛家園社區式服務類長期照顧服務機構","code":"2S1200004","type":"2","city":"10020","town":"10020010","addr":"嘉義市東區芳草里芳安路103號1樓","lng":120.463127,"lat":23.468452,"abc":"B","service":"喘息服務","zones":["10020010","10020020"],"phone":"05-2289916*1800","owner":"韓玲玲","start":"20220101","end":"20261231"},{"name":"戴德森醫療財團法人私立長青園社區長照機構","code":"2S1200002","type":"2","city":"10020","town":"10020010","addr":"嘉義市東區短竹里11鄰公義路1號2樓","lng":120.463608,"lat":23.476265,"abc":"B","service":"喘息服務","zones":["10020010","10020020"],"phone":"05-2763636*207","owner":"高堂恩","start":"20180701","end":"20261231"},{"name":"王國哲診所(湖內里)","code":"B21200063","type":"B2","city":"10020","town":"10020020","addr":"嘉義市西區湖內里民生南路936號","lng":120.438087,"lat":23.45437,"abc":"C","service":"巷弄長照站","zones":["10020010","10020020"],"phone":"05-2310550*30","owner":"王國哲","start":"20210929","end":"20231231"},{"name":"王國哲診所(興安里)","code":"B21200064","type":"B2","city":"10020","town":"10020010","addr":"嘉義市東區興安里興美六路83號","lng":120.453461,"lat":23.458427,"abc":"C","service":"巷弄長照站","zones":["10020010","10020020"],"phone":"05-2310550*30","owner":"王國哲","start":"20220301","end":"20231231"},{"name":"佛教慈濟醫療財團法人大林慈濟醫院(嘉義市-C)","code":"B21200028","type":"B2","city":"10020","town":"10020020","addr":"嘉義市西區書院里延平街448號6樓之2","lng":120.441689,"lat":23.476151,"abc":"C","service":"巷弄長照站","zones":["10020010","10020020"],"phone":"05-2648000*1168","owner":"賴寧生","start":"20211007","end":"20231231"},{"name":"嘉義市東區太平社區發展協會","code":"BF1200019","type":"BF","city":"10020","town":"10020010","addr":"嘉義市東區太平里林森東路151號CH401、CH402教室","lng":120.459503,"lat":23.487667,"abc":"C","service":"巷弄長照站","zones":["10020010","10020020"],"phone":"052719155","owner":"洪興國","start":"20220401","end":"20231231"},{"name":"嘉義市百種生活發展協會","code":"BF1200020","type":"BF","city":"10020","town":"10020020","addr":"嘉義市西區紅瓦里重慶二街185附1號","lng":120.431442,"lat":23.458925,"abc":"C","service":"巷弄長照站","zones":["10020010","10020020"],"phone":"052844923","owner":"林柏妗","start":"20220801","end":"20231231"},{"name":"嘉義市西區竹村社區發展協會","code":"BF1200021","type":"BF","city":"10020","town":"10020020","addr":"嘉義市西區竹村里竹子腳1-3號","lng":120.397408,"lat":23.494888,"abc":"C","service":"巷弄長照站","zones":["10020010","10020020"],"phone":"0956510333","owner":"曾家佑","start":"20210901","end":"20231231"},{"name":"嘉義市西區竹圍社區發展協會","code":"BF1200022","type":"BF","city":"10020","town":"10020020","addr":"嘉義市西區竹圍里竹圍路17號","lng":120.433067,"lat":23.48786,"abc":"C","service":"巷弄長照站","zones":["10020010","10020020"],"phone":"0968553368","owner":"邱威誠","start":"20210901","end":"20231231"},{"name":"財團法人臺南市私立靜觀社會福利慈善事業基金會嘉義分會-何庄","code":"BD1200011","type":"BD","city":"10020","town":"10020020","addr":"嘉義市西區頭港里育人路613號","lng":120.40683,"lat":23.47337,"abc":"C","service":"巷弄長照站","zones":["10020010","10020020"],"phone":"05-2861626","owner":"高快榮","start":"20210524","end":"20231231"},{"name":"財團法人嘉義市私立保康社會福利慈善事業基金會-不荖時光","code":"BD1200013","type":"BD","city":"10020","town":"10020010","addr":"嘉義市東區荖藤里忠孝路790-56號","lng":120.44294,"lat":23.514942,"abc":"C","service":"巷弄長照站","zones":["10020010","10020020"],"phone":"0972220793","owner":"姚維仁","start":"20220816","end":"20231231"},{"name":"財團法人私立天主教中華聖母社會福利慈善事業基金會-崇仁專校","code":"BD1200012","type":"BD","city":"10020","town":"10020010","addr":"嘉義市東區盧厝里紅毛埤217號","lng":120.48259,"lat":23.47908,"abc":"C","service":"巷弄長照站","zones":["10020010","10020020"],"phone":"05-2773932#837","owner":"陳美惠","start":"20210901","end":"20231231"},{"name":"社團法人嘉義市陽明健康促進會-頂庄站","code":"BE1200017","type":"BE","city":"10020","town":"10020010","addr":"嘉義市東區頂庄里義教街542巷20號","lng":120.457527,"lat":23.499241,"abc":"C","service":"巷弄長照站","zones":["10020010","10020020"],"phone":"05-2766987","owner":"侯麗敏","start":"20210301","end":"20231231"},{"name":"嘉義市西區慶安社區發展協會","code":"BF1200023","type":"BF","city":"10020","town":"10020020","addr":"嘉義市西區慶安里長安街109巷46號","lng":120.443718,"lat":23.484659,"abc":"C","service":"巷弄長照站","zones":["10020010","10020020"],"phone":"05-2325972","owner":"蔡坤達","start":"20210301","end":"20231231"},{"name":"嘉義市西區導民社區發展協會","code":"BF1200024","type":"BF","city":"10020","town":"10020020","addr":"嘉義市西區導明里7鄰垂楊路309號","lng":120.44751,"lat":23.473379,"abc":"C","service":"巷弄長照站","zones":["10020010","10020020"],"phone":"0978968311","owner":"劉怡慧","start":"20210901","end":"20231231"},{"name":"嘉義市東區新店社區發展協會","code":"BF1200025","type":"BF","city":"10020","town":"10020010","addr":"嘉義市東區新店里林森東路269巷1弄135號","lng":120.463661,"lat":23.490839,"abc":"C","service":"巷弄長照站","zones":["10020010","10020020"],"phone":"05-2771563","owner":"吳世傑","start":"20210401","end":"20231231"},{"name":"社團法人嘉義市東區精忠社區發展協會","code":"BE1200019","type":"BE","city":"10020","town":"10020010","addr":"嘉義市東區圳頭里精忠一村1-6號","lng":120.476738,"lat":23.49157,"abc":"C","service":"巷弄長照站","zones":["10020010","10020020"],"phone":"05-2776068","owner":"楊文俊","start":"20211020","end":"20231231"},{"name":"振興健康股份有限公司附設嘉義市私立德興居家長照機構","code":"1V1200002","type":"1","city":"10020","town":"10020020","addr":"嘉義市西區新富里垂楊路508號6樓之1","lng":120.447151,"lat":23.473829,"abc":"B","service":"居家服務","zones":["10020010","10020020"],"phone":"05-2162838","owner":"李淑儀","start":"20240701","end":"20261231"},{"name":"財團法人嘉義市私立瑞泰老人長期照護中心","code":"A11200006","type":"A1","city":"10020","town":"10020020","addr":"嘉義市西區劉厝里玉山路699號","lng":120.413589,"lat":23.468931,"abc":"B","service":"喘息服務","zones":["10020010","10020020"],"phone":"05-2352600","owner":"陳蔡美惠","start":"20230101","end":"20261231","beds":90,"residents":88},{"name":"財團法人弘道老人福利基金會-嘉西據點","code":"BD1200014","type":"BD","city":"10020","town":"10020020","addr":"嘉義市西區竹圍里德安路2號","lng":120.433411,"lat":23.484221,"abc":"C","service":"巷弄長照站","zones":["10020010","10020020"],"phone":"05-3103612","owner":"王乃弘","start":"20221011","end":"20231231"},{"name":"嘉義市西區白川町社區發展協會","code":"BF1200008","type":"BF","city":"10020","town":"10020020","addr":"嘉義市西區翠岱里9鄰志昇街107號","lng":120.442123,"lat":23.4688,"abc":"C","service":"巷弄長照站","zones":["10020010","10020020"],"phone":"05-2285001","owner":"陳金虎","start":"20220301","end":"20231231"},{"name":"佛教慈濟醫療財團法人附設嘉義市私立慈濟綜合長照機構","code":"2U1200003","type":"2","city":"10020","town":"10020020","addr":"嘉義市西區書院里12鄰延平街448號四樓之2","lng":120.441689,"lat":23.476151,"abc":"B","service":"日間照顧服務(BB)","zones":["10020010","10020020"],"phone":"05-2276268","owner":"釋證嚴","start":"20230301","end":"20261231"},{"name":"佛教慈濟醫療財團法人附設嘉義市私立慈濟綜合長照機構","code":"2U1200003","type":"2","city":"10020","town":"10020020","addr":"嘉義市西區書院里12鄰延平街448號四樓之2","lng":120.441689,"lat":23.476151,"abc":"B","service":"喘息服務","zones":["10020010","10020020"],"phone":"05-2276268","owner":"釋證嚴","start":"20230301","end":"20261231"},{"name":"照安有限公司附設嘉義市私立瑞康社區長照機構","code":"2V1200002","type":"2","city":"10020","town":"10020020","addr":"嘉義市西區慶安里10鄰博愛路一段321號一樓","lng":120.443611,"lat":23.486151,"abc":"B","service":"日間照顧服務(BB)","zones":["10020010","10020020"],"phone":"05-2322533","owner":"王國哲","start":"20230320","end":"20261231"},{"name":"照安有限公司附設嘉義市私立瑞康社區長照機構","code":"2V1200002","type":"2","city":"10020","town":"10020020","addr":"嘉義市西區慶安里10鄰博愛路一段321號一樓","lng":120.443611,"lat":23.486151,"abc":"B","service":"喘息服務","zones":["10020010","10020020"],"phone":"05-2322533","owner":"王國哲","start":"20230320","end":"20261231"},{"name":"振興健康股份有限公司附設嘉義市私立德興居家長照機構","code":"1V1200002","type":"1","city":"10020","town":"10020020","addr":"嘉義市西區新富里垂楊路508號6樓之1","lng":120.447151,"lat":23.473829,"abc":"B","service":"喘息服務","zones":["10020010","10020020"],"phone":"05-2162838","owner":"李淑儀","start":"20230508","end":"20261231"},{"name":"好好居家職能治療所","code":"B51200001","type":"B5","city":"10020","town":"10020010","addr":"嘉義市東區頂庄里台林街146-13號","lng":120.455566,"lat":23.496603,"abc":"A","service":"個案管理服務","zones":["10010050","10010120"],"phone":"0980-963767","owner":"陳璟儫","start":"20240101","end":"20251231"},{"name":"財團法人嘉義市私立保康社會福利慈善事業基金會","code":"BD1200001","type":"BD","city":"10020","town":"10020010","addr":"嘉義市東區長竹里公義路1號","lng":120.463684,"lat":23.476042,"abc":"C","service":"巷弄長照站","zones":["10010050"],"phone":"05-2763636#103","owner":"陳煒","start":"20221201","end":"20281231"},{"name":"佛教慈濟醫療財團法人附設嘉義市私立慈濟居家長照機構","code":"1S1200005","type":"1","city":"10020","town":"10020020","addr":"嘉義市西區書院里延平街448號三樓之4","lng":120.441689,"lat":23.476151,"abc":"B","service":"喘息服務","zones":["10020010","10020020"],"phone":"2275708","owner":"釋證嚴","start":"20230801","end":"20261231"},{"name":"好好居家職能治療所","code":"B51200001","type":"B5","city":"10020","town":"10020010","addr":"嘉義市東區頂庄里台林街146-13號","lng":120.455566,"lat":23.496603,"abc":"B","service":"專業照護服務(CC01)","zones":["10020010","10020020"],"phone":"0980-963767","owner":"陳璟儫","start":"20210101","end":"20230630"},{"name":"天主教中華聖母修女會醫療財團法人天主教聖馬爾定醫院","code":"B21200003","type":"B2","city":"10020","town":"10020010","addr":"嘉義市東區蘭潭里大雅路二段565號","lng":120.468018,"lat":23.477394,"abc":"B","service":"專業照護服務(CC01)","zones":["10020010","10020020"],"phone":"05-2756000","owner":"王中敬","start":"20210101","end":"20261231"},{"name":"仁德醫療社團法人陳仁德醫院","code":"B21200016","type":"B2","city":"10020","town":"10020020","addr":"嘉義市西區番社里林森西路285號","lng":120.443298,"lat":23.480051,"abc":"B","service":"專業照護服務(CC01)","zones":["10020010","10020020"],"phone":"05-2165868#36","owner":"陳仁德","start":"20210101","end":"20231231"},{"name":"翔宇物理治療所","code":"B41200001","type":"B4","city":"10020","town":"10020020","addr":"嘉義市西區福安里泰瑞二街7巷7號","lng":120.425598,"lat":23.4842,"abc":"B","service":"專業照護服務(CC01)","zones":["10020010","10020020"],"phone":"0925970598","owner":"朱世瑋","start":"20220802","end":"20231231"},{"name":"陽明醫院","code":"B21200015","type":"B2","city":"10020","town":"10020010","addr":"嘉義市東區東興里東吳鳳北路252號","lng":120.455063,"lat":23.480181,"abc":"B","service":"專業照護服務(CC01)","zones":["10020010","10020020"],"phone":"05-2284567","owner":"謝景祥","start":"20210101","end":"20231231"},{"name":"嘉義市西區慶安社區發展協會","code":"BF1200023","type":"BF","city":"10020","town":"10020020","addr":"嘉義市西區慶安里長安街109巷46號","lng":120.443718,"lat":23.484659,"abc":"B","service":"營養餐飲服務","zones":["10020020"],"phone":"05-2325972","owner":"蔡坤達","start":"20230810","end":"20261231"},{"name":"財團法人台灣省私立嘉義仁愛之家","code":"A11200007","type":"A1","city":"10020","town":"10020010","addr":"嘉義市東區芳草里草地尾8號","lng":120.463867,"lat":23.467047,"abc":"B","service":"喘息服務","zones":["10010010","10010020","10010030","10010040","10010050","10010060","10010070","10010080","10010090","10010100","10010110","10010120","10010130","10010140","10010150","10010160"],"phone":"05-2250065#1007","owner":"陳俊雄","start":"20231128","end":"20281231","beds":173,"residents":140},{"name":"順安診所","code":"B21300092","type":"B2","city":"10020","town":"10020010","addr":"嘉義市東區吳鳳南路248號","lng":120.300644,"lat":23.559692,"abc":"B","service":"居家失能個案家庭醫師照護服務","zones":["10020010","10020020"],"phone":"05-7812101","owner":"楊百文","start":"20210414","end":"20241231"},{"name":"新願居家護理所","code":"B11200028","type":"B1","city":"10020","town":"10020010","addr":"嘉義市東區太平里博東路9號","lng":120.462868,"lat":23.489969,"abc":"B","service":"居家失能個案家庭醫師照護服務","zones":["10020010","10020020"],"phone":"0911881696","owner":"吳俐葦","start":"20231113","end":"20241231"},{"name":"戴德森醫療財團法人私立祈樂園綜合長照機構","code":"4S1200001","type":"4","city":"10020","town":"10020020","addr":"嘉義市西區保生里12鄰自由路426、428號","lng":120.433456,"lat":23.491751,"abc":"B","service":"喘息服務","zones":["10020010","10020020"],"phone":"05-2348836","owner":"高堂恩","start":"20180701","end":"20261231"},{"name":"臺中榮民總醫院嘉義分院綜合長照機構","code":"4C1200001","type":"4","city":"10020","town":"10020010","addr":"嘉義市東區過溝里吳鳳北路35巷4號2樓","lng":120.453331,"lat":23.475031,"abc":"B","service":"喘息服務","zones":["10020010","10020020"],"phone":"05-2168371*7926","owner":"陳正榮","start":"20210101","end":"20261231"},{"name":"貴族養生股份有限公司附設嘉義市私立貴族居家長照機構","code":"1R1200002","type":"1","city":"10020","town":"10020020","addr":"嘉義市西區竹圍里友愛路288號5樓6","lng":120.433922,"lat":23.4841,"abc":"B","service":"喘息服務","zones":["10020010","10020020"],"phone":"2325222","owner":"張經恆","start":"20211227","end":"20261231"},{"name":"世華護理之家","code":"A31200014","type":"A3","city":"10020","town":"10020010","addr":"嘉義市東區東興里9鄰和平路178號","lng":120.456512,"lat":23.4811,"abc":"B","service":"喘息服務","zones":["10020010","10020020"],"phone":"05-2767102","owner":"許素芬","start":"20240223","end":"20261231","beds":40,"residents":39},{"name":"仁德居家護理所","code":"B11200017","type":"B1","city":"10020","town":"10020020","addr":"嘉義市西區林森西路285號","lng":120.443237,"lat":23.480169,"abc":"B","service":"專業照護服務","zones":["10010040","10010050","10010060","10010070","10010080","10010110","10010120","10010130","10010140","10010150","10010170","10010180"],"phone":"225-8279#205","owner":"郭玲華","start":"20240101","end":"20281231"},{"name":"王國哲診所","code":"B21200017","type":"B2","city":"10020","town":"10020020","addr":"嘉義市西區福全里博愛路二段359號","lng":120.435181,"lat":23.475965,"abc":"B","service":"居家失能個案家庭醫師照護服務","zones":["10010120"],"phone":"291-1231","owner":"王國哲","start":"20240101","end":"20251231"},{"name":"衛生福利部嘉義醫院","code":"B21200002","type":"B2","city":"10020","town":"10020020","addr":"嘉義市西區福全里北港路312號","lng":120.429321,"lat":23.481089,"abc":"B","service":"居家失能個案家庭醫師照護服務","zones":["10010010","10010050","10010070","10010120"],"phone":"05-2319090#2539","owner":"陳殷正","start":"20240101","end":"20281231"},{"name":"天主教中華聖母修女會醫療財團法人天主教聖馬爾定醫院","code":"B21200003","type":"B2","city":"10020","town":"10020010","addr":"嘉義市東區蘭潭里大雅路二段565號","lng":120.468018,"lat":23.477394,"abc":"B","service":"居家失能個案家庭醫師照護服務","zones":["10010010","10010020","10010030","10010050","10010060","10010070","10010080","10010090","10010100","10010110","10010120","10010130","10010140","10010150","10010160"],"phone":"05-2756000","owner":"王中敬","start":"20240101","end":"20281231"},{"name":"戴德森醫療財團法人嘉義基督教醫院","code":"B21200004","type":"B2","city":"10020","town":"10020020","addr":"嘉義市西區保生里自由路426號","lng":120.433456,"lat":23.491751,"abc":"B","service":"居家失能個案家庭醫師照護服務","zones":["10010050","10010070"],"phone":"05-2348836","owner":"陳煒","start":"20240101","end":"20251231"},{"name":"嘉義市私立仁友老人長期照顧中心(養護型)","code":"A11200024","type":"A1","city":"10020","town":"10020010","addr":"嘉義市東區1鄰文化路254-1號","lng":120.449226,"lat":23.482651,"abc":"B","service":"喘息服務","zones":["10020010","10020020"],"phone":"05-2786606","owner":"陳郁雯","start":"20240325","end":"20261231","beds":49,"residents":27},{"name":"嘉義市私立健康社區長照機構","code":"2X1200006","type":"2","city":"10020","town":"10020020","addr":"嘉義市西區保生里1鄰長春三街13號一樓","lng":120.43766,"lat":23.48929,"abc":"B","service":"家庭托顧服務(BC)","zones":["10","10020010","10020020","15","5"],"phone":"05-2338020","owner":"趙麗金","start":"20240401","end":"20261231"},{"name":"佑仁診所","code":"B21200069","type":"B2","city":"10020","town":"10020020","addr":"嘉義市西區光路里2鄰世賢路四段82號","lng":120.442787,"lat":23.461672,"abc":"B","service":"居家失能個案家庭醫師照護服務","zones":["10020010","10020020"],"phone":"05-2352626","owner":"洪怡仁","start":"20240411","end":"20240630"},{"name":"順安診所","code":"B21200070","type":"B2","city":"10020","town":"10020010","addr":"嘉義市東區安業里13鄰吳鳳南路248號","lng":120.456123,"lat":23.462509,"abc":"B","service":"居家失能個案家庭醫師照護服務","zones":["10020010","10020020"],"phone":"05-2288119","owner":"楊百文","start":"20230401","end":"20240630"},{"name":"天主教中華聖母修女會醫療財團法人天主教聖馬爾定醫院","code":"B21200003","type":"B2","city":"10020","town":"10020010","addr":"嘉義市東區蘭潭里大雅路二段565號","lng":120.468018,"lat":23.477394,"abc":"B","service":"專業照護服務(CC01)","zones":["10010010","10010020","10010030","10010040","10010050","10010060","10010070","10010080","10010090","10010100","10010110","10010120","10010130","10010140","10010150","10010160","10010170","10010180"],"phone":"05-2756000","owner":"王中敬","start":"20240101","end":"20281231"},{"name":"好好居家職能治療所","code":"B51200001","type":"B5","city":"10020","town":"10020010","addr":"嘉義市東區頂庄里台林街146-13號","lng":120.455566,"lat":23.496603,"abc":"B","service":"專業照護服務(CC01)","zones":["10010010","10010020","10010030","10010040","10010050","10010060","10010070","10010080","10010090","10010100","10010110","10010120","10010130","10010140","10010150","10010160","10010170","10010180"],"phone":"0980-963767","owner":"陳璟儫","start":"20240101","end":"20281231"},{"name":"陽明醫院","code":"B21200015","type":"B2","city":"10020","town":"10020010","addr":"嘉義市東區東興里東吳鳳北路252號","lng":120.455063,"lat":23.480181,"abc":"B","service":"專業照護服務(CC01)","zones":["10010010","10010020","10010030","10010040","10010050","10010060","10010070","10010080","10010090","10010100","10010110","10010120","10010130","10010140","10010150","10010160","10010170","10010180"],"phone":"05-2284567","owner":"謝景祥","start":"20240101","end":"20281231"},{"name":"永佑居家職能治療所","code":"B51200011","type":"B5","city":"10020","town":"10020020","addr":"嘉義市西區車店里車店街39號","lng":120.43409,"lat":23.46616,"abc":"B","service":"專業照護服務(CC01)","zones":["10010010","10010020","10010030","10010040","10010050","10010060","10010070","10010080","10010090","10010100","10010110","10010120","10010130","10010140","10010150","10010160","10010170","10010180"],"phone":"05-2832757","owner":"楊育哲","start":"20240101","end":"20281231"},{"name":"陽明醫院附設護理之家(港坪里)","code":"B21200072","type":"B2","city":"10020","town":"10020020","addr":"嘉義市西區國華里民權路387號2樓","lng":120.448647,"lat":23.481991,"abc":"C","service":"巷弄長照站","zones":["10020020"],"phone":"05-2252000分機1257","owner":"楊雅喬","start":"20240101","end":"20241231"},{"name":"陽明醫院附設護理之家(中央里)","code":"B21200071","type":"B2","city":"10020","town":"10020020","addr":"嘉義市西區國華里民權路387號2樓  ","lng":120.448647,"lat":23.481991,"abc":"C","service":"巷弄長照站","zones":["10020010"],"phone":"05-2252000分機1257","owner":"楊雅喬","start":"20240101","end":"20241231"},{"name":"陽明醫院附設護理之家(港坪里)","code":"B21200072","type":"B2","city":"10020","town":"10020020","addr":"嘉義市西區國華里民權路387號2樓","lng":120.448647,"lat":23.481991,"abc":"B","service":"喘息服務","zones":["10020010","10020020"],"phone":"05-2252000分機1257","owner":"楊雅喬","start":"20240101","end":"20261231"},{"name":"陽明醫院附設護理之家(中央里)","code":"B21200071","type":"B2","city":"10020","town":"10020020","addr":"嘉義市西區國華里民權路387號2樓  ","lng":120.448647,"lat":23.481991,"abc":"B","service":"喘息服務","zones":["10020010","10020020"],"phone":"05-2252000分機1257","owner":"楊雅喬","start":"20240101","end":"20261231"},{"name":"衛生福利部嘉義醫院","code":"B21200002","type":"B2","city":"10020","town":"10020020","addr":"嘉義市西區福全里北港路312號","lng":120.429321,"lat":23.481089,"abc":"A","service":"個案管理服務","zones":["10020010","10020020"],"phone":"05-2319090#2539","owner":"陳殷正","start":"20240723","end":"20261231"},{"name":"秀田有限公司","code":"BB1200001","type":"BB","city":"10020","town":"10020010","addr":"嘉義市東區後湖里保忠三街116號","lng":120.450638,"lat":23.510538,"abc":"B","service":"輔具及居家無障礙環境改善服務","zones":["66000010","66000020","66000030","66000040","66000050","66000060","66000070","66000080","66000090","66000100","66000110","66000120","66000130","66000140","66000150","66000160","66000170","66000180","66000190","66000200","66000210","66000220","66000230","66000240","66000250","66000260","66000270","66000280","66000290"],"phone":"05-2755699","owner":"劉宜儒","start":"20240701","end":"20270630"},{"name":"嘉南儀器有限公司","code":"BB1200002","type":"BB","city":"10020","town":"10020010","addr":"嘉義市東區林森西路91號","lng":120.449837,"lat":23.484539,"abc":"B","service":"輔具及居家無障礙環境改善服務","zones":["66000010","66000020","66000030","66000040","66000050","66000060","66000070","66000080","66000090","66000100","66000110","66000120","66000130","66000140","66000150","66000160","66000170","66000180","66000190","66000200","66000210","66000220","66000230","66000240","66000250","66000260","66000270","66000280","66000290"],"phone":"05-2781982","owner":"梅高銘","start":"20240701","end":"20270630"},{"name":"財團法人嘉義市私立保康社會福利慈善事業基金會附設嘉義市私立保康老人長期照顧中心(長期照護型)","code":"A11200005","type":"A1","city":"10020","town":"10020010","addr":"嘉義市東區後湖里保順路121號","lng":120.450493,"lat":23.50556,"abc":"B","service":"喘息服務","zones":["10020010","10020020"],"phone":"05-2718003","owner":"陳煒","start":"20240901","end":"20261231","beds":196,"residents":175},{"name":"嘉義市私立好日社區長照機構","code":"2X1200007","type":"2","city":"10020","town":"10020010","addr":"嘉義市東區林森里14鄰共和路239號1樓","lng":120.454552,"lat":23.487349,"abc":"B","service":"日間照顧服務(BB)","zones":["10020010","10020020"],"phone":"05-2760234","owner":"陳璟儫","start":"20240901","end":"20261231"},{"name":"嘉義市私立好日社區長照機構","code":"2X1200007","type":"2","city":"10020","town":"10020010","addr":"嘉義市東區林森里14鄰共和路239號1樓","lng":120.454552,"lat":23.487349,"abc":"B","service":"喘息服務","zones":["10020010","10020020"],"phone":"05-2760234","owner":"陳璟儫","start":"20240901","end":"20261231"},{"name":"佑仁診所","code":"B21200069","type":"B2","city":"10020","town":"10020020","addr":"嘉義市西區光路里2鄰世賢路四段82號","lng":120.442787,"lat":23.461672,"abc":"B","service":"居家失能個案家庭醫師照護服務","zones":["10010120","10010130"],"phone":"05-2352626","owner":"洪怡仁","start":"20240828","end":"20251231"},{"name":"好好居家職能治療所","code":"B51200001","type":"B5","city":"10020","town":"10020010","addr":"嘉義市東區頂庄里台林街146-13號","lng":120.455566,"lat":23.496603,"abc":"A","service":"個案管理服務","zones":["10010130"],"phone":"0980-963767","owner":"陳璟儫","start":"20240101","end":"20251231"},{"name":"嘉義市私立展順老人長期照護中心","code":"A11200016","type":"A1","city":"10020","town":"10020010","addr":"嘉義市東區頂庄里義教街585巷33號","lng":120.459343,"lat":23.49596,"abc":"B","service":"喘息服務","zones":["10020010","10020020"],"phone":"05-2783023","owner":"張人方","start":"20240930","end":"20261231","beds":49,"residents":39},{"name":"財團法人台灣省私立王李社會福利慈善事業基金會附設嘉義市私立王李居家長照機構","code":"1S1200006","type":"1","city":"10020","town":"10020010","addr":"嘉義市東區長竹里11鄰大雅路二段234巷20號2樓","lng":120.476982,"lat":23.478769,"abc":"B","service":"居家服務","zones":["10020010","10020020"],"phone":"05-2740588","owner":"張國偉","start":"20241004","end":"20261231"},{"name":"嘉義市私立安心老人長期照顧中心（長期照護型）","code":"A11200011","type":"A1","city":"10020","town":"10020020","addr":"嘉義市西區湖內里南京路279號","lng":120.441628,"lat":23.456093,"abc":"B","service":"喘息服務","zones":["10020010","10020020"],"phone":"05-2355860","owner":"胡景文","start":"20241216","end":"20261231","beds":45,"residents":45},{"name":"衛生福利部嘉義醫院","code":"B21200002","type":"B2","city":"10020","town":"10020020","addr":"嘉義市西區福全里北港路312號","lng":120.429321,"lat":23.481089,"abc":"B","service":"專業照護服務","zones":["10020010","10020020"],"phone":"05-2319090#2539","owner":"陳殷正","start":"20241202","end":"20261231"},{"name":"社團法人嘉義市陽明健康促進會","code":"BE1200003","type":"BE","city":"10020","town":"10020010","addr":"嘉義市東區東興里東吳鳳北路252號12樓","lng":120.453514,"lat":23.480476,"abc":"B","service":"交通接送服務(DA01)","zones":["10020010","10020020"],"phone":"05-2286868","owner":"謝景祥","start":"20190101","end":"20261231"},{"name":"財團法人私立天主教中華聖母社會福利慈善事業基金會","code":"BD1200009","type":"BD","city":"10020","town":"10020010","addr":"嘉義市東區民權路60號","lng":120.461479,"lat":23.484179,"abc":"B","service":"交通接送服務(DA01)","zones":["10010040","10010050","10010130","10010140","10010150","10010160","10010170","10010180"],"phone":"05-2780040#1601","owner":"陳美惠","start":"20240101","end":"20281231"},{"name":"慶昇醫療社團法人慶昇醫院","code":"B21200048","type":"B2","city":"10020","town":"10020020","addr":"嘉義市西區番社里新榮路339、339-1號","lng":120.443977,"lat":23.48003,"abc":"B","service":"交通接送服務(DA01)","zones":["10010010","10010020","10010030","10010040","10010050","10010060","10010070","10010080","10010090","10010100","10010110","10010120","10010130","10010140","10010150","10010160","10010170","10010180"],"phone":"05-2229191#202","owner":"黃旭揚","start":"20240101","end":"20281231"},{"name":"全台通小客車租賃有限公司","code":"BA1200001","type":"BA","city":"10020","town":"10020010","addr":"嘉義市東區東興里和平路283-1號2F","lng":120.456429,"lat":23.480799,"abc":"B","service":"交通接送服務(DA01)","zones":["10020010","10020020"],"phone":"05-2293294","owner":"林舜卿","start":"20200601","end":"20261231"},{"name":"全台通小客車租賃有限公司(嘉義縣)","code":"BA1200002","type":"BA","city":"10020","town":"10020010","addr":"嘉義市東區東興里和平路283-1號2F","lng":120.456429,"lat":23.480799,"abc":"B","service":"交通接送服務(DA01)","zones":["10010010","10010020","10010030","10010040","10010050","10010060","10010070","10010080","10010090","10010100","10010110","10010120","10010130","10010140","10010150","10010160","10010170","10010180"],"phone":"05-5518199","owner":"林舜卿","start":"20200101","end":"20281231"},{"name":"社團法人嘉義市陽明健康促進會","code":"BE1200003","type":"BE","city":"10020","town":"10020010","addr":"嘉義市東區東興里東吳鳳北路252號12樓","lng":120.453514,"lat":23.480476,"abc":"B","service":"交通接送服務(DA01)","zones":["10010010","10010020","10010030","10010040","10010050","10010060","10010070","10010080","10010090","10010100","10010110","10010120","10010130","10010140","10010150","10010160","10010170","10010180"],"phone":"05-2286868","owner":"謝景祥","start":"20210101","end":"20281231"},{"name":"財團法人嘉義市私立保康社會福利慈善事業基金會","code":"BD1200001","type":"BD","city":"10020","town":"10020010","addr":"嘉義市東區長竹里公義路1號","lng":120.463684,"lat":23.476042,"abc":"B","service":"交通接送服務(DA01)","zones":["10010010","10010060","10010070","10010080","10010110","10010120"],"phone":"05-2763636#103","owner":"陳煒","start":"20221201","end":"20281231"},{"name":"財團法人嘉義市私立保康社會福利慈善事業基金會","code":"BD1200001","type":"BD","city":"10020","town":"10020010","addr":"嘉義市東區長竹里公義路1號","lng":120.463684,"lat":23.476042,"abc":"B","service":"交通接送服務(DA01)","zones":["10020010","10020020"],"phone":"05-2763636#103","owner":"陳煒","start":"20230101","end":"20261231"},{"name":"婕翔有限公司","code":"BB1200026","type":"BB","city":"10020","town":"10020010","addr":"嘉義市東區興業東路263號","lng":120.45533,"lat":23.46957,"abc":"B","service":"輔具及居家無障礙環境改善服務","zones":["10009010","10009020","10009030","10009040","10009050","10009060","10009070","10009080","10009090","10009100","10009110","10009120","10009130","10009140","10009150","10009160","10009170","10009180","10009190","10009200"],"phone":"05-2167077","owner":"辜榮俊","start":"20230101","end":"20251231"},{"name":"杏一醫療用品股份有限公司-杏一嘉基保建藥局","code":"BB1100041","type":"BB","city":"10020","town":"10020020","addr":"嘉義市西區新民路669號1樓、2樓","lng":120.439964,"lat":23.467264,"abc":"B","service":"輔具及居家無障礙環境改善服務","zones":["10009010","10009020","10009030","10009040","10009050","10009060","10009070","10009080","10009090","10009100","10009110","10009120","10009130","10009140","10009150","10009160","10009170","10009180","10009190","10009200"],"phone":"(05)276-0787","owner":"陳麗如","start":"20230101","end":"20281231"},{"name":"杏一醫療用品股份有限公司-嘉基住院門市部","code":"BB1200024","type":"BB","city":"10020","town":"10020010","addr":"嘉義市東區忠孝路543-1號","lng":120.449661,"lat":23.500191,"abc":"B","service":"輔具及居家無障礙環境改善服務","zones":["10009010","10009020","10009030","10009040","10009050","10009060","10009070","10009080","10009090","10009100","10009110","10009120","10009130","10009140","10009150","10009160","10009170","10009180","10009190","10009200"],"phone":"(05)278-6577","owner":"陳麗如","start":"20230101","end":"20281231"},{"name":"婕翔有限公司","code":"BB1200026","type":"BB","city":"10020","town":"10020010","addr":"嘉義市東區興業東路263號","lng":120.45533,"lat":23.46957,"abc":"B","service":"輔具及居家無障礙環境改善服務","zones":["10009010","10009020","10009030","10009040","10009050","10009060","10009070","10009080","10009090","10009100","10009110","10009120","10009130","10009140","10009150","10009160","10009170","10009180","10009190","10009200"],"phone":"05-2167077","owner":"辜榮俊","start":"20230101","end":"20251231"},{"name":"富群醫療器材有限公司","code":"BB1200029","type":"BB","city":"10020","town":"10020010","addr":"嘉義市東區義教街615-2號2樓","lng":120.45694,"lat":23.49807,"abc":"B","service":"輔具及居家無障礙環境改善服務","zones":["10009010","10009020","10009030","10009040","10009050","10009060","10009070","10009080","10009090","10009100","10009110","10009120","10009130","10009140","10009150","10009160","10009170","10009180","10009190","10009200"],"phone":"05-2770906","owner":"張富雄","start":"20230101","end":"20281231"},{"name":"惠大醫療儀器有限公司","code":"BB1200005","type":"BB","city":"10020","town":"10020010","addr":"嘉義市東區過溝里吳鳳北路143號","lng":120.453369,"lat":23.477249,"abc":"B","service":"輔具及居家無障礙環境改善服務","zones":["10009010","10009020","10009030","10009040","10009050","10009060","10009070","10009080","10009090","10009100","10009110","10009120","10009130","10009140","10009150","10009160","10009170","10009180","10009190","10009200"],"phone":"05-2288655","owner":"李生標","start":"20230101","end":"20281231"},{"name":"鴻鈞國際有限公司","code":"BB1200019","type":"BB","city":"10020","town":"10020020","addr":"嘉義市西區興業西路88號1樓","lng":120.444351,"lat":23.468519,"abc":"B","service":"輔具及居家無障礙環境改善服務","zones":["10009010","10009020","10009030","10009040","10009050","10009060","10009070","10009080","10009090","10009100","10009110","10009120","10009130","10009140","10009150","10009160","10009170","10009180","10009190","10009200"],"phone":"05-2229902","owner":"蔡玫均","start":"20230101","end":"20281231"},{"name":"合泰儀器行","code":"BB1200032","type":"BB","city":"10020","town":"10020010","addr":"嘉義市東區長榮街52之3號","lng":120.456367,"lat":23.4844,"abc":"B","service":"輔具及居家無障礙環境改善服務","zones":["10010010","10010020","10010030","10010040","10010050","10010060","10010070","10010080","10010090","10010100","10010110","10010120","10010130","10010140","10010150","10010160","10010170","10010180"],"phone":"05-2789006","owner":"郭尤美","start":"20230107","end":"20261231"},{"name":"祥安醫療器材有限公司","code":"BB1200018","type":"BB","city":"10020","town":"10020010","addr":"嘉義市東區保建街147號","lng":120.451729,"lat":23.50045,"abc":"B","service":"輔具及居家無障礙環境改善服務","zones":["10010010","10010020","10010030","10010040","10010050","10010060","10010070","10010080","10010090","10010100","10010110","10010120","10010130","10010140","10010150","10010160","10010170","10010180"],"phone":"05-2777126","owner":"何靜宜","start":"20230101","end":"20261231"},{"name":"永烝醫療器材行","code":"BB1200012","type":"BB","city":"10020","town":"10020020","addr":"嘉義市西區興業西路335號","lng":120.437759,"lat":23.467621,"abc":"B","service":"輔具及居家無障礙環境改善服務","zones":["10020000","10020010","10020020"],"phone":"05-2356000","owner":"吳長安","start":"20240701","end":"20261231"},{"name":"長奕醫療器材行","code":"BB1200023","type":"BB","city":"10020","town":"10020010","addr":"嘉義市東區北榮街11號1樓","lng":120.45192,"lat":23.481739,"abc":"B","service":"輔具及居家無障礙環境改善服務","zones":["10020000","10020010","10020020"],"phone":"05-2280606","owner":"林長青","start":"20240701","end":"20271231"},{"name":"聖心藥局","code":"BB1200017","type":"BB","city":"10020","town":"10020010","addr":"嘉義市東區蘭潭里大雅路二段577號","lng":120.467644,"lat":23.47718,"abc":"B","service":"輔具及居家無障礙環境改善服務","zones":["10020000","10020010","10020020"],"phone":"05-2777189","owner":"林岫加","start":"20240701","end":"20271231"},{"name":"康興醫療器材行","code":"BB1200022","type":"BB","city":"10020","town":"10020010","addr":"嘉義市東區民樂街145號","lng":120.45385,"lat":23.480671,"abc":"B","service":"輔具及居家無障礙環境改善服務","zones":["10020000","10020010","10020020"],"phone":"05-2163577","owner":"薛素貞","start":"20240701","end":"20261231"},{"name":"宏揚醫療器材行","code":"BB1200035","type":"BB","city":"10020","town":"10020010","addr":"嘉義市東區太平里新生路618號","lng":120.457527,"lat":23.493048,"abc":"B","service":"輔具及居家無障礙環境改善服務","zones":["10020000","10020010","10020020"],"phone":"05-2766001","owner":"黃孝揚","start":"20240701","end":"20261231"},{"name":"樂福居熟齡事業有限公司","code":"BB1300039","type":"BB","city":"10020","town":"10020020","addr":"嘉義市西區自強街195巷123號1樓","lng":120.420311,"lat":23.463629,"abc":"B","service":"輔具及居家無障礙環境改善服務","zones":["10010010","10010020","10010030","10010040","10010050","10010060","10010070","10010080","10010090","10010100","10010110","10010120","10010130","10010140","10010150","10010160","10010170","10010180"],"phone":"05-2362652","owner":"楊麗卿","start":"20230101","end":"20261231"},{"name":"聖欣醫療器材行","code":"BB1200021","type":"BB","city":"10020","town":"10020010","addr":"嘉義市東區蘭潭里大雅路二段577號","lng":120.467644,"lat":23.47718,"abc":"B","service":"輔具及居家無障礙環境改善服務","zones":["10010010","10010020","10010030","10010040","10010050","10010060","10010070","10010080","10010090","10010100","10010110","10010120","10010130","10010140","10010150","10010160","10010170","10010180"],"phone":"05-2777189","owner":"林岫加","start":"20230303","end":"20261231"},{"name":"杏一醫療用品股份有限公司嘉義新民店","code":"BB1200036","type":"BB","city":"10020","town":"10020020","addr":"嘉義市西區新民路669號1、2樓","lng":120.439964,"lat":23.467264,"abc":"B","service":"輔具及居家無障礙環境改善服務","zones":["10010010","10010020","10010030","10010040","10010050","10010060","10010070","10010080","10010090","10010100","10010110","10010120","10010130","10010140","10010150","10010160","10010170","10010180"],"phone":"05-2841301","owner":"陳麗如","start":"20230101","end":"20261231"},{"name":"永佑企業有限公司","code":"BB1200011","type":"BB","city":"10020","town":"10020020","addr":"嘉義市西區車店里車店街39號","lng":120.43409,"lat":23.46616,"abc":"B","service":"輔具及居家無障礙環境改善服務","zones":["10020010","10020020"],"phone":"05-2832757","owner":"楊育哲","start":"20240701","end":"20261231"},{"name":"昇倢有限公司","code":"BB1200028","type":"BB","city":"10020","town":"10020010","addr":"嘉義市東區仁義里嘉南街111號1樓","lng":120.454239,"lat":23.49238,"abc":"B","service":"輔具及居家無障礙環境改善服務","zones":["10010010","10010020","10010030","10010040","10010050","10010060","10010070","10010080","10010090","10010100","10010110","10010120","10010130","10010140","10010150","10010160","10010170","10010180"],"phone":"05-2750130","owner":"曾雅群","start":"20230101","end":"20261231"},{"name":"照安藥局","code":"BB1200031","type":"BB","city":"10020","town":"10020020","addr":"嘉義市西區福全里博愛路二段361號","lng":120.434944,"lat":23.475765,"abc":"B","service":"輔具及居家無障礙環境改善服務","zones":["10020000","10020010","10020020"],"phone":"05-2332882","owner":"賴幸吟","start":"20240701","end":"20271231"},{"name":"弘安藥粧生活館有限公司","code":"BB1200033","type":"BB","city":"10020","town":"","addr":"嘉義市文化路275號","lng":120.448601,"lat":23.483829,"abc":"B","service":"輔具及居家無障礙環境改善服務","zones":["10020000","10020010","10020020"],"phone":"05-2838088#110","owner":"陳俊男","start":"20240701","end":"20271231"},{"name":"承田貿易有限公司","code":"BB1200025","type":"BB","city":"10020","town":"10020010","addr":"嘉義市東區豐年里興業東路101號","lng":120.450836,"lat":23.469234,"abc":"B","service":"輔具及居家無障礙環境改善服務","zones":["10009010","10009020","10009030","10009040","10009050","10009060","10009070","10009080","10009090","10009100","10009110","10009120","10009130","10009140","10009150","10009160","10009170","10009180","10009190","10009200"],"phone":"(05)2255-110","owner":"王婉媚","start":"20231220","end":"20281231"},{"name":"杏一醫療用品股份有限公司-杏一嘉義中山藥局","code":"BB1200037","type":"BB","city":"10020","town":"10020010","addr":"嘉義市東區中山路162號一樓","lng":120.452698,"lat":23.481386,"abc":"B","service":"輔具及居家無障礙環境改善服務","zones":["10009010","10009020","10009030","10009040","10009050","10009060","10009070","10009080","10009090","10009100","10009110","10009120","10009130","10009140","10009150","10009160","10009170","10009180","10009190","10009200"],"phone":"(05)227-9235","owner":"何欣純","start":"20230101","end":"20281231"},