[{"name":"財團法人天下為公社會福利慈善事業基金會附設新北市私立天下為公居家式服務類長期照顧服務機構","code":"1S0200001","type":"1","city":"65000","town":"65000110","addr":"新北市汐止區保安里大同路三段423號1樓","lng":121.677483,"lat":25.071644,"abc":"B","service":"喘息服務","zones":["63000120"],"phone":"02-86488388","owner":"胡世賢","start":"20180101","end":"20241231"},{"name":"社團法人愛福家協會附設新北市私立愛福家居家式服務類長期照顧服務機構","code":"1R0100007","type":"1","city":"65000","town":"65000010","addr":"新北市板橋區民權路7號4樓(A室)","lng":121.475266,"lat":25.033728,"abc":"B","service":"居家服務","zones":["63000030","63000040","63000050","63000060","63000070"],"phone":"02-22500177","owner":"涂福增","start":"20180101","end":"20261231"},{"name":"財團法人天下為公社會福利慈善事業基金會附設新北市私立天下為公居家式服務類長期照顧服務機構","code":"1S0200001","type":"1","city":"65000","town":"65000110","addr":"新北市汐止區保安里大同路三段423號1樓","lng":121.677483,"lat":25.071644,"abc":"B","service":"居家服務","zones":["63000010","63000020","63000030","63000040","63000050","63000060","63000070","63000080","63000090","63000100","63000110","63000120"],"phone":"02-86488388","owner":"胡世賢","start":"20180101","end":"20261231"},{"name":"新北市私立旺福居家長照機構","code":"1X0200001","type":"1","city":"65000","town":"65000020","addr":"新北市三重區溪美里福隆路48號1樓","lng":121.492477,"lat":25.078579,"abc":"B","service":"居家服務","zones":["63000010","63000030","63000040","63000050","63000060","63000070","63000080","63000110","63000120"],"phone":"02-28571526","owner":"黃雅萍","start":"20180101","end":"20261231"},{"name":"新北市私立全曜居家式服務類長期照顧服務機構","code":"1X0200002","type":"1","city":"65000","town":"65000020","addr":"新北市三重區長江里長元街100之2號1、2樓","lng":121.502808,"lat":25.066788,"abc":"B","service":"居家服務","zones":["63000010","63000020","63000030","63000040","63000050","63000060","63000070","63000080","63000090","63000100","63000110","63000120"],"phone":"02-29722060","owner":"黃明聖","start":"20190401","end":"20261231"},{"name":"新北市私立皇冠老人養護中心","code":"A10200001","type":"A1","city":"65000","town":"65000060","addr":"新北市新店區明德里民權路60號4樓","lng":121.538582,"lat":24.983091,"abc":"B","service":"喘息服務","zones":["65000060"],"phone":"02-291571112","owner":"黃伯超","start":"20180101","end":"20241231","beds":45,"residents":47},{"name":"新北市私立慈美護理之家","code":"A30200001","type":"A3","city":"65000","town":"65000030","addr":"新北市中和區中山路2段315巷2號4樓、317號6樓","lng":121.494026,"lat":25.001736,"abc":"B","service":"喘息服務","zones":["65000030"],"phone":"02-22467727","owner":"張美素","start":"20180913","end":"20241231","beds":33,"residents":32},{"name":"遠東護理之家","code":"A30200002","type":"A3","city":"65000","town":"65000060","addr":"新北市新店區民權路129號2樓、131號2樓、133號2樓及129號4床","lng":121.535233,"lat":24.982632,"abc":"B","service":"喘息服務","zones":["63000010","63000020","63000030","63000040","63000050","63000060","63000070","63000080","63000090","63000100","63000110","63000120"],"phone":"02-22186820","owner":"羅德蘭","start":"20180101","end":"20241231","beds":84,"residents":84},{"name":"宏十字護理之家","code":"A30200003","type":"A3","city":"65000","town":"65000180","addr":"新北市深坑區北深路三段99至105號7、8樓","lng":121.605927,"lat":25.001715,"abc":"B","service":"喘息服務","zones":["63000010","63000020","63000030","63000040","63000050","63000060","63000070","63000080","63000090","63000100","63000110","63000120"],"phone":"02-26626893","owner":"張麗英","start":"20190124","end":"20241231","beds":86,"residents":83},{"name":"寶興護理之家","code":"A30200006","type":"A3","city":"65000","town":"65000060","addr":"新北市新店區寶興路39號2樓至4樓、41號2樓至5樓","lng":121.549133,"lat":24.974209,"abc":"B","service":"喘息服務","zones":["63000010","63000020","63000030","63000040","63000050","63000060","63000070","63000080","63000090","63000100","63000110","63000120"],"phone":"02-29109980","owner":"廖麗如","start":"20180523","end":"20241231","beds":78,"residents":78},{"name":"新北市私立至傑護理之家","code":"A30200007","type":"A3","city":"65000","town":"65000010","addr":"新北市板橋區和平路14巷9號1-2樓、9之1號1樓","lng":121.461517,"lat":24.992874,"abc":"B","service":"喘息服務","zones":["65000060"],"phone":"02-89641787","owner":"黃惠珍","start":"20181226","end":"20241231","beds":58,"residents":56},{"name":"春暖居家護理所","code":"B10200001","type":"B1","city":"65000","town":"65000110","addr":"新北市汐止區保長里大同路二段458號2樓","lng":121.683586,"lat":25.073118,"abc":"B","service":"專業照護服務","zones":["63000010","63000020","63000030","63000040","63000050","63000060","63000070","63000080","63000090","63000100","63000110","63000120"],"phone":"02-26481736","owner":"蔡芸婕","start":"20180101","end":"20241231"},{"name":"好日子心理治療所","code":"B20200001","type":"B2","city":"65000","town":"65000020","addr":"新北市三重區田心里正義北路227號","lng":121.495995,"lat":25.069,"abc":"B","service":"專業照護服務","zones":["63000010","63000020","63000030","63000040","63000050","63000060","63000070","63000080","63000090","63000100","63000110","63000120"],"phone":"0968-063864","owner":"陳映程","start":"20180615","end":"20180615"},{"name":"柏愛藥局-永和光復據點(醫事C)","code":"B30200001","type":"B3","city":"65000","town":"65000040","addr":"新北市永和區光復里博愛街45巷1號","lng":121.519104,"lat":25.015974,"abc":"B","service":"專業照護服務","zones":["63000010","63000020","63000030","63000040","63000050","63000060","63000070","63000080","63000090","63000100","63000110","63000120"],"phone":"02-89285609","owner":"鄭文柏","start":"20180101","end":"20180101"},{"name":"同仁物理治療所","code":"B40200001","type":"B4","city":"65000","town":"65000130","addr":"新北市土城區埤林里中央路四段127號","lng":121.416306,"lat":24.957542,"abc":"B","service":"專業照護服務","zones":["63000010","63000020","63000030","63000040","63000050","63000060","63000070","63000080","63000090","63000100","63000110","63000120"],"phone":"02-80763952#312","owner":"張秀娟","start":"20180101","end":"20241231"},{"name":"社團法人新北市臨床心理師公會","code":"BE0200001","type":"BE","city":"65000","town":"65000040","addr":"新北市永和區文化里博愛街20巷1號","lng":121.518066,"lat":25.015743,"abc":"B","service":"專業照護服務","zones":["63000010","63000020","63000030","63000040","63000050","63000060","63000070","63000080","63000090","63000100","63000110","63000120"],"phone":"02-89253044","owner":"陳映程","start":"20180101","end":"20180101"},{"name":"康健小客車租賃有限公司","code":"BB0200001","type":"BA","city":"65000","town":"65000090","addr":"新北市三峽區中正路一段26號","lng":121.375877,"lat":24.93104,"abc":"B","service":"交通接送服務(DA01)","zones":["68000010","68000020","68000030","68000040","68000050","68000060","68000070","68000080","68000090","68000100","68000110","68000120","68000130"],"phone":"02-26718598","owner":"陳思妤","start":"20190101","end":"20261231"},{"name":"泰林中西藥局","code":"B30100004","type":"B3","city":"65000","town":"65000160","addr":"新北市泰山區泰林路2段206號","lng":121.433372,"lat":25.061436,"abc":"B","service":"專業照護服務","zones":["63000010","63000020","63000030","63000040","63000050","63000060","63000070","63000080","63000090","63000100","63000110","63000120"],"phone":"02-22978367","owner":"陳昭元","start":"20180131","end":"20201231"},{"name":"新北市永和區得和社區發展協會(社照C)","code":"BF0200016","type":"BF","city":"65000","town":"65000040","addr":"新北市永和區永元里秀朗路2段24巷35號","lng":121.520264,"lat":25.001963,"abc":"C","service":"巷弄長照站","zones":["65000040"],"phone":"2924-7766、2924-9067、0918-161-479","owner":"呂卓春英","start":"20220101","end":"20231231"},{"name":"新北市永和區秀朗社區發展協會(社照C)","code":"BF0200017","type":"BF","city":"65000","town":"65000040","addr":"新北市永和區秀朗里成功路1段20號-1","lng":121.526993,"lat":25.004988,"abc":"C","service":"巷弄長照站","zones":["65000040"],"phone":"02-29277654","owner":"蔡輝雄","start":"20220101","end":"20231231"},{"name":"新北市板橋區親子服務協會(社照C)","code":"BF0200021","type":"BF","city":"65000","town":"65000010","addr":"新北市板橋區中正里中正路413巷2弄26號B1","lng":121.453133,"lat":25.023449,"abc":"C","service":"巷弄長照站","zones":["65000010"],"phone":"2953-5919","owner":"黃秀美","start":"20240101","end":"20241231"},{"name":"新北市板橋區板新社區發展協會(社照C)","code":"BF0200022","type":"BF","city":"65000","town":"65000010","addr":"新北市板橋區西安里民生路二段89號之1號","lng":121.472786,"lat":25.01565,"abc":"C","service":"巷弄長照站","zones":[],"phone":"2953-4297","owner":"黃秀美","start":"20220101","end":"20231231"},{"name":"新北市板橋溪崑關懷慈善會(溪福)(社照C)","code":"BF0200023","type":"BF","city":"65000","town":"65000010","addr":"新北市板橋區溪福里金門街366巷7號","lng":121.427315,"lat":24.984015,"abc":"C","service":"巷弄長照站","zones":["65000010"],"phone":"0932-142503","owner":"陳淑美","start":"20230101","end":"20231231"},{"name":"東南社區發展協會(社照c)","code":"BF0200028","type":"BF","city":"65000","town":"65000170","addr":"新北市林口區東勢里麗園二街1巷4號","lng":121.377403,"lat":25.070004,"abc":"C","service":"巷弄長照站","zones":["65000170"],"phone":"(02)26095928","owner":"薛純良","start":"20220101","end":"20221231"},{"name":"社團法人新北市社區工作者協會(社照C)","code":"BE0200011","type":"BE","city":"65000","town":"65000260","addr":"新北市貢寮區貢寮里29巷14之一號","lng":121.907928,"lat":25.019037,"abc":"C","service":"巷弄長照站","zones":["65000260"],"phone":"(02)24942772","owner":"黃寧秋","start":"20220101","end":"20221231"},{"name":"財團法人新北市私立新希望基金會(社照C)","code":"BD0200020","type":"BD","city":"65000","town":"65000060","addr":"新北市新店區福民里三民路151號","lng":121.533569,"lat":24.973206,"abc":"C","service":"巷弄長照站","zones":["65000060"],"phone":"(02)29161575#551","owner":"吳竣皓","start":"20220101","end":"20221231"},{"name":"社團法人中華麥田關懷協會(社照C)","code":"BE0200012","type":"BE","city":"65000","town":"65000060","addr":"新北市新店區明德里明德路34號","lng":121.541695,"lat":24.977808,"abc":"C","service":"巷弄長照站","zones":["65000060"],"phone":"(02)29133936","owner":"呂瑞香","start":"20220101","end":"20221231"},{"name":"社團法人新北市新店區喜樂心靈關懷協會(社照C)","code":"BE0200013","type":"BE","city":"65000","town":"65000060","addr":"新北市新店區公崙里安康路1段207巷4鄰8-1號","lng":121.516174,"lat":24.963676,"abc":"C","service":"巷弄長照站","zones":["65000060"],"phone":"(02)20302117","owner":"許書毓","start":"20220101","end":"20221231"},{"name":"社團法人台灣新希望社區關懷協會(社照C)","code":"BE0200016","type":"BE","city":"65000","town":"65000140","addr":"新北市蘆洲區中原里9鄰中正路241號3樓","lng":121.467834,"lat":25.086668,"abc":"C","service":"巷弄長照站","zones":["65000140"],"phone":"922295129","owner":"葉聯邦","start":"20220101","end":"20221231"},{"name":"新北市新莊區原住民族發展協進會","code":"BF0200045","type":"BF","city":"65000","town":"65000050","addr":"新北市新莊區裕民里裕民街128號6樓","lng":121.4179,"lat":25.022427,"abc":"C","service":"巷弄長照站","zones":["65000050"],"phone":"0910-818-864","owner":"","start":"20190101","end":"20191231"},{"name":"財團法人新北市私立雙連社會福利慈善事業基金會-頭前站(社照C)","code":"BE0200019","type":"BE","city":"65000","town":"65000050","addr":"新北市新莊區思賢里昌平里長青街30號3樓","lng":121.456558,"lat":25.042252,"abc":"C","service":"巷弄長照站","zones":["65000050"],"phone":"(02)29986838","owner":"蔡政道","start":"20240101","end":"20241231"},{"name":"光田里陪伴站(社照C)","code":"BF0200054","type":"BF","city":"65000","town":"65000020","addr":"新北市三重區光田里光田里中華路5號","lng":121.483398,"lat":25.060223,"abc":"C","service":"巷弄長照站","zones":["65000020"],"phone":"(02)29853477","owner":"吳勝文","start":"20220101","end":"20231231"},{"name":"新北市私立醒吾高級中學","code":"BF0200057","type":"BF","city":"65000","town":"65000170","addr":"新北市林口區東林里東林里粉寮路1段75巷80號","lng":121.39724,"lat":25.079069,"abc":"C","service":"巷弄長照站","zones":["65000170"],"phone":"(02)26012644","owner":"","start":"20190101","end":"20191231"},{"name":"新北市奇布施老人養生協會(社照C)","code":"BF0200059","type":"BF","city":"65000","town":"65000060","addr":"新北市新店區信義里寶興里寶慶街10號23樓-1","lng":121.543465,"lat":24.986973,"abc":"C","service":"巷弄長照站","zones":["65000060"],"phone":"(02)89125508","owner":"周碧珠","start":"20190101","end":"20211231"},{"name":"新北市雙溪區衛生所","code":"B20200007","type":"B2","city":"65000","town":"65000250","addr":"新北市雙溪區新基里新基南街18號","lng":121.866257,"lat":25.037989,"abc":"C","service":"巷弄長照站","zones":["65000250"],"phone":"02-24931210#22","owner":"吳一青","start":"20190401","end":"20211231"},{"name":"醫療財團法人徐元智先生醫藥基金會亞東紀念醫院(醫事C)","code":"B20200043","type":"B2","city":"65000","town":"65000010","addr":"新北市板橋區華東里南雅南路二段118號1樓","lng":121.453056,"lat":25.000231,"abc":"C","service":"巷弄長照站","zones":["65000010"],"phone":"02-77282243","owner":"林芳郁","start":"20190401","end":"20211231"},{"name":"板橋中興醫院附設居家護理所","code":"B10200012","type":"B1","city":"65000","town":"65000010","addr":"新北市板橋區福星里忠孝路28號5樓","lng":121.460281,"lat":25.001764,"abc":"C","service":"巷弄長照站","zones":["65000010"],"phone":"02-89512388","owner":"張瓈方","start":"20190401","end":"20211231"},{"name":"新北市私立旺福居家長照機構","code":"1X0200001","type":"1","city":"65000","town":"65000020","addr":"新北市三重區溪美里福隆路48號1樓","lng":121.492477,"lat":25.078579,"abc":"B","service":"喘息服務","zones":["63000010","63000030","63000040","63000050","63000060","63000070","63000080","63000110"],"phone":"02-28571526","owner":"黃雅萍","start":"20180418","end":"20241231"},{"name":"財團法人私立廣恩老人養護中心附設新北市私立瑞芳明燈社區長照機構","code":"2S0200018","type":"2","city":"65000","town":"65000120","addr":"新北市瑞芳區龍興里明燈路三段2號2樓","lng":121.808899,"lat":25.107771,"abc":"B","service":"小規模多機能服務","zones":["10017010","10017020","10017030","10017040","10017050","10017060","10017070"],"phone":"02-24063888","owner":"林偉峰","start":"20231206","end":"20250421"},{"name":"新北市私立聯順居家式服務類長期照顧服務機構-永安里巷弄長照站(醫事C)","code":"B10200081","type":"B1","city":"65000","town":"65000010","addr":"新北市板橋區永安里萬板路186號1樓","lng":121.476189,"lat":25.023706,"abc":"C","service":"巷弄長照站","zones":["65000010","65000030"],"phone":"(02)29685077分機186","owner":"汪秋蓉","start":"20190401","end":"20201231"},{"name":"新北市私立聯順居家式服務類長期照顧服務機構-漢生里巷弄長照站(醫事C)","code":"B10200082","type":"B1","city":"65000","town":"65000010","addr":"新北市板橋區漢生里文化路一段45巷1弄1號","lng":121.460373,"lat":25.0137,"abc":"C","service":"巷弄長照站","zones":["65000010","65000030"],"phone":"(02)29685077分機29","owner":"汪秋蓉","start":"20190401","end":"20201231"},{"name":"新北市私立聯順居家式服務類長期照顧服務機構-景福里巷弄長照(醫事C)","code":"B10200083","type":"B1","city":"65000","town":"65000030","addr":"新北市中和區景福里捷運路109號1樓","lng":121.507828,"lat":24.990105,"abc":"C","service":"巷弄長照站","zones":["65000010","65000030"],"phone":"(02)2968-5077分機160","owner":"汪秋蓉","start":"20190401","end":"20201231"},{"name":"台灣基督長老教會馬偕醫療財團法人淡水馬偕紀念醫院淡水區油車里(醫事C)","code":"B20200047","type":"B2","city":"65000","town":"65000100","addr":"新北市淡水區油車里淡海路32號","lng":121.423096,"lat":25.181564,"abc":"C","service":"巷弄長照站","zones":["65000100"],"phone":"02-28094661#2160","owner":"廖麗華","start":"20190401","end":"20211231"},{"name":"台灣基督長老教會馬偕醫療財團法人淡水馬偕紀念醫院淡水區竹圍里(醫事C)","code":"B20200048","type":"B2","city":"65000","town":"65000100","addr":"新北市淡水區竹圍里民族路31號","lng":121.461098,"lat":25.13681,"abc":"C","service":"巷弄長照站","zones":["65000100"],"phone":"02-28094661#2160","owner":"廖麗華","start":"20190401","end":"20211231"},{"name":"台灣基督長老教會馬偕醫療財團法人淡水馬偕紀念醫院八里區龍源里(醫事C)","code":"B20200055","type":"B2","city":"65000","town":"65000230","addr":"新北市八里區龍源里龍米路一段223-1號","lng":121.450928,"lat":25.131947,"abc":"C","service":"巷弄長照站","zones":["65000100"],"phone":"02-28094661轉2160","owner":"廖麗華","start":"20190401","end":"20211231"},{"name":"天主教耕莘醫療財團法人耕莘醫院-烏來據點(醫事C)","code":"B20200036","type":"B2","city":"65000","town":"65000290","addr":"新北市烏來區烏來里溫泉街90、100、102號","lng":121.551476,"lat":24.861126,"abc":"C","service":"巷弄長照站","zones":["65000290"],"phone":"(02)22193391分機67153","owner":"鄒繼群","start":"20190401","end":"20211231"},{"name":"新北市深坑區衛生所","code":"B20200005","type":"B2","city":"65000","town":"65000180","addr":"新北市深坑區深坑里深坑街165號","lng":121.612572,"lat":25.000914,"abc":"C","service":"巷弄長照站","zones":["65000180"],"phone":"02-26621567","owner":"李欣融","start":"20190401","end":"20211231"},{"name":"財團法人天下為公社會福利慈善事業基金會附設新北市私立天下為公居家式服務類長期照顧服務機構","code":"1S0200001","type":"1","city":"65000","town":"65000110","addr":"新北市汐止區保安里大同路三段423號1樓","lng":121.677483,"lat":25.071644,"abc":"B","service":"居家服務","zones":["68000010","68000020","68000030","68000050","68000060","68000070","68000080","68000120","68000130"],"phone":"02-86488388","owner":"胡世賢","start":"20190701","end":"20261231"},{"name":"新北市蘆洲區福祿壽協會(社照C)","code":"BF0200084","type":"BF","city":"65000","town":"65000140","addr":"新北市蘆洲區南港里永平街32巷69弄5號3樓","lng":121.459724,"lat":25.093273,"abc":"C","service":"巷弄長照站","zones":["65000140"],"phone":"","owner":"蔡月嬌","start":"20220101","end":"20221231"},{"name":"新北市三重區民俗文化協會(社照C)","code":"BF0200010","type":"BF","city":"65000","town":"65000020","addr":"新北市三重區承德里龍門路272-1號3樓","lng":121.50145,"lat":25.074177,"abc":"C","service":"巷弄長照站","zones":["65000020"],"phone":"(02)29720878","owner":"林玟彣","start":"20220101","end":"20231231"},{"name":"財團法人新北市基督徒蘆洲禮拜堂(社照C)","code":"BD0200037","type":"BD","city":"65000","town":"65000140","addr":"新北市蘆洲區仁德里三民路26巷71弄2號B1","lng":121.478569,"lat":25.083477,"abc":"C","service":"巷弄長照站","zones":["65000140"],"phone":"","owner":"邱大信","start":"20220101","end":"20221231"},{"name":"社團法人新北市國度關懷協會(社照C)","code":"BE0200031","type":"BE","city":"65000","town":"65000020","addr":"新北市三重區過田里重新路四段39-1號4樓","lng":121.488106,"lat":25.057726,"abc":"C","service":"巷弄長照站","zones":["65000020"],"phone":"","owner":"張聰光","start":"20220101","end":"20231231"},{"name":"新北市蘆洲區光明里辦公處(社照C)","code":"BG0200027","type":"BG","city":"65000","town":"65000140","addr":"新北市蘆洲區中原里9鄰中正路241號3樓","lng":121.467827,"lat":25.086727,"abc":"C","service":"巷弄長照站","zones":["65000140"],"phone":"8285-1931","owner":"陳文良","start":"20220101","end":"20221231"},{"name":"天主教耕莘醫療財團法人附設新北市私立永和耕莘居家式服務類長期照顧服務機構","code":"1S0200009","type":"1","city":"65000","town":"65000040","addr":"新北市永和區中興街52巷1弄12號","lng":121.517166,"lat":25.011215,"abc":"B","service":"居家服務","zones":["63000040","63000060"],"phone":"02-29286060","owner":"鍾安住","start":"20190304","end":"20261231"},{"name":"新北市新店區玫瑰社區發展協會","code":"BF0200036","type":"BF","city":"65000","town":"65000060","addr":"新北市新店區玫瑰里富貴街9巷31號","lng":121.494949,"lat":24.948933,"abc":"C","service":"巷弄長照站","zones":["65000060"],"phone":"(02)22155106","owner":"謝家珍","start":"20190101","end":"20191231"},{"name":"達特窩可居家物理治療所","code":"B40200005","type":"B4","city":"65000","town":"65000090","addr":"新北市三峽區介壽路一段276巷108弄1號","lng":121.379875,"lat":24.927761,"abc":"B","service":"專業照護服務","zones":["63000010","63000020","63000030","63000040","63000050","63000060","63000070","63000080","63000090","63000100","63000110","63000120"],"phone":"02-26748522","owner":"賴維澤","start":"20180801","end":"20241231"},{"name":"社團法人台北市營養師公會","code":"BE0200005","type":"BE","city":"65000","town":"65000010","addr":"新北市板橋區港尾里館前東路116號","lng":121.463676,"lat":25.007614,"abc":"B","service":"專業照護服務","zones":["63000010","63000020","63000030","63000040","63000050","63000060","63000070","63000080","63000090","63000100","63000110","63000120"],"phone":"02-29529827","owner":"陳珮蓉","start":"20180501","end":"20201231"},{"name":"六合社區發展協會(社照C)","code":"BF0200009","type":"BF","city":"65000","town":"65000020","addr":"新北市三重區六合里自強路2段50巷22號","lng":121.488258,"lat":25.069162,"abc":"C","service":"巷弄長照站","zones":["65000020"],"phone":"(02)29820535","owner":"陳銘豐","start":"20220101","end":"20231231"},{"name":"社團法人中華民國香柏樹長者社區關懷協會(社照C)","code":"BE0200034","type":"BE","city":"65000","town":"65000060","addr":"新北市新店區復興里北新路三段225號3樓","lng":121.539841,"lat":24.986082,"abc":"C","service":"巷弄長照站","zones":["65000060"],"phone":"02-23632096","owner":"蘇奕璋","start":"20220101","end":"20221231"},{"name":"新北市新店區中山里辦公處(社照C)","code":"BG0200028","type":"BG","city":"65000","town":"65000060","addr":"新北市新店區中山里溪園路361號1F","lng":121.523369,"lat":24.980862,"abc":"C","service":"巷弄長照站","zones":["65000060"],"phone":"0955177853","owner":"潘威志","start":"20220101","end":"20221231"},{"name":"新北市永和區忠孝社區發展協會(社照C)","code":"BF0200089","type":"BF","city":"65000","town":"65000040","addr":"新北市永和區頂溪里忠孝街26巷8號6樓","lng":121.515312,"lat":25.016855,"abc":"C","service":"巷弄長照站","zones":["65000040"],"phone":"0229226788","owner":"蔡美娟","start":"20220101","end":"20231231"},{"name":"中華民國樂齡生活規劃協會(中港站)(社照C)","code":"BE0200026","type":"BE","city":"65000","town":"65000050","addr":"新北市新莊區自強里中港路288巷53號1樓","lng":121.454445,"lat":25.045025,"abc":"C","service":"巷弄長照站","zones":["65000050"],"phone":"89910090","owner":"江淑齡","start":"20240101","end":"20241231"},{"name":"佳醫護理之家","code":"A30200008","type":"A3","city":"65000","town":"65000110","addr":"新北市汐止區茄苳路296號1-6樓","lng":121.673027,"lat":25.067049,"abc":"B","service":"喘息服務","zones":["63000090"],"phone":"02-86486672","owner":"謝政賢","start":"20180601","end":"20241231","beds":183},{"name":"社團法人愛福家協會","code":"BE0200024","type":"BE","city":"65000","town":"65000010","addr":"新北市板橋區雙十路二段217號","lng":121.473228,"lat":25.029049,"abc":"B","service":"喘息服務","zones":["63000010","63000020","63000030","63000040","63000050","63000060","63000070","63000080","63000090","63000100","63000110","63000120"],"phone":"02-22500177","owner":"涂福增","start":"20181001","end":"20221231"},{"name":"財團法人台灣省私立健順養護中心附設新北市私立健順居家式服務類長期照顧服務機構","code":"1S0200002","type":"1","city":"65000","town":"65000030","addr":"新北市中和區大勇街96號2樓","lng":121.526108,"lat":24.993656,"abc":"B","service":"居家服務","zones":["63000010","63000040"],"phone":"89423255-10","owner":"廖慧媛","start":"20230101","end":"20261231"},{"name":"新北市私立旺福居家長照機構","code":"1X0200001","type":"1","city":"65000","town":"65000020","addr":"新北市三重區溪美里福隆路48號1樓","lng":121.492477,"lat":25.078579,"abc":"B","service":"專業照護服務","zones":["63000010","63000020","63000030","63000040","63000050","63000060","63000070","63000080","63000090","63000100","63000110","63000120"],"phone":"02-28571526","owner":"黃雅萍","start":"20180418","end":"20241231"},{"name":"璟馨居家護理所","code":"B10200086","type":"B1","city":"65000","town":"65000130","addr":"新北市土城區延吉里延吉街76號3樓","lng":121.471008,"lat":24.98662,"abc":"B","service":"專業照護服務","zones":["63000010","63000020","63000030","63000040","63000050","63000060","63000070","63000080","63000090","63000100","63000110","63000120"],"phone":"7723-0968","owner":"洪慧珍","start":"20190409","end":"20201231"},{"name":"台灣基督長老教會馬偕醫療財團法人淡水馬偕紀念醫院八里區龍源里(醫事C)","code":"B20200055","type":"B2","city":"65000","town":"65000230","addr":"新北市八里區龍源里龍米路一段223-1號","lng":121.450928,"lat":25.131947,"abc":"C","service":"巷弄長照站","zones":["65000230"],"phone":"02-28094661轉2160","owner":"廖麗華","start":"20190701","end":"20191231"},{"name":"安養照護發展促進協會(社照C)","code":"BF0200092","type":"BF","city":"65000","town":"65000170","addr":"新北市林口區菁湖里中山路188號1樓之3","lng":121.389351,"lat":25.079084,"abc":"C","service":"巷弄長照站","zones":["65000170"],"phone":"0988587216","owner":"高主安","start":"20220101","end":"20221231"},{"name":"旅北都蘭部落文化藝術團-新北市三峽區三鶯文化健站(原民C)","code":"BF0200076","type":"BF","city":"65000","town":"65000090","addr":"新北市三峽區龍學里隆恩街158巷3弄50號","lng":121.365562,"lat":24.94573,"abc":"C","service":"巷弄長照站","zones":["65000080","65000090"],"phone":"02-35012847","owner":"徐秀武","start":"20190101","end":"20191231"},{"name":"巴歌浪","code":"BF0200069","type":"BF","city":"65000","town":"65000030","addr":"新北市中和區連和里建康路270號4樓","lng":121.492996,"lat":25.000107,"abc":"C","service":"巷弄長照站","zones":["65000030"],"phone":"02-8245-9893","owner":"林花麗","start":"20190101","end":"20191231"},{"name":"新北市原住民家庭關懷協會","code":"BF0200073","type":"BF","city":"65000","town":"65000110","addr":"新北市汐止區山光里樟樹一路137巷26號2樓","lng":121.641693,"lat":25.069347,"abc":"C","service":"巷弄長照站","zones":["65000110"],"phone":"02-26426598","owner":"黃秀英","start":"20190101","end":"20191231"},{"name":"新北市樹林區原住民族發展協進會-新北市樹林區部落文化健康站(原民C)","code":"BF0200075","type":"BF","city":"65000","town":"65000070","addr":"新北市樹林區中山里中山路三段40號3樓","lng":121.394669,"lat":24.972652,"abc":"C","service":"巷弄長照站","zones":["65000070"],"phone":"02-35016895","owner":"陳宗伶","start":"20190101","end":"20191231"},{"name":"蘇診所","code":"B20200070","type":"B2","city":"65000","town":"65000050","addr":"新北市新莊區民安路109號1樓","lng":121.424698,"lat":25.024956,"abc":"B","service":"居家失能個案家庭醫師照護服務","zones":["63000050","63000060","63000070"],"phone":"0222069926","owner":"蘇石泉","start":"20190906","end":"20241231"},{"name":"民族骨科診所(醫事C)","code":"B20200075","type":"B2","city":"65000","town":"65000140","addr":"新北市蘆洲區仁義里集賢路336巷7號","lng":121.479431,"lat":25.086214,"abc":"C","service":"巷弄長照站","zones":["65000140"],"phone":"(02)2848-5500","owner":"蘇治原","start":"20190801","end":"20211231"},{"name":"德興診所(醫事C)","code":"B20200076","type":"B2","city":"65000","town":"65000140","addr":"新北市蘆洲區仁德里三民路26巷31弄10號及12號1樓","lng":121.476006,"lat":25.087309,"abc":"C","service":"巷弄長照站","zones":["65000140"],"phone":"(02)2285-5598","owner":"蔡燿州","start":"20190801","end":"20211231"},{"name":"長安骨科診所(醫事C)","code":"B20200077","type":"B2","city":"65000","town":"65000140","addr":"新北市蘆洲區永康里長安街277號2樓","lng":121.458366,"lat":25.084167,"abc":"C","service":"巷弄長照站","zones":["65000140"],"phone":"28485500","owner":"曾耀弘","start":"20190901","end":"20211231"},{"name":"正生婦幼聯合診所(醫事C)","code":"B20200079","type":"B2","city":"65000","town":"65000030","addr":"新北市中和區和興里中正路122號3樓","lng":121.50312,"lat":24.993753,"abc":"C","service":"巷弄長照站","zones":["65000030"],"phone":"22446969 轉313","owner":"陳先正","start":"20190901","end":"20201231"},{"name":"財團法人新北市金包里慈護宮(社照C)","code":"BF0200100","type":"BF","city":"65000","town":"65000270","addr":"新北市金山區和平里金包里街1-1號","lng":121.640137,"lat":25.220505,"abc":"C","service":"巷弄長照站","zones":["65000270"],"phone":"2498-2510","owner":"游忠義","start":"20220101","end":"20221231"},{"name":"三芝區三和社區照顧關懷據點(社照C)","code":"BF0200051","type":"BF","city":"65000","town":"65000210","addr":"新北市三芝區新庄里新庄里番社后3-1號","lng":121.501823,"lat":25.267199,"abc":"C","service":"巷弄長照站","zones":["65000210"],"phone":"(02)26365499","owner":"蔡政道","start":"20220101","end":"20221231"},{"name":"新北市中和區碧湖社區發展協會(社照C)","code":"BF0200012","type":"BF","city":"65000","town":"65000030","addr":"新北市中和區錦昌里圓通路367巷15-1號4樓、5樓","lng":121.492226,"lat":24.988356,"abc":"C","service":"巷弄長照站","zones":["65000030"],"phone":"02-22421287","owner":"邱尾玟","start":"20220101","end":"20221231"},{"name":"財團法人介惠社會福利慈善基金會新北市萬里瑪鋉公共托老中心(社照C)","code":"BD0200021","type":"BD","city":"65000","town":"65000280","addr":"新北市萬里區萬里里瑪鋉路221號3F","lng":121.689743,"lat":25.179813,"abc":"C","service":"巷弄長照站","zones":["65000280"],"phone":"(02)24928312","owner":"胡頤仁","start":"20220101","end":"20221231"},{"name":"社團法人台灣樂活服務發展協會中和連城站(社照C)","code":"BE0200029","type":"BE","city":"65000","town":"65000030","addr":"新北市中和區連城里新北市中和區連城里連城路89巷36號","lng":121.497398,"lat":24.998741,"abc":"C","service":"巷弄長照站","zones":["65000030"],"phone":"0920074192","owner":"馬瑞辰","start":"20220101","end":"20221231"},{"name":"新北市多元智能老幼暨兒童教育發展協會(社照C)","code":"BF0200098","type":"BF","city":"65000","town":"65000030","addr":"新北市中和區福善里景平路736巷5弄2號","lng":121.497528,"lat":25.003365,"abc":"C","service":"巷弄長照站","zones":["65000030"],"phone":"22895931","owner":"李姿慧","start":"20220101","end":"20221231"},{"name":"財團法人介惠社會福利慈善基金會新北市金山金包里公共托老中心(社照C)","code":"BD0200015","type":"BD","city":"65000","town":"65000270","addr":"新北市金山區金美里中山路257號1、2樓","lng":121.636826,"lat":25.222126,"abc":"C","service":"巷弄長照站","zones":["65000270"],"phone":"(02)24082114","owner":"胡頤仁","start":"20220101","end":"20221231"},{"name":"新北市八里區大崁里辦公處(社照C)","code":"BG0200034","type":"BG","city":"65000","town":"65000230","addr":"新北市八里區大崁里中山路一段21號","lng":121.422096,"lat":25.158924,"abc":"C","service":"巷弄長照站","zones":["65000230"],"phone":"(02)8630-1926","owner":"林秀真","start":"20220101","end":"20221231"},{"name":"中華民國樂齡生活規劃協會(福壽站)(社照C)","code":"BF0200099","type":"BF","city":"65000","town":"65000050","addr":"新北市新莊區信義里昌明街1號","lng":121.457634,"lat":25.052214,"abc":"C","service":"巷弄長照站","zones":["65000050"],"phone":"02-85210176","owner":"陳宏定","start":"20240101","end":"20241231"},{"name":"中華民國樂齡生活規劃協會(福前站)(社照C)","code":"BF0200101","type":"BF","city":"65000","town":"65000050","addr":"新北市新莊區福基里化成路746巷2號2樓","lng":121.465874,"lat":25.057671,"abc":"C","service":"巷弄長照站","zones":["65000050"],"phone":"0928009650","owner":"陳宏定","start":"20240101","end":"20241231"},{"name":"社團法人台灣多元社會福利協會-蘆洲安德(社照C)","code":"BE0200045","type":"BE","city":"65000","town":"65000140","addr":"新北市蘆洲區樓厝里復興路274號1樓","lng":121.480476,"lat":25.089764,"abc":"C","service":"巷弄長照站","zones":["65000140"],"phone":"82820112","owner":"林政緯","start":"20220101","end":"20221231"},{"name":"中菁社區發展協會","code":"BF0200024","type":"BF","city":"65000","town":"","addr":"新北市17鄰菁埔23號","lng":121.377609,"lat":25.097464,"abc":"C","service":"巷弄長照站","zones":["65000170"],"phone":"(02)26033907","owner":"","start":"20180101","end":"20181231"},{"name":"社團法人台灣新希望社區關懷協會-鷺江站(社照C)","code":"BE0200046","type":"BE","city":"65000","town":"65000140","addr":"新北市蘆洲區鷺江里民族路33巷24號1樓","lng":121.476135,"lat":25.084356,"abc":"C","service":"巷弄長照站","zones":["65000140"],"phone":"0922295129","owner":"陳淑蕙","start":"20220101","end":"20221231"},{"name":"社團法人新北市恩典慈善協會(社照C)","code":"BE0200047","type":"BE","city":"65000","town":"65000020","addr":"新北市三重區光明里重安街46號1樓","lng":121.490761,"lat":25.057693,"abc":"C","service":"巷弄長照站","zones":["65000020"],"phone":"29735089","owner":"李全成","start":"20220101","end":"20231231"},{"name":"新北市福齡松青會(社照C)","code":"BF0200107","type":"BF","city":"65000","town":"65000020","addr":"新北市三重區民生里大同北路186號B1、1樓","lng":121.490707,"lat":25.066296,"abc":"C","service":"巷弄長照站","zones":["65000020"],"phone":"2983-5938","owner":"林哲夫","start":"20221001","end":"20231231"},{"name":"社團法人燈塔全人關懷協會(社照C)","code":"BE0200049","type":"BE","city":"65000","town":"65000140","addr":"新北市蘆洲區永康里長安街220巷14號","lng":121.459122,"lat":25.084822,"abc":"C","service":"巷弄長照站","zones":["65000140"],"phone":"82823442","owner":"羅加恩","start":"20220101","end":"20221231"},{"name":"淡水區正德里辦公處(社照C)","code":"BG0200013","type":"BG","city":"65000","town":"65000100","addr":"新北市淡水區正德里北新路141巷27號1樓","lng":121.448349,"lat":25.179501,"abc":"C","service":"巷弄長照站","zones":["65000100"],"phone":"952652587","owner":"黃俊雄","start":"20220101","end":"20231231"},{"name":"台灣基督徒見證協會(社照C)","code":"BG0200029","type":"BG","city":"65000","town":"65000100","addr":"新北市淡水區學府路36號4樓","lng":121.448219,"lat":25.168781,"abc":"C","service":"巷弄長照站","zones":["65000100"],"phone":"02-2626-7454轉108","owner":"鄭惠美","start":"20220101","end":"20231231"},{"name":"新北市樹林區山佳社區發展協會(社照C)","code":"BF0200038","type":"BF","city":"65000","town":"65000070","addr":"新北市樹林區中山里地政街12號","lng":121.394661,"lat":24.971573,"abc":"C","service":"巷弄長照站","zones":["65000070"],"phone":"(02)26805561","owner":"簡玉春","start":"20220101","end":"20221231"},{"name":"社團法人中華慈雲慈善利生推廣協會-樹林彭福據點(社照C)","code":"BE0200015","type":"BE","city":"65000","town":"65000070","addr":"新北市樹林區彭福里太平路127巷14號1樓","lng":121.419479,"lat":24.980543,"abc":"C","service":"巷弄長照站","zones":["65000070"],"phone":"02-8685-1138","owner":"陳永涸","start":"20220101","end":"20221231"},{"name":"社團法人中華民國天元慈善功德會(社照C)","code":"BE0200050","type":"BE","city":"65000","town":"65000010","addr":"新北市板橋區鄉雲里四川路2段16巷5號10樓","lng":121.455811,"lat":24.997198,"abc":"C","service":"巷弄長照站","zones":["65000010"],"phone":"8967-3536","owner":"張陳秀梅","start":"20240101","end":"20241231"},{"name":"新北市板橋區歡園社區發展協會(社照C)","code":"BF0200110","type":"BF","city":"65000","town":"65000010","addr":"新北市板橋區重慶路10號8樓","lng":121.460709,"lat":25.007954,"abc":"C","service":"巷弄長照站","zones":["65000010"],"phone":"0939947613","owner":"劉炳偉","start":"20220101","end":"20231231"},{"name":"新北市板橋溪崑關懷慈善會(崑崙)(社照C)","code":"BF0200111","type":"BF","city":"65000","town":"65000010","addr":"新北市板橋區篤行路二段131巷17號","lng":121.431618,"lat":24.990463,"abc":"C","service":"巷弄長照站","zones":["65000010"],"phone":"0989-001823","owner":"陳淑美","start":"20230101","end":"20231231"},{"name":"新北市耆光協會(社照C)","code":"BF0200112","type":"BF","city":"65000","town":"65000010","addr":"新北市板橋區港嘴里文聖街227號1樓","lng":121.480499,"lat":25.025719,"abc":"C","service":"巷弄長照站","zones":["65000010"],"phone":"8257-2509","owner":"林秋惠","start":"20250101","end":"20251231"},{"name":"新北市板橋大後埔文化關懷協進會(板橋和平站)(社照C)","code":"BF0200113","type":"BF","city":"65000","town":"65000010","addr":"新北市板橋區和平路安樂巷51號 ","lng":121.462296,"lat":24.993162,"abc":"C","service":"巷弄長照站","zones":["65000010"],"phone":"22729088","owner":"王明發","start":"20230101","end":"20231231"},{"name":"新北市板橋區玉山青年會(華中)(社照C)","code":"BF0200114","type":"BF","city":"65000","town":"65000010","addr":"新北市板橋區僑中一街102巷7弄3號","lng":121.446617,"lat":25.012854,"abc":"C","service":"巷弄長照站","zones":["65000010"],"phone":"02-2968-0023","owner":"呂昆洋","start":"20230101","end":"20231231"},{"name":"新北市板橋區玉山青年會(後埔)(社照C)","code":"BF0200115","type":"BF","city":"65000","town":"65000010","addr":"新北市板橋區重慶路89巷9弄2號","lng":121.462418,"lat":25.006618,"abc":"C","service":"巷弄長照站","zones":["65000010"],"phone":"02-2272-9088","owner":"呂昆洋","start":"20230101","end":"20231231"},{"name":"新北市淡水區屯山里辦公處(社照C)","code":"BG0200035","type":"BG","city":"65000","town":"65000100","addr":"新北市淡水區屯山里石頭厝9-3號","lng":121.450264,"lat":25.240698,"abc":"C","service":"巷弄長照站","zones":["65000100"],"phone":"0932027594","owner":"謝炳坤","start":"20220101","end":"20231231"},{"name":"皓仁健康照護事業有限公司附設新北市私立皓仁居家式服務類長期照顧服務機構","code":"1X0200015","type":"1","city":"65000","town":"65000110","addr":"新北市汐止區大同里大同路二段240號11樓","lng":121.654037,"lat":25.065483,"abc":"B","service":"居家服務","zones":["10017010","10017020","10017030","10017040","10017050","10017060","10017070"],"phone":"02-26480680","owner":"謝李麗雲","start":"20231206","end":"20250421"},{"name":"社團法人台灣立享長照服務教育發展協會附設新北市私立立享居家長照機構","code":"1R0200010","type":"1","city":"65000","town":"65000030","addr":"新北市中和區橋安街9號7樓","lng":121.497345,"lat":25.006748,"abc":"B","service":"喘息服務","zones":["63000010","63000030","63000040","63000050","63000060","63000070","63000110"],"phone":"2248-0061","owner":"王淳中","start":"20191122","end":"20241231"},{"name":"新北市私立中原老人長期照顧中心(養護型)","code":"A10200348","type":"A1","city":"65000","town":"65000030","addr":"新北市中和區中山路2段560號6樓、6樓之1","lng":121.483124,"lat":25.005236,"abc":"B","service":"喘息服務","zones":["63000010","63000020","63000030","63000040","63000050","63000060","63000070","63000080","63000090","63000100","63000110","63000120"],"phone":"02-22286187","owner":"黃明發","start":"20191113","end":"20241231","beds":42,"residents":36},{"name":"新北市私立皇佳老人長期照顧中心(養護型)","code":"A10200347","type":"A1","city":"65000","town":"65000030","addr":"新北市中和區中原里中山路二段562號","lng":121.483009,"lat":25.005198,"abc":"B","service":"喘息服務","zones":["63000010","63000020","63000030","63000040","63000050","63000060","63000070","63000080","63000090","63000100","63000110","63000120"],"phone":"02-22261133","owner":"黃伯超","start":"20191113","end":"20241231","beds":42,"residents":38},{"name":"紅樹林護理之家","code":"A30200073","type":"A3","city":"65000","town":"65000100","addr":"新北市淡水區中正東路一段111巷22號1至7樓","lng":121.455185,"lat":25.160835,"abc":"B","service":"喘息服務","zones":["63000010","63000020","63000030","63000040","63000050","63000060","63000070","63000080","63000090","63000100","63000110","63000120"],"phone":"02-26260766","owner":"杜詠菁","start":"20191205","end":"20241231","beds":57,"residents":52},{"name":"景安護理之家","code":"A30200020","type":"A3","city":"65000","town":"65000030","addr":"新北市中和區景安路42號5樓、46號4~5樓、50號3~4樓","lng":121.506882,"lat":24.998142,"abc":"B","service":"喘息服務","zones":["63000010","63000020","63000030","63000040","63000050","63000060","63000070","63000080","63000090","63000100","63000110","63000120"],"phone":"02-22489826","owner":"謝麗珠","start":"20191217","end":"20241231","beds":85,"residents":89},{"name":"社團法人中華民國士林靈糧堂社會福利協會附設新北市私立新店七張社區長照機構","code":"2R0200001","type":"2","city":"65000","town":"65000060","addr":"新北市新店區國豐里建國路102巷6、8號","lng":121.540222,"lat":24.97793,"abc":"B","service":"團體家屋服務","zones":["65000010","65000020","65000030","65000040","65000050","65000060","65000070","65000080","65000090","65000100","65000110","65000120","65000130","65000140","65000150","65000160","65000170","65000180","65000190","65000200","65000210","65000220","65000230","65000240","65000250","65000260","65000270","65000280","65000290"],"phone":"(02)2911-0260","owner":"丁家藴","start":"20200101","end":"20201231"},{"name":"天主教耕莘醫療財團法人附設新北市私立新店安康社區長照機構","code":"2S0200015","type":"2","city":"65000","town":"65000060","addr":"新北市新店區德安里車子路15號13樓","lng":121.503906,"lat":24.953423,"abc":"B","service":"團體家屋服務","zones":["65000010","65000020","65000030","65000040","65000050","65000060","65000070","65000080","65000090","65000100","65000110","65000120","65000130","65000140","65000150","65000160","65000170","65000180","65000190","65000200","65000210","65000220","65000230","65000240","65000250","65000260","65000270","65000280","65000290"],"phone":"02-2212-3066分機51378","owner":"鍾安住","start":"20200101","end":"20201231"},{"name":"板橋區部落文化健康站","code":"BF0200118","type":"BF","city":"65000","town":"65000010","addr":"新北市板橋區溪崑二街113號","lng":121.426613,"lat":24.988571,"abc":"C","service":"巷弄長照站","zones":["65000010"],"phone":"02-86861474","owner":" 林慧君","start":"20200101","end":"20201231"},{"name":"土城區部落文化健康站","code":"BF0200119","type":"BF","city":"65000","town":"65000130","addr":"新北市土城區中央路四段283之1號3樓","lng":121.411835,"lat":24.952715,"abc":"C","service":"巷弄長照站","zones":["65000130"],"phone":"02-29603456","owner":" 曾茂昌","start":"20200101","end":"20201231"},{"name":"淡水區部落文化健康站","code":"BF0200120","type":"BF","city":"65000","town":"65000100","addr":"新北市淡水區義山里圭柔山路1號","lng":121.449806,"lat":25.206844,"abc":"C","service":"巷弄長照站","zones":["65000100"],"phone":"02-26186525","owner":" 林照清","start":"20200101","end":"20201231"},{"name":"烏來區福山部落文化健康站","code":"BF0200121","type":"BF","city":"65000","town":"65000010","addr":"新北市板橋區中山路一段161號","lng":121.465622,"lat":25.012079,"abc":"C","service":"巷弄長照站","zones":["65000010"],"phone":"02-29603456#3962","owner":"劉崇宏","start":"20200101","end":"20201231"},{"name":"財團法人台灣基督長老教會泰雅爾中會烏來教會","code":"BD0200034","type":"BD","city":"65000","town":"65000290","addr":"新北市烏來區烏來里環山路82巷3號","lng":121.548546,"lat":24.863384,"abc":"C","service":"巷弄長照站","zones":["65000290"],"phone":"02-26616172","owner":"尤命．哈用","start":"20190101","end":"20191231"},{"name":"樂銓管理顧問股份有限公司附設新北市私立樂銓居家長照機構","code":"1V0200018","type":"1","city":"65000","town":"65000020","addr":"新北市三重區正安里正義北路210號9樓","lng":121.496201,"lat":25.067526,"abc":"B","service":"喘息服務","zones":["63000010","63000020","63000030","63000040","63000050","63000060","63000070","63000100","63000110"],"phone":"27316940","owner":"鄭寶蓮","start":"20200505","end":"20241231"},{"name":"新北市板橋雙玉環保協會(社照C)","code":"BF0200122","type":"BF","city":"65000","town":"65000010","addr":"新北市板橋區雙玉里永豐街251號","lng":121.477737,"lat":25.021349,"abc":"C","service":"巷弄長照站","zones":["65000010"],"phone":"29529786","owner":"王聰震","start":"20240101","end":"20241231"},{"name":"新北市華福關懷協會(社照C)","code":"BF0200123","type":"BF","city":"65000","town":"65000010","addr":"新北市板橋區華福里大華街居安巷31號","lng":121.457916,"lat":25.005018,"abc":"C","service":"巷弄長照站","zones":["65000010"],"phone":"29513616","owner":"黃瓊薏","start":"20250101","end":"20251231"},{"name":"新北市板橋區福泰社區發展協會(社照C)","code":"BF0200125","type":"BF","city":"65000","town":"65000010","addr":"新北市板橋區福德里忠孝路忠義巷9弄1-1號","lng":121.465126,"lat":25.004557,"abc":"C","service":"巷弄長照站","zones":["65000010"],"phone":"29513625","owner":"劉慧琳","start":"20220101","end":"20231231"},{"name":"新北市新住民促進會(社照C)","code":"BF0200126","type":"BF","city":"65000","town":"65000010","addr":"新北市板橋區廣新里永豐街124號","lng":121.478783,"lat":25.018667,"abc":"C","service":"巷弄長照站","zones":["65000010"],"phone":"0919327895","owner":"林素杏","start":"20240101","end":"20241231"},{"name":"財團法人志浩慈善基金會(社照C)","code":"BD0200055","type":"BD","city":"65000","town":"65000020","addr":"新北市三重區中興里重新路五段609巷10號2樓-2","lng":121.468506,"lat":25.0459,"abc":"C","service":"巷弄長照站","zones":["65000020"],"phone":"0983-598761","owner":"翁嵩慶","start":"20220101","end":"20231231"},{"name":"新北市板橋區大後埔文化關懷協進會(華興)(社照C)","code":"BF0200127","type":"BF","city":"65000","town":"65000010","addr":"新北市板橋區華興里南亞南路2段1-1號","lng":121.454674,"lat":25.003405,"abc":"C","service":"巷弄長照站","zones":["65000010"],"phone":"26837286","owner":"王明發","start":"20230101","end":"20231231"},{"name":"新北市大社后愛心關懷協會(北極壇)(社照C)","code":"BF0200128","type":"BF","city":"65000","town":"65000010","addr":"新北市板橋區社後里中正路80巷1弄1號1樓","lng":121.45694,"lat":25.015005,"abc":"C","service":"巷弄長照站","zones":["65000010"],"phone":"8968-3377","owner":"陳信宏","start":"20230101","end":"20231231"},{"name":"新北市新店區北新社區發展協會(社照C)","code":"BF0200129","type":"BF","city":"65000","town":"65000060","addr":"新北市新店區張北里德正街23巷25號","lng":121.544807,"lat":24.972681,"abc":"C","service":"巷弄長照站","zones":["65000060"],"phone":"0963366378","owner":"翁玉美","start":"20220101","end":"20221231"},{"name":"新北市新店區下城社區發展協會(社照C)","code":"BF0200130","type":"BF","city":"65000","town":"65000060","addr":"新北市新店區下城里安康路1段281巷6號","lng":121.523651,"lat":24.962778,"abc":"C","service":"巷弄長照站","zones":["65000060"],"phone":"02-2211-9715","owner":"李林貞子","start":"20220101","end":"20221231"},{"name":"新北市坪林區老人會(社照C)","code":"BF0200102","type":"BF","city":"65000","town":"65000200","addr":"新北市坪林區大林里逮魚堀33-4號","lng":121.697861,"lat":24.925392,"abc":"C","service":"巷弄長照站","zones":["65000200"],"phone":"0911-282-312","owner":"蔡文紫","start":"20220101","end":"20221231"},{"name":"三峽區龍恩里辦公處(社照C)","code":"BG0200037","type":"BG","city":"65000","town":"65000090","addr":"新北市三峽區龍恩里學成路396號4樓","lng":121.374702,"lat":24.941305,"abc":"C","service":"巷弄長照站","zones":["65000090"],"phone":"0910238630","owner":"黃家賢","start":"20260101","end":"20261231"},{"name":"新北市樹林區彭厝社區發展協會(社照C)","code":"BF0200135","type":"BF","city":"65000","town":"65000070","addr":"新北市樹林區大同里太平路56巷43號2樓","lng":121.41777,"lat":24.981321,"abc":"C","service":"巷弄長照站","zones":["65000070"],"phone":"(02)8685-3911","owner":"林蓮和","start":"20220101","end":"20221231"},{"name":"新北市樹林區樹人里辦公處(社照C)","code":"BG0200038","type":"BG","city":"65000","town":"65000070","addr":"新北市樹林區樹人里復興路308巷2弄6號","lng":121.416855,"lat":24.987408,"abc":"C","service":"巷弄長照站","zones":["65000070"],"phone":"0910-669989","owner":"邱世昌","start":"20220101","end":"20221231"},{"name":"財團法人新北市台灣基督長老教會幸福教會(社照C)","code":"BD0200058","type":"BD","city":"65000","town":"65000050","addr":"新北市新莊區仁義里福樂街74號2樓","lng":121.457832,"lat":25.04674,"abc":"C","service":"巷弄長照站","zones":["65000050"],"phone":"2991-8108","owner":"葉玉雪","start":"20240101","end":"20241231"},{"name":"石碇區老人會(社照C)","code":"BE0200052","type":"BE","city":"65000","town":"65000190","addr":"新北市石碇區楓子林32-1號4樓","lng":121.642311,"lat":25.010136,"abc":"C","service":"巷弄長照站","zones":["65000190"],"phone":"02-2663-2116","owner":"楊萬益","start":"20220101","end":"20221231"},{"name":"財團法人新北市雙連社會福利慈善事業基金會新北市私立新莊昌平社區長照機構(新莊昌平公共托老中心)(社照C)","code":"BD0200050","type":"BD","city":"65000","town":"65000050","addr":"新北市新莊區中央路51號","lng":121.456978,"lat":25.058586,"abc":"C","service":"巷弄長照站","zones":["65000050"],"phone":"8521-7872*106","owner":"蔡政道","start":"20220101","end":"20221231"},{"name":"國際奔享體驗教育發展協會(社照C)","code":"BE0200027","type":"BE","city":"65000","town":"65000050","addr":"新北市新莊區丹鳳里天祥街120巷6號","lng":121.414703,"lat":25.029963,"abc":"C","service":"巷弄長照站","zones":["65000050"],"phone":"0953425500","owner":"曾美蘭","start":"20240101","end":"20241231"},{"name":"社團法人中華培愛全人關懷協會中華培愛全人關懷協會(社照C)","code":"BE0200014","type":"BE","city":"65000","town":"65000050","addr":"新北市新莊區雙鳳里中正路708號3樓","lng":121.41655,"lat":25.025146,"abc":"C","service":"巷弄長照站","zones":["65000050"],"phone":"(02)2903-1191","owner":"高恩堂","start":"20240101","end":"20241231"},{"name":"新北市新莊區牡丹心社區發展協會-新莊雙鳳據點(社照C)","code":"BF0200037","type":"BF","city":"65000","town":"65000050","addr":"新北市新莊區雙鳳里新北大道七段718巷45號","lng":121.414963,"lat":25.025288,"abc":"C","service":"巷弄長照站","zones":["65000050"],"phone":"(02)29045533","owner":"陳專森","start":"20220101","end":"20221231"},{"name":"新北市畫眉鳥晚香玉協會(社照C)","code":"BF0200088","type":"BF","city":"65000","town":"65000070","addr":"新北市樹林區東陽里前鎮街467號","lng":121.412605,"lat":24.982185,"abc":"C","service":"巷弄長照站","zones":["65000070"],"phone":"0921-153426","owner":"姜葉淑琴","start":"20220101","end":"20221231"},{"name":"新北市鶯歌區永昌社區發展協會(社照C)","code":"BF0200041","type":"BF","city":"65000","town":"65000080","addr":"新北市鶯歌區永昌里永昌街36-1號","lng":121.342659,"lat":24.950089,"abc":"C","service":"巷弄長照站","zones":["65000080"],"phone":"0919954187","owner":"游武雄","start":"20260101","end":"20261231"},{"name":"新北市鶯歌區永吉社區發展協會(社照C)","code":"BF0200105","type":"BF","city":"65000","town":"65000080","addr":"新北市鶯歌區德昌街3巷1號之1","lng":121.332321,"lat":24.959955,"abc":"C","service":"巷弄長照站","zones":["65000080"],"phone":"0927183152","owner":"游兆權","start":"20260101","end":"20261231"},{"name":"新北市中和區莒西社區發展協會(社照C)","code":"BF0200136","type":"BF","city":"65000","town":"65000030","addr":"新北市中和區自強里莒光路200號之3","lng":121.472023,"lat":24.998899,"abc":"C","service":"巷弄長照站","zones":["65000030"],"phone":"29576662","owner":"黃秀琴","start":"20220101","end":"20221231"},{"name":"社團法人台灣樂活服務發展協會道生莒光教會社區關懷站(社照C)","code":"BE0200028","type":"BE","city":"65000","town":"65000030","addr":"新北市中和區明穗里新北市中和區民享街90巷16號","lng":121.473869,"lat":25.000225,"abc":"C","service":"巷弄長照站","zones":["65000030"],"phone":"0939192756","owner":"馬瑞辰","start":"20220101","end":"20221231"},{"name":"社團法人台灣雙福禮拜堂協會(社照C)","code":"BE0200030","type":"BE","city":"65000","town":"65000030","addr":"新北市中和區漳和里新北市中和區漳和里中和路102號B1樓","lng":121.502274,"lat":24.99966,"abc":"C","service":"巷弄長照站","zones":["65000030"],"phone":"02-22429266#12","owner":"林貝錠","start":"20220101","end":"20221231"},{"name":"社團法人台灣新希望社區關懷協會-得仁站(社照C)","code":"BE0200055","type":"BE","city":"65000","town":"65000140","addr":"新北市蘆洲區得仁里民生街129巷14號","lng":121.472839,"lat":25.078413,"abc":"C","service":"巷弄長照站","zones":["65000140"],"phone":"0922295129","owner":"葉聯邦","start":"20220101","end":"20221231"},{"name":"財團法人新北市基督教新希望教會(環河站)(社照C)","code":"BD0200059","type":"BD","city":"65000","town":"65000040","addr":"新北市永和區永成里環河西路2段9-2號1, 2樓","lng":121.508568,"lat":25.016413,"abc":"C","service":"巷弄長照站","zones":["65000040"],"phone":"02-3233-0966","owner":"黃遠鵬","start":"20220101","end":"20221231"},{"name":"南丁格爾居家護理所","code":"B10200089","type":"B1","city":"65000","town":"65000110","addr":"新北市汐止區大同路三段423號","lng":121.677719,"lat":25.07168,"abc":"B","service":"專業照護服務","zones":["10017010","10017020","10017030","10017040","10017050","10017060","10017070"],"phone":"02-86481908","owner":"王冠今","start":"20240723","end":"20250722"},{"name":"新北市板橋新埔商圈協會(社照C)","code":"BF0200142","type":"BF","city":"65000","town":"65000010","addr":"新北市板橋區新埔里文化路1段421巷34-1號1樓","lng":121.466492,"lat":25.023197,"abc":"C","service":"巷弄長照站","zones":["65000010"],"phone":"0910345369","owner":"蔡鈴福","start":"20240101","end":"20241231"},{"name":"新北市土城區頂欣社區發展協會(社照C)","code":"BF0200143","type":"BF","city":"65000","town":"65000130","addr":"新北市土城區頂新里中央路四段283-1號1樓","lng":121.411835,"lat":24.952715,"abc":"C","service":"巷弄長照站","zones":["65000130"],"phone":"0930335838","owner":"許元皇","start":"20220101","end":"20221231"},{"name":"社團法人台灣立享長照服務教育發展協會附設新北市私立立享居家長照機構","code":"1R0200010","type":"1","city":"65000","town":"65000030","addr":"新北市中和區橋安街9號7樓","lng":121.497345,"lat":25.006748,"abc":"B","service":"居家服務","zones":["63000010","63000030","63000040","63000050","63000060","63000070"],"phone":"2248-0061","owner":"王淳中","start":"20191112","end":"20261231"},{"name":"財團法人台灣省私立健順養護中心附設新北市私立健順居家式服務類長期照顧服務機構","code":"1S0200002","type":"1","city":"65000","town":"65000030","addr":"新北市中和區大勇街96號2樓","lng":121.526108,"lat":24.993656,"abc":"B","service":"居家服務","zones":["63000010","63000040"],"phone":"89423255-10","owner":"廖慧媛","start":"20230101","end":"20261231"},{"name":"樂銓管理顧問股份有限公司附設新北市私立樂銓居家長照機構","code":"1V0200018","type":"1","city":"65000","town":"65000020","addr":"新北市三重區正安里正義北路210號9樓","lng":121.496201,"lat":25.067526,"abc":"B","service":"居家服務","zones":["63000010","63000020","63000030","63000040","63000050","63000060","63000070","63000100","63000110"],"phone":"27316940","owner":"鄭寶蓮","start":"20200427","end":"20261231"},{"name":"財團法人私立廣恩老人養護中心","code":"A10200361","type":"A1","city":"65000","town":"65000060","addr":"新北市新店區員潭里員潭里北宜路2段579巷45號","lng":121.809135,"lat":25.107536,"abc":"B","service":"居家服務","zones":["63000010","63000020","63000030","63000040","63000050","63000060","63000070","63000080"],"phone":"02-22173517","owner":"林偉峰","start":"20240101","end":"20261231","beds":133,"residents":131},{"name":"財團法人私立廣恩老人養護中心","code":"A10200361","type":"A1","city":"65000","town":"65000060","addr":"新北市新店區員潭里員潭里北宜路2段579巷45號","lng":121.809135,"lat":25.107536,"abc":"B","service":"喘息服務","zones":["63000010","63000020","63000030","63000040","63000050","63000060","63000070","63000080","63000090","63000100","63000110","63000120"],"phone":"02-22173517","owner":"林偉峰","start":"20180523","end":"20241231","beds":133,"residents":131},{"name":"財團法人台北市基督教台灣貴格會國光教會(社照C)","code":"BF0200144","type":"BF","city":"65000","town":"65000010","addr":"新北市板橋區流芳里東門街30-2號4樓","lng":121.457962,"lat":25.008463,"abc":"C","service":"巷弄長照站","zones":["65000010"],"phone":"29694665","owner":"戴坤益","start":"20240101","end":"20241231"},{"name":"(桃園特約)鐵牛居家職能治療所","code":"B20200182","type":"B2","city":"65000","town":"65000090","addr":"新北市三峽區中山路127號11樓之5","lng":121.365356,"lat":24.935925,"abc":"B","service":"專業照護服務","zones":["10017010","10017020","10017030","10017040","10017050","10017060","10017070"],"phone":"0912465002","owner":"姚柔羽","start":"20241126","end":"20270330"},{"name":"財團法人一粒麥子社會福利慈善事業基金會附設新北市私立有福居家式服務類長期照顧服務機構","code":"1S0200011","type":"1","city":"65000","town":"65000060","addr":"新北市新店區民權路103號3樓","lng":121.739174,"lat":25.024912,"abc":"B","service":"到宅沐浴車服務","zones":["67000010","67000020","67000030","67000040","67000050","67000060","67000070","67000080","67000090","67000100","67000110","67000120","67000130","67000140","67000150","67000160","67000170","67000180","67000190","67000200","67000210","67000220","67000230","67000240","67000250","67000260","67000270","67000280","67000290","67000300","67000310","67000320","67000330","67000340","67000350","67000360","67000370"],"phone":"02-89117897","owner":"呂信雄","start":"20180101","end":"20270228"},{"name":"小驢駒小客車租賃有限公司","code":"BA0200020","type":"BA","city":"65000","town":"65000050","addr":"新北市新莊區復興路二段196巷2弄9之3號","lng":121.458961,"lat":25.044098,"abc":"B","service":"交通接送服務(DA01)","zones":["64000250","64000260","64000270","64000280","64000290","64000300","64000310","64000330","64000340","64000350"],"phone":"0256521567","owner":"葉書含","start":"20210101","end":"20261231"},{"name":"小驢駒小客車租賃有限公司(屏東縣)","code":"BA0200018","type":"BA","city":"65000","town":"65000050","addr":"新北市新莊區復興路2段196巷2弄9之3號","lng":121.458961,"lat":25.044098,"abc":"B","service":"交通接送服務","zones":["10013010","10013060","10013070","10013080","10013090","10013100","10013110","10013130","10013260","10013270","10013280","10013290","10013300"],"phone":"0910-918631","owner":"葉書含","start":"20210101","end":"20231231"},{"name":"新北市私立崇惠老人長期照顧中心(養護型)","code":"A10200189","type":"A1","city":"65000","town":"65000100","addr":"新北市淡水區竿蓁里淡金路16巷117號","lng":121.460556,"lat":25.162189,"abc":"B","service":"喘息服務","zones":["63000010","63000020","63000030","63000040","63000050","63000060","63000070","63000080","63000090","63000100","63000110","63000120"],"phone":"02-86268833","owner":"鍾秋月","start":"20200518","end":"20241231","beds":41,"residents":39},{"name":"元復醫院附設護理之家","code":"A30200054","type":"A3","city":"65000","town":"65000130","addr":"新北市土城區慶樂街25號1、2、3樓","lng":121.439133,"lat":24.972734,"abc":"B","service":"喘息服務","zones":["63000010","63000020","63000030","63000040","63000050","63000060","63000070","63000080","63000090","63000100","63000110","63000120"],"phone":"02-22620582","owner":"陳美慧","start":"20200707","end":"20221216","beds":65,"residents":61},{"name":"新北市私立全曜居家式服務類長期照顧服務機構","code":"1X0200002","type":"1","city":"65000","town":"65000020","addr":"新北市三重區長江里長元街100之2號1、2樓","lng":121.502808,"lat":25.066788,"abc":"B","service":"喘息服務","zones":["63000010","63000020","63000030","63000040","63000050","63000060","63000070","63000080","63000090","63000100","63000110","63000120"],"phone":"02-29722060","owner":"黃明聖","start":"20190401","end":"20241231"},{"name":"八里佳醫護理之家","code":"A30200015","type":"A3","city":"65000","town":"65000230","addr":"新北市八里區觀海大道185號、185號2樓、185號2樓之1","lng":121.421234,"lat":25.162331,"abc":"B","service":"喘息服務","zones":["63000010","63000020","63000030","63000040","63000050","63000060","63000070","63000080","63000090","63000100","63000110","63000120"],"phone":"02-26104913","owner":"張鈺嫺","start":"20200910","end":"20241231","beds":165},{"name":"新北市私立美麗家園老人長期照顧中心(養護型)","code":"A10200264","type":"A1","city":"65000","town":"65000110","addr":"新北市汐止區興福里福德路38號7樓、7樓之1-7","lng":121.63591,"lat":25.06682,"abc":"B","service":"喘息服務","zones":["63000010","63000020","63000030","63000040","63000050","63000060","63000070","63000080","63000090","63000100","63000110","63000120"],"phone":"0226921238","owner":"王宇文","start":"20200720","end":"20241231","beds":48,"residents":36},{"name":"新北市私立恩勤居家長照機構","code":"1X0200037","type":"1","city":"65000","town":"65000010","addr":"新北市板橋區文化路一段189號7樓","lng":121.463058,"lat":25.016556,"abc":"B","service":"喘息服務","zones":["63000010","63000020","63000030","63000040","63000050","63000060","63000070","63000080","63000090","63000100"],"phone":"8953-5988","owner":"陳蕙汎","start":"20200312","end":"20241231"},{"name":"永愛居家長照有限公司附設新北市私立永愛居家長照機構","code":"1X0200019","type":"1","city":"65000","town":"65000110","addr":"新北市汐止區復興里新台五路一段159號14樓","lng":121.656784,"lat":25.063368,"abc":"B","service":"喘息服務","zones":["63000040","63000090","63000100"],"phone":"02-26430199","owner":"王薏茹","start":"20200609","end":"20241231"},{"name":"有限責任新北市愛齡照護服務勞動合作社附設新北市私立到咖手居家長照機構","code":"1R0200007","type":"1","city":"65000","town":"65000010","addr":"新北市板橋區雙十路二段153號4樓","lng":121.459282,"lat":25.010048,"abc":"B","service":"喘息服務","zones":["63000010","63000020","63000030","63000040","63000050","63000060"],"phone":"02-22726233","owner":"林昌坤","start":"20200703","end":"20241231"},{"name":"有限責任新北市全人長照服務勞動合作社附設新北市私立全人居家長照機構","code":"1T0200001","type":"1","city":"65000","town":"65000020","addr":"新北市三重區光明里集美街112巷51號","lng":121.491058,"lat":25.054405,"abc":"B","service":"喘息服務","zones":["63000010","63000020","63000030","63000040","63000050","63000060","63000070","63000080","63000090","63000100","63000110","63000120"],"phone":"29757512","owner":"李倫文","start":"20200728","end":"20241231"},{"name":"家心照服庭院股份有限公司附設新北市私立家心居家長照機構","code":"1V0200011","type":"1","city":"65000","town":"65000040","addr":"新北市永和區中正路666巷27號1樓","lng":121.517769,"lat":25.009176,"abc":"B","service":"喘息服務","zones":["63000010","63000020","63000030","63000040","63000050","63000060","63000070","63000080","63000090","63000100","63000110","63000120"],"phone":"2950-9009","owner":"施凱瑄","start":"20201005","end":"20241231"},{"name":"家心照服庭院股份有限公司附設新北市私立家心居家長照機構","code":"1V0200011","type":"1","city":"65000","town":"65000040","addr":"新北市永和區中正路666巷27號1樓","lng":121.517769,"lat":25.009176,"abc":"B","service":"喘息服務","zones":["63000010","63000020","63000030","63000040","63000050","63000060","63000070","63000080","63000090","63000100","63000110","63000120"],"phone":"2950-9009","owner":"施凱瑄","start":"20201005","end":"20241231"},{"name":"立穎居家護理所","code":"B10200003","type":"B1","city":"65000","town":"65000030","addr":"新北市中和區漳和里立德街204號3樓","lng":121.511848,"lat":24.985319,"abc":"B","service":"專業照護服務","zones":["63000010","63000020","63000030","63000040","63000050","63000060","63000070","63000080","63000090","63000100","63000110","63000120"],"phone":"02-86686651","owner":"魏玉琴","start":"20190401","end":"20241231"},{"name":"社團法人中華長照協會附設新北市私立永樂居家式服務類長期照顧服務機構","code":"1R0200001","type":"1","city":"65000","town":"65000040","addr":"新北市永和區文化里文化路155號","lng":121.502808,"lat":25.066788,"abc":"B","service":"居家服務","zones":["63000080"],"phone":"02-29280005","owner":"金浩鑫","start":"20200408","end":"20211231"},{"name":"有限責任新北市全人長照服務勞動合作社附設新北市私立全人居家長照機構","code":"1T0200001","type":"1","city":"65000","town":"65000020","addr":"新北市三重區光明里集美街112巷51號","lng":121.491058,"lat":25.054405,"abc":"B","service":"居家服務","zones":["63000010","63000020","63000030","63000040","63000050","63000060","63000070","63000080","63000090","63000100","63000110","63000120"],"phone":"29757512","owner":"李倫文","start":"20200714","end":"20261231"},{"name":"齡活股份有限公司附設新北市私立齡活居家長照機構","code":"1X0200044","type":"1","city":"65000","town":"65000010","addr":"新北市板橋區四川路一段97號11樓","lng":121.454208,"lat":25.020164,"abc":"B","service":"居家服務","zones":["63000010","63000020","63000030","63000040","63000050","63000060","63000070","63000080","63000090","63000100","63000110","63000120"],"phone":"7751-8056","owner":"彭紹宇","start":"20200805","end":"20261231"},{"name":"新北市私立恩勤居家長照機構","code":"1X0200037","type":"1","city":"65000","town":"65000010","addr":"新北市板橋區文化路一段189號7樓","lng":121.463058,"lat":25.016556,"abc":"B","service":"居家服務","zones":["63000010","63000020","63000030","63000040","63000050","63000060","63000070","63000080","63000090","63000100","63000110","63000120"],"phone":"8953-5988","owner":"陳蕙汎","start":"20200521","end":"20261231"},{"name":"永愛居家長照有限公司附設新北市私立永愛居家長照機構","code":"1X0200019","type":"1","city":"65000","town":"65000110","addr":"新北市汐止區復興里新台五路一段159號14樓","lng":121.656784,"lat":25.063368,"abc":"B","service":"居家服務","zones":["63000010","63000090","63000100"],"phone":"02-26430199","owner":"王薏茹","start":"20200518","end":"20261231"},{"name":"天主教耕莘醫療財團法人永和耕莘醫院-永和永興據點(醫事C)","code":"B20200192","type":"B2","city":"65000","town":"65000040","addr":"新北市永和區永興里國光路116巷2號1樓","lng":121.518105,"lat":25.01149,"abc":"C","service":"巷弄長照站","zones":["65000040"],"phone":"(02)29286060","owner":"趙嘉倫","start":"20201001","end":"20211231"},{"name":"碇康藥局(醫事C)","code":"B30200029","type":"B3","city":"65000","town":"65000190","addr":"新北市石碇區中民里靜安路1段242號","lng":121.672935,"lat":25.008474,"abc":"C","service":"巷弄長照站","zones":["65000190"],"phone":"(02)2663-1325 分機23","owner":"鄭健雄","start":"20200701","end":"20201231"},{"name":"新北市深坑區衛生所-深坑第一市民活動中心(醫事C)","code":"B20200195","type":"B2","city":"65000","town":"65000180","addr":"新北市深坑區深坑里平埔街16號6樓","lng":121.615433,"lat":25.001595,"abc":"C","service":"巷弄長照站","zones":["65000180"],"phone":"02-26621567","owner":"林幸玟","start":"20200801","end":"20201231"},{"name":"新北市平溪區衛生所","code":"B20200016","type":"B2","city":"65000","town":"65000240","addr":"新北市平溪區公園街17號","lng":121.737823,"lat":25.025059,"abc":"C","service":"巷弄長照站","zones":["65000240"],"phone":"02-24951015","owner":"廖廣榆","start":"20200801","end":"20201231"},{"name":"新北市萬里區衛生所-萬里據點(醫事C)","code":"B20200196","type":"B2","city":"65000","town":"65000280","addr":"新北市萬里區萬里里瑪鍊路157號2樓","lng":121.689713,"lat":25.178331,"abc":"C","service":"巷弄長照站","zones":["65000280"],"phone":"02-24921117","owner":"劉尚霖","start":"20200801","end":"20201231"},{"name":"財團法人中華民國佛教慈濟慈善事業基金會新北市私立慈濟蘆洲綜合長照機構-埔墘共修處(醫事C)","code":"1R0200020","type":"1","city":"65000","town":"65000010","addr":"新北市板橋區東丘里中山路二段60巷1弄22號1樓","lng":121.475044,"lat":25.015654,"abc":"C","service":"巷弄長照站","zones":["65000010"],"phone":"(02)2218-7770分機2224","owner":"釋證嚴","start":"20200701","end":"20201231"},{"name":"財團法人中華民國佛教慈濟慈善事業基金會新北市私立慈濟蘆洲綜合長照機構-舊永和聯絡處(醫事C)","code":"1R0200021","type":"1","city":"65000","town":"65000040","addr":"新北市永和區正興里4鄰永和路二段92巷1號4樓","lng":121.515457,"lat":25.011639,"abc":"C","service":"巷弄長照站","zones":["65000040"],"phone":"(02)2218-7770分機2224","owner":"釋證嚴","start":"20200701","end":"20201231"},{"name":"財團法人中華民國佛教慈濟慈善事業基金會新北市私立慈濟蘆洲綜合長照機構-新永和聯絡處(醫事C)","code":"1R0200022","type":"1","city":"65000","town":"65000040","addr":"新北市永和區中溪里中山路一段130號","lng":121.510384,"lat":25.010065,"abc":"C","service":"巷弄長照站","zones":["65000040"],"phone":"(02)2218-7770分機2224","owner":"釋證嚴","start":"20200701","end":"20201231"},{"name":"財團法人伊甸社會服務基金會-鶯歌大湖公共托老中心(醫事C)","code":"BD0200042","type":"BD","city":"65000","town":"65000080","addr":"新北市鶯歌區中湖里大湖路338巷2號","lng":121.346245,"lat":24.971075,"abc":"C","service":"巷弄長照站","zones":["65000080"],"phone":"2677-6759","owner":"成亮","start":"20200101","end":"20200131"},{"name":"財團法人伊甸社會福利基金會(新北市三峽北大公共托老中心)(醫事C)","code":"BD0200046","type":"BD","city":"65000","town":"65000090","addr":"新北市三峽區龍學里學成路396號2樓之1","lng":121.377769,"lat":24.944197,"abc":"C","service":"巷弄長照站","zones":["65000090"],"phone":"(02)8671-3217","owner":"成亮","start":"20200101","end":"20201231"},{"name":"財團法人伊甸社會福利基金會附設新北市私立三峽身心障礙福利服務中心(社照C)","code":"BD0200009","type":"BD","city":"65000","town":"65000090","addr":"新北市三峽區龍埔里國光街12巷10號1樓","lng":121.376083,"lat":24.93717,"abc":"C","service":"巷弄長照站","zones":["65000090"],"phone":"(02)26741778#203","owner":"陳宇昭","start":"20260101","end":"20261231"},{"name":"新北市鶯歌區建德社區發展協會(社照C)","code":"BF0200042","type":"BF","city":"65000","town":"65000080","addr":"新北市鶯歌區建德里中正一路建德巷22號","lng":121.364708,"lat":24.957314,"abc":"C","service":"巷弄長照站","zones":["65000080"],"phone":"0910869341","owner":"張進益","start":"20260101","end":"20261231"},{"name":"新北市三峽區原住民族發展協進會(社照C)","code":"BF0200047","type":"BF","city":"65000","town":"65000090","addr":"新北市三峽區鳶山里介壽里中山路257巷35號7樓","lng":121.362434,"lat":24.937336,"abc":"C","service":"巷弄長照站","zones":["65000090"],"phone":"0986775129","owner":"李世泓","start":"20260101","end":"20261231"},{"name":"社團法人博芳照顧關懷及共享協會(社照C)","code":"BE0200035","type":"BE","city":"65000","town":"65000090","addr":"新北市三峽區礁溪里中華路15巷13號","lng":121.373863,"lat":24.931486,"abc":"C","service":"巷弄長照站","zones":["65000090"],"phone":"00","owner":"朱雲鵬","start":"20230101","end":"20231231"},{"name":"財團法人一粒麥子社會福利慈善事業基金會(平溪十分站)(社照C)","code":"BD0200045","type":"BD","city":"65000","town":"65000240","addr":"新北市平溪區十分里十分街66巷1號","lng":121.775803,"lat":25.041929,"abc":"C","service":"巷弄長照站","zones":["65000240"],"phone":"(02)87734528","owner":"呂信雄","start":"20230101","end":"20231231"},{"name":"社團法人新北市博德書院文教公益推廣協會(崁頂站)(社照C)","code":"BF0200154","type":"BF","city":"65000","town":"65000100","addr":"新北市淡水區崁頂里中山北路二段381巷128號1樓","lng":121.442924,"lat":25.185993,"abc":"C","service":"巷弄長照站","zones":["65000100"],"phone":"090514865702-26266198","owner":"林俊仁","start":"20220101","end":"20231231"},{"name":"新北市平溪區菁桐社區發展協會(社照C)","code":"BF0200065","type":"BF","city":"65000","town":"65000240","addr":"新北市平溪區菁桐里菁桐街65-1號","lng":121.726166,"lat":25.023535,"abc":"C","service":"巷弄長照站","zones":["65000240"],"phone":"","owner":"楊明益","start":"20230101","end":"20231231"},{"name":"社團法人新北市博德書院文教公益推廣協會(學府站)(社照C)","code":"BF0200153","type":"BF","city":"65000","town":"65000100","addr":"新北市淡水區學府里水源街1段143巷2號1樓","lng":121.447258,"lat":25.172146,"abc":"C","service":"巷弄長照站","zones":["65000100"],"phone":"090514865702-26266198","owner":"林俊仁","start":"20220101","end":"20231231"},{"name":"社團法人台灣多元社會福利協會(淡水民權站)(社照C)","code":"BF0200156","type":"BF","city":"65000","town":"65000100","addr":"新北市淡水區民權里民權路177巷10號","lng":121.460327,"lat":25.13509,"abc":"C","service":"巷弄長照站","zones":["65000100"],"phone":"02-28085539","owner":"林政緯","start":"20220101","end":"20231231"},{"name":"新北市板橋區三民社區展協會(社照C)","code":"BF0200158","type":"BF","city":"65000","town":"65000010","addr":"新北市板橋區東丘里新北市板橋區民生路1段30-1號","lng":121.476822,"lat":25.01366,"abc":"C","service":"巷弄長照站","zones":["65000010"],"phone":"2956-1159","owner":"林素杏","start":"20220101","end":"20221231"},{"name":"財團法人中華民國佛教慈濟慈善事業基金會新北市私立慈濟蘆洲綜合長照機構-林口靜思書軒(醫事C)","code":"1R0200023","type":"1","city":"65000","town":"65000170","addr":"新北市林口區西林里佳林路166號2樓","lng":121.383537,"lat":25.076656,"abc":"C","service":"巷弄長照站","zones":["65000170"],"phone":"(02)2218-7770分機2224","owner":"釋證嚴","start":"20200701","end":"20201231"},{"name":"財團法人中華民國佛教慈濟慈善事業基金會新北市私立慈濟蘆洲綜合長照機構-鳳鳴共修處(醫事C)","code":"1R0200024","type":"1","city":"65000","town":"65000080","addr":"新北市鶯歌區鳳鳴里永和街184號1樓","lng":121.336311,"lat":24.970455,"abc":"C","service":"巷弄長照站","zones":["65000080"],"phone":"(02)2218-7770分機2224","owner":"釋證嚴","start":"20200701","end":"20201231"},{"name":"財團法人中華民國佛教慈濟慈善事業基金會新北市私立慈濟蘆洲綜合長照機構-三峽園區(醫事C)","code":"1R0200025","type":"1","city":"65000","town":"65000090","addr":"新北市三峽區介壽里介壽路一段498號","lng":121.385773,"lat":24.932167,"abc":"C","service":"巷弄長照站","zones":["65000090"],"phone":"(02)2218-7770分機2224","owner":"釋證嚴","start":"20200731","end":"20201231"},{"name":"新北市蘆洲區仁義里辦公處(社照C)","code":"BG0200040","type":"BG","city":"65000","town":"65000140","addr":"新北市蘆洲區仁義里集賢路245號7樓","lng":121.481667,"lat":25.084686,"abc":"C","service":"巷弄長照站","zones":["65000140"],"phone":"2289-1048","owner":"何益銘","start":"20220101","end":"20221231"},{"name":"財團法人中華民國佛教慈濟慈善事業基金會新北市私立慈濟蘆洲綜合長照機構-海山聯絡處(醫事C)","code":"1R0200026","type":"1","city":"65000","town":"65000130","addr":"新北市土城區大安里中央路三段42號5樓之1","lng":121.437294,"lat":24.967976,"abc":"C","service":"巷弄長照站","zones":["65000130"],"phone":"(02)2218-7770分機2224","owner":"釋證嚴","start":"20200731","end":"20201231"},{"name":"財團法人中華民國佛教慈濟慈善事業基金會新北市私立慈濟蘆洲綜合長照機構-淡水共修處(醫事C)","code":"1R0200027","type":"1","city":"65000","town":"65000100","addr":"新北市淡水區埤島里2鄰中山北路三段102號","lng":121.444405,"lat":25.191002,"abc":"C","service":"巷弄長照站","zones":["65000100"],"phone":"02)2218-7770分機2224","owner":"釋證嚴","start":"20200731","end":"20201231"},{"name":"財團法人台灣省私立健順養護中心(新店柴埕公共托老中心)(社照C)","code":"BF0200155","type":"BF","city":"65000","town":"65000060","addr":"新北市新店區柴埕里安民街79號5樓","lng":121.516571,"lat":24.967379,"abc":"C","service":"巷弄長照站","zones":["65000060"],"phone":"02-22121753","owner":"黃禎祥","start":"20220101","end":"20221231"},{"name":"新北市蘆洲區永安里辦公處(社照C)","code":"BG0200041","type":"BG","city":"65000","town":"65000140","addr":"新北市蘆洲區永安里永安南路二段16巷9號1樓","lng":121.46772,"lat":25.077511,"abc":"C","service":"巷弄長照站","zones":["65000140"],"phone":"02-2289-1048、0963-978335","owner":"李建興","start":"20220101","end":"20221231"},{"name":"新北市蘆洲區信義里辦公處(社照C)","code":"BG0200042","type":"BG","city":"65000","town":"65000140","addr":"新北市蘆洲區信義里民族路167巷10號","lng":121.478462,"lat":25.088348,"abc":"C","service":"巷弄長照站","zones":["65000140"],"phone":"0926-888136","owner":"郭騰芳","start":"20220101","end":"20221231"},{"name":"新北市土城區日新里辦公處(社照C)","code":"BF0200159","type":"BF","city":"65000","town":"65000130","addr":"新北市土城區日新里裕生路100巷7號","lng":121.446205,"lat":24.98509,"abc":"C","service":"巷弄長照站","zones":["65000130"],"phone":"0282626001","owner":"吳信坪","start":"20220101","end":"20221231"},{"name":"新北市三芝區樂天社區發展協會(社照C)","code":"BF0200160","type":"BF","city":"65000","town":"65000210","addr":"新北市三芝區興華里楓子林47-1號","lng":121.501778,"lat":25.206675,"abc":"C","service":"巷弄長照站","zones":["65000210"],"phone":"26371314","owner":"杜國偵","start":"20220101","end":"20231231"},{"name":"財團法人台灣老人急重症基金會(社照C) ","code":"BF0200162","type":"BF","city":"65000","town":"65000210","addr":"新北市三芝區埔坪里中山路二段18號","lng":121.502754,"lat":25.255665,"abc":"C","service":"巷弄長照站","zones":["65000210"],"phone":"0920357246","owner":"蔡正河","start":"20230101","end":"20231231"},{"name":"新北市崇德光慧經典教育推廣協會(社照C)","code":"BF0200164","type":"BF","city":"65000","town":"65000130","addr":"新北市土城區中華路一段36號6樓","lng":121.446304,"lat":24.989723,"abc":"C","service":"巷弄長照站","zones":["65000130"],"phone":"0289669504","owner":"謝寬鈴","start":"20220101","end":"20221231"},{"name":"財團法人新北市基督教新希望教會(土城清水站)(社照C)","code":"BF0200165","type":"BF","city":"65000","town":"65000130","addr":"新北市土城區明德路一段240巷26弄5號","lng":121.460411,"lat":24.978189,"abc":"C","service":"巷弄長照站","zones":["65000130"],"phone":"0952922096","owner":"林淑萍","start":"20220101","end":"20221231"},{"name":"新北市板橋區大後埔文化關懷協進會(板橋民族站)(社照C)","code":"BF0200150","type":"BF","city":"65000","town":"65000010","addr":"新北市板橋區民族里漢生東路326巷2弄11號1樓","lng":121.471207,"lat":25.008398,"abc":"C","service":"巷弄長照站","zones":["65000010"],"phone":"0918063168","owner":"王明發","start":"20230101","end":"20231231"},{"name":"新北市石碇區烏塗社區發展協會(社照C)","code":"BF0200167","type":"BF","city":"65000","town":"65000190","addr":"新北市石碇區烏塗里烏塗窟20之1號","lng":121.656708,"lat":24.974989,"abc":"C","service":"巷弄長照站","zones":["65000190"],"phone":"0921691968","owner":"許賜福","start":"20220101","end":"20221231"},{"name":"台灣在地安老推展協會(淡水埤島站)(社照C)","code":"BF0200169","type":"BF","city":"65000","town":"65000100","addr":"新北市淡水區埤島里埤島7-5號","lng":121.445534,"lat":25.19285,"abc":"C","service":"巷弄長照站","zones":["65000100"],"phone":"02-264129770926-348981","owner":"呂子煒","start":"20220101","end":"20231231"},{"name":"財團法人新北市中華基督教青潭浸信會(社照C)","code":"BF0200170","type":"BF","city":"65000","town":"65000060","addr":"新北市新店區美潭里北宜路二段267巷2號1樓","lng":121.554619,"lat":24.953878,"abc":"C","service":"巷弄長照站","zones":["65000060"],"phone":"02-22173724","owner":"林佩柔","start":"20220101","end":"20221231"},{"name":"社團法人台灣新希望社區關懷協會(三民站)(社照C)","code":"BG0200045","type":"BG","city":"65000","town":"65000140","addr":"新北市蘆洲區仁愛里三民路110巷24號","lng":121.47245,"lat":25.087488,"abc":"C","service":"巷弄長照站","zones":["65000140"],"phone":"828328580922295129","owner":"陳淑蕙","start":"20220101","end":"20221231"},{"name":"新北市雙溪區長源社區發展協會(社照C)","code":"BG0200046","type":"BG","city":"65000","town":"65000250","addr":"新北市雙溪區長源里柑腳19號","lng":121.804909,"lat":25.014591,"abc":"C","service":"巷弄長照站","zones":["65000250"],"phone":"0915950333","owner":"黃正夫","start":"20230101","end":"20231231"},{"name":"新北市淡水區正德里辦公處-淡水正德據點(社照C)","code":"BF0200172","type":"BF","city":"65000","town":"65000100","addr":"新北市淡水區正德里北新路141巷27號","lng":121.450012,"lat":25.179554,"abc":"C","service":"巷弄長照站","zones":["65000100"],"phone":"02-2628-1110","owner":"黃俊雄","start":"20220101","end":"20231231"},{"name":"新北市淡水區福德里辦公處(社照C)","code":"BF0200173","type":"BF","city":"65000","town":"65000100","addr":"新北市淡水區福德里自強路307巷4號","lng":121.462303,"lat":25.131958,"abc":"C","service":"巷弄長照站","zones":["65000100"],"phone":"0987-469-508","owner":"郭清泉","start":"20220101","end":"20231231"},{"name":"社團法人中華仁親社區關懷協會(社照C)","code":"BF0200174","type":"BF","city":"65000","town":"65000100","addr":"新北市淡水區水碓里北新路2-1號2樓","lng":121.444344,"lat":25.177683,"abc":"C","service":"巷弄長照站","zones":["65000100"],"phone":"02-2626-9667","owner":"陳瓊芳","start":"20220101","end":"20231231"},{"name":"財團法人新北市基督教新希望教會(淡水大庄站)(社照C)","code":"BF0200175","type":"BF","city":"65000","town":"65000100","addr":"新北市淡水區大庄里沙崙路181巷30號","lng":121.423431,"lat":25.184895,"abc":"C","service":"巷弄長照站","zones":["65000100"],"phone":"02-2881-5100","owner":"林淑萍","start":"20220101","end":"20231231"},{"name":"財團法人中華民國佛教慈濟慈善事業基金會-蘆洲靜思堂(社照C)","code":"BD0200049","type":"BD","city":"65000","town":"65000140","addr":"新北市蘆洲區長樂路125號","lng":121.461891,"lat":25.08774,"abc":"C","service":"巷弄長照站","zones":["65000140"],"phone":"02-22187770#2877","owner":"釋證嚴","start":"20230101","end":"20231231"},{"name":"財團法人中華民國佛教慈濟慈善事業基金會-板橋靜思堂(社照C)","code":"BD0200048","type":"BD","city":"65000","town":"65000010","addr":"新北市板橋區大觀路二段265巷15號","lng":121.44294,"lat":24.996103,"abc":"C","service":"巷弄長照站","zones":["65000010"],"phone":"03-8266779#505","owner":"釋證嚴","start":"20230101","end":"20231231"},{"name":"財團法人中華民國佛教慈濟慈善事業基金會-三重靜思堂關懷據點(社照C)","code":"BD0200038","type":"BD","city":"65000","town":"65000020","addr":"新北市三重區大有里中正北路450號","lng":121.473824,"lat":25.07136,"abc":"C","service":"巷弄長照站","zones":["65000020"],"phone":"","owner":"林沛慈","start":"20230101","end":"20231231"},{"name":"佛教慈濟醫療財團法人台北慈濟醫院","code":"B20200029","type":"B2","city":"65000","town":"65000060","addr":"新北市新店區復興里建國路289號","lng":121.535675,"lat":24.986063,"abc":"C","service":"巷弄長照站","zones":["65000060"],"phone":"(02)66289779","owner":"趙有誠","start":"20230101","end":"20231231"},{"name":"財團法人私立廣恩老人養護中心附設新北市私立土城頂埔社區長照機構","code":"2S0200030","type":"2","city":"65000","town":"65000130","addr":"新北市土城區中央路四段271巷12號","lng":121.414764,"lat":24.953817,"abc":"C","service":"巷弄長照站","zones":["65000130"],"phone":"02-22695333","owner":"林偉峰","start":"20220101","end":"20221231"},{"name":"新北市土城區永寧社區發展協會(社照C)","code":"BF0200117","type":"BF","city":"65000","town":"65000130","addr":"新北市土城區永平街1號","lng":121.427536,"lat":24.963457,"abc":"C","service":"巷弄長照站","zones":["65000130"],"phone":"02-26719689","owner":"彭武雄","start":"20220101","end":"20221231"},{"name":"社團法人中華利仁社會福利協會(社照C)","code":"BE0200051","type":"BE","city":"65000","town":"65000130","addr":"新北市土城區員林里中正路1號6樓之1","lng":121.442307,"lat":24.975111,"abc":"C","service":"巷弄長照站","zones":["65000130"],"phone":"02-22632256","owner":"謝麗珠","start":"20220101","end":"20221231"},{"name":"財團法人老五老基金會新北市石碇楓子林公共托老中心(社照C)","code":"BD0200063","type":"BD","city":"65000","town":"65000190","addr":"新北市石碇區楓子林32-1號3樓","lng":121.642311,"lat":25.010136,"abc":"C","service":"巷弄長照站","zones":["65000190"],"phone":"(02)26632885","owner":"林正介","start":"20220101","end":"20221231"},{"name":"新北市奇布施老人養生會-寶福站(社照C)","code":"BF0200138","type":"BF","city":"65000","town":"65000060","addr":"新北市新店區寶福里寶橋路234號","lng":121.551735,"lat":24.978725,"abc":"C","service":"巷弄長照站","zones":["65000060"],"phone":"02-291609230918-608832","owner":"黃壽美","start":"20220101","end":"20221231"},{"name":"新北市板橋區耆光協會(社照C)","code":"BF0200147","type":"BF","city":"65000","town":"65000010","addr":"新北市板橋區文翠里仁化街63號1樓","lng":121.475433,"lat":25.031836,"abc":"C","service":"巷弄長照站","zones":["65000010"],"phone":"02-82572509","owner":"郭小萍","start":"20240101","end":"20241231"},{"name":"新北市私立永安居家長照機構","code":"1X0200007","type":"1","city":"65000","town":"65000060","addr":"新北市新店區國豐里中正路399巷13號","lng":121.534111,"lat":24.976856,"abc":"B","service":"居家服務","zones":["63000010","63000020","63000030","63000040","63000050","63000060","63000070","63000080","63000090","63000100","63000110","63000120"],"phone":"02-86656656","owner":"周雅婷","start":"20240101","end":"20261231"},{"name":"自己人居家物理治療所","code":"B40200027","type":"B4","city":"65000","town":"65000080","addr":"新北市鶯歌區南鶯里育才街90號1樓","lng":121.347351,"lat":24.954729,"abc":"C","service":"巷弄長照站","zones":["65000080"],"phone":"(02)2678-1289","owner":"陳星叡","start":"20200601","end":"20211231"},{"name":"新北市私立璟馨居家式服務類長期照顧服務機構(醫事C)","code":"1X0200080","type":"1","city":"65000","town":"65000130","addr":"新北市土城區延吉里延吉街76號","lng":121.471024,"lat":24.986679,"abc":"C","service":"巷弄長照站","zones":["65000130"],"phone":"02-77230968","owner":"洪慧珍","start":"20200601","end":"20211231"},{"name":"五甘心物理治療所-樹林區(醫事C)","code":"B40200028","type":"B4","city":"65000","town":"65000070","addr":"新北市樹林區潭底里保安街一段274號1樓","lng":121.419563,"lat":24.997084,"abc":"C","service":"巷弄長照站","zones":["65000070"],"phone":"02-85213385","owner":"廖泰翔","start":"20190701","end":"20211231"},{"name":"好家人健康長期照護事業有限公司附設新北市私立延吉居家長照機構-土城廷寮據點(醫事C)","code":"1V0200036","type":"1","city":"65000","town":"65000130","addr":"新北市土城區廷寮里延吉街253巷20號1樓","lng":121.467773,"lat":24.984056,"abc":"C","service":"巷弄長照站","zones":["65000130"],"phone":"2260-5685","owner":"吳家慧","start":"20200601","end":"20211231"},{"name":"觀海護理之家(醫事C)","code":"A30200175","type":"A3","city":"65000","town":"65000230","addr":"新北市八里區訊塘里訊塘路78號1樓","lng":121.397758,"lat":25.146177,"abc":"C","service":"巷弄長照站","zones":["65000230"],"phone":"(02)86303185#258","owner":"朱初梅","start":"20190801","end":"20211231"},{"name":"新北市私立常春藤居家長照機構-汐止湖興據點(醫事C)","code":"1X0200081","type":"1","city":"65000","town":"65000110","addr":"新北市汐止區湖興里伯爵街54巷6號B1樓","lng":121.638603,"lat":25.080709,"abc":"C","service":"巷弄長照站","zones":["65000110"],"phone":"2642-1938","owner":"俞美娟","start":"20200401","end":"20211231"},{"name":"新北市私立常春藤居家長照機構-瑞芳吉安據點(醫事C)","code":"1X0200094","type":"1","city":"65000","town":"65000120","addr":"新北市瑞芳區吉安里大埔路178號1樓","lng":121.762161,"lat":25.101929,"abc":"C","service":"巷弄長照站","zones":["65000110"],"phone":"(02)-86461838","owner":"俞美娟","start":"20200401","end":"20211231"},{"name":"寶興護理之家-新店寶福據點(醫事C)","code":"A30200174","type":"A3","city":"65000","town":"65000060","addr":"新北市新店區寶福里寶興路39號1樓","lng":121.549133,"lat":24.974209,"abc":"C","service":"巷弄長照站","zones":["65000060"],"phone":"02-29109980","owner":"廖麗如","start":"20200901","end":"20211231","beds":1},{"name":"新北市中和區明德里辦公處(社照C)","code":"BG0200039","type":"BG","city":"65000","town":"65000030","addr":"新北市中和區明德里民德路311號2樓","lng":121.467346,"lat":24.994783,"abc":"C","service":"巷弄長照站","zones":["65000030"],"phone":"0978659149","owner":"侯鈞翰","start":"20220101","end":"20221231"},{"name":"新北市深坑區衛生所-深坑第一市民活動中心(醫事C)","code":"B20200195","type":"B2","city":"65000","town":"65000180","addr":"新北市深坑區深坑里平埔街16號6樓","lng":121.615433,"lat":25.001595,"abc":"C","service":"巷弄長照站","zones":["65000180"],"phone":"02-26621567","owner":"林幸玟","start":"20200701","end":"20211231"},{"name":"社團法人新北市健安樂活迎老服務協會(社照C)","code":"BE0200065","type":"BE","city":"65000","town":"65000030","addr":"新北市中和區枋寮里枋寮街33號","lng":121.501846,"lat":25.000589,"abc":"C","service":"巷弄長照站","zones":["65000030"],"phone":"0937208253","owner":"黃淑娥","start":"20220101","end":"20221231"},{"name":"社團法人台灣多元社會福利協會(中和秀士站)(社照C)","code":"BE0200064","type":"BE","city":"65000","town":"65000030","addr":"新北市中和區秀士里景平路151巷59之1號1樓","lng":121.515038,"lat":24.990082,"abc":"C","service":"巷弄長照站","zones":["65000030"],"phone":"29821099","owner":"林政緯","start":"20220101","end":"20221231"},{"name":"社團法人臺灣腦身心機能認知協會(社照C)","code":"BF0200148","type":"BF","city":"65000","town":"65000030","addr":"新北市中和區秀山里景平路64巷13弄18號","lng":121.521667,"lat":24.991503,"abc":"C","service":"巷弄長照站","zones":["65000030"],"phone":"02-86685760","owner":"陳怡璇","start":"20220101","end":"20221231"},{"name":"新北市中和區壽德里辦公處(社照C)","code":"BG0200043","type":"BG","city":"65000","town":"65000030","addr":"新北市中和區壽德里華順街138號","lng":121.464676,"lat":24.996075,"abc":"C","service":"巷弄長照站","zones":["65000030"],"phone":"29647071","owner":"張宗正","start":"20220101","end":"20221231"},{"name":"財團法人新北市新莊基督教後港主恩教會(社照C)","code":"BD0200060","type":"BD","city":"65000","town":"65000050","addr":"新北市新莊區成德里八德街113巷3號、5號","lng":121.4244,"lat":25.02083,"abc":"C","service":"巷弄長照站","zones":["65000050"],"phone":"0955466370","owner":"陳明照","start":"20240101","end":"20241231"},{"name":"社團法人中華民國紳士協會(社照C)","code":"BE0200063","type":"BE","city":"65000","town":"65000070","addr":"新北市樹林區三福里福興街17號","lng":121.404343,"lat":25.016611,"abc":"C","service":"巷弄長照站","zones":["65000070"],"phone":"0939524141","owner":"簡文勇","start":"20220101","end":"20221231"},{"name":"新北市新店區北宜社區發展協會-新店美潭據點(社照C)","code":"BF0200001","type":"BF","city":"65000","town":"65000060","addr":"新北市新店區美潭里001鄰北宜路二段11號","lng":121.547844,"lat":24.95199,"abc":"C","service":"巷弄長照站","zones":["65000060"],"phone":"02-22173808","owner":"林雯玲","start":"20220101","end":"20221231"},{"name":"新北市板橋區大浮洲發展協進會(板橋龍安站)(社照C)","code":"BF0200161","type":"BF","city":"65000","town":"65000010","addr":"新北市板橋區龍安里大觀路二段174巷118弄12號1樓","lng":121.442688,"lat":25.001207,"abc":"C","service":"巷弄長照站","zones":["65000010"],"phone":"22725088","owner":"林新添","start":"20230101","end":"20231231"},{"name":"新北市大社后愛心關懷協會(板橋民權站)(社照C)","code":"BF0200163","type":"BF","city":"65000","town":"65000010","addr":"新北市板橋區民權里民權路202巷9弄39號1樓","lng":121.459312,"lat":25.015636,"abc":"C","service":"巷弄長照站","zones":["65000010"],"phone":"29589299","owner":"陳信宏","start":"20230101","end":"20231231"},{"name":"財團法人新北市自強基督教板橋浸禮聖經會(社照C)","code":"BD0200061","type":"BD","city":"65000","town":"65000010","addr":"新北市板橋區自強里大智街13號","lng":121.455742,"lat":25.014818,"abc":"C","service":"巷弄長照站","zones":["65000010"],"phone":"29654997","owner":"羅中明","start":"20240101","end":"20241231"},{"name":"新北市板橋大後埔文化關懷協進會(板橋重慶站)(社照C)","code":"BF0200146","type":"BF","city":"65000","town":"65000010","addr":"新北市板橋區重慶里國慶路149巷3弄7號","lng":121.460938,"lat":24.996777,"abc":"C","service":"巷弄長照站","zones":["65000010"],"phone":"0918063168","owner":" 王明發","start":"20230101","end":"20231231"},{"name":"新北市板橋區大浮洲發展協進會(板橋大安站)(社照C)","code":"BF0200151","type":"BF","city":"65000","town":"65000010","addr":"新北市板橋區大安里大觀路二段7巷3號1樓","lng":121.447266,"lat":25.003592,"abc":"C","service":"巷弄長照站","zones":["65000010"],"phone":"0923618811","owner":"游文金","start":"20230101","end":"20231231"},{"name":"新北市板橋區大後埔文化關懷協進會(港尾站)(社照C)","code":"BF0200149","type":"BF","city":"65000","town":"65000010","addr":"新北市板橋區港尾里中正路336之1號1樓","lng":121.455154,"lat":25.022417,"abc":"C","service":"巷弄長照站","zones":["65000010"],"phone":"0918063168","owner":"林治勳","start":"20230101","end":"20231231"},{"name":"新北市板橋區勞工志工服務協會(板橋廣德站)(社照C)","code":"BF0200152","type":"BF","city":"65000","town":"65000010","addr":"新北市板橋區廣德里重慶路245巷32弄18號","lng":121.464691,"lat":25.000216,"abc":"C","service":"巷弄長照站","zones":["65000010"],"phone":"0918063168","owner":"林治勳","start":"20230101","end":"20231231"},{"name":"中華全人運動照護管理協會(社照C)","code":"BF0200140","type":"BF","city":"65000","town":"65000020","addr":"新北市三重區富貴里三賢街103號1樓","lng":121.487938,"lat":25.088718,"abc":"C","service":"巷弄長照站","zones":["65000020"],"phone":"0973000549","owner":"蕭淑萍","start":"20220101","end":"20231231"},{"name":"新北市淡水區鄧公社區發展協會(社照C)","code":"BF0200139","type":"BF","city":"65000","town":"65000100","addr":"新北市淡水區鄧公里鄧公路32巷7號1樓","lng":121.451042,"lat":25.171402,"abc":"C","service":"巷弄長照站","zones":["65000100"],"phone":"02-262521000912-526336","owner":"邱美津","start":"20220101","end":"20231231"},{"name":"社團法人台灣多元社會福利協會(永和禧德站)(社照C)","code":"BE0200057","type":"BE","city":"65000","town":"65000040","addr":"新北市永和區新廍里文化路90巷33號1樓","lng":121.512962,"lat":25.016569,"abc":"C","service":"巷弄長照站","zones":["65000040"],"phone":"02-29251469","owner":"林政緯","start":"20220101","end":"20221231"},{"name":"新北市多元智能老幼暨兒童教育發展協會(鶯歌站)(社照C)","code":"BF0200141","type":"BF","city":"65000","town":"65000080","addr":"新北市鶯歌區鳳福里福隆一街14號","lng":121.325531,"lat":24.971668,"abc":"C","service":"巷弄長照站","zones":["65000080"],"phone":"02-26793299","owner":"李姿慧","start":"20260101","end":"20261231"},{"name":"新北市私立宜安老人長期照顧中心(養護型)","code":"A10200350","type":"A1","city":"65000","town":"65000030","addr":"新北市中和區泰安里景安路48號7樓","lng":121.506775,"lat":24.99802,"abc":"B","service":"喘息服務","zones":["63000010","63000020","63000030","63000040","63000050","63000060","63000070","63000080","63000090","63000100","63000110","63000120"],"phone":"02-2240935","owner":"黃明發","start":"20210208","end":"20241231","beds":47,"residents":45},{"name":"財團法人一粒麥子社會福利慈善事業基金會(嶺腳里)(社照C)","code":"BD0200028","type":"BD","city":"65000","town":"65000060","addr":"新北市新店區民權路42巷59弄12號5樓","lng":121.537819,"lat":24.981131,"abc":"C","service":"巷弄長照站","zones":["65000240"],"phone":"02-89117897 #12、#15","owner":"呂信雄","start":"20230101","end":"20231231"},{"name":"皓仁健康照護事業有限公司附設新北市私立皓仁居家式服務類長期照顧服務機構","code":"1X0200015","type":"1","city":"65000","town":"65000110","addr":"新北市汐止區大同里大同路二段240號11樓","lng":121.654037,"lat":25.065483,"abc":"B","service":"喘息服務","zones":["10017010","10017020","10017030","10017040","10017050","10017060","10017070"],"phone":"02-26480680","owner":"謝李麗雲","start":"20240422","end":"20250421"},{"name":"社團法人中華民國新生活社會福利促進會(社照C)","code":"BD0200064","type":"BD","city":"65000","town":"65000210","addr":"新北市三芝區埔頭里43-1號","lng":121.499184,"lat":25.261614,"abc":"C","service":"巷弄長照站","zones":["65000210"],"phone":"02-26368398","owner":"蘇興李","start":"20220101","end":"20231231"},{"name":"社團法人中華民國新希望關懷協會(社照C)","code":"BE0200059","type":"BE","city":"65000","town":"65000170","addr":"新北市林口區湖南里文林六街62巷11號1樓","lng":121.371773,"lat":25.081779,"abc":"C","service":"巷弄長照站","zones":["65000170"],"phone":"02-26099990","owner":"楊鑫","start":"20220101","end":"20221231"},{"name":"新北市光塩愛心關懷協會(社照C)","code":"BF0200178","type":"BF","city":"65000","town":"65000050","addr":"新北市新莊區立廷里立信三街25-3號1樓","lng":121.442116,"lat":25.050411,"abc":"C","service":"巷弄長照站","zones":["65000050"],"phone":"02-29982723","owner":"吳振鏜","start":"20220101","end":"20221231"},{"name":"新北市社區工作者協會-萬里站(社照C)","code":"BF0200181","type":"BF","city":"65000","town":"65000280","addr":"新北市萬里區北基里孝六街5號","lng":121.683197,"lat":25.176041,"abc":"C","service":"巷弄長照站","zones":["65000280"],"phone":"0910084033","owner":"丘燕武","start":"20220101","end":"20221231"},{"name":"新北市全能銀色樂活關懷協會(社照C)","code":"BF0200183","type":"BF","city":"65000","town":"65000050","addr":"新北市新莊區民安里民安西路38巷19號","lng":121.426758,"lat":25.020557,"abc":"C","service":"巷弄長照站","zones":["65000050"],"phone":"0968-215752","owner":"楊惠珠","start":"20240101","end":"20241231"},{"name":"新北市五股區貿商社區發展協會(社照C)","code":"BF0200013","type":"BF","city":"65000","town":"65000150","addr":"新北市五股區貿商里登林路貿商巷8弄10號","lng":121.431122,"lat":25.070621,"abc":"C","service":"巷弄長照站","zones":["65000150"],"phone":"(02)22926594","owner":"高甯松","start":"20220101","end":"20221231"},{"name":"社團法人中華基督教521福緣全人關懷協會-中興據點(社照C)","code":"BE0200069","type":"BE","city":"65000","town":"65000150","addr":"新北市五股區五股里中興路4段19-1號","lng":121.43924,"lat":25.082413,"abc":"C","service":"巷弄長照站","zones":["65000150"],"phone":"02-22914515","owner":"韓善泉","start":"20220101","end":"20221231"},{"name":"新北市五股區成州社區發展協會(社照C)","code":"BF0200014","type":"BF","city":"65000","town":"65000150","addr":"新北市五股區成州里西雲路267號","lng":121.449341,"lat":25.098089,"abc":"C","service":"巷弄長照站","zones":["65000150"],"phone":"0970236196","owner":"王文龍","start":"20220101","end":"20221231"},{"name":"中華民國松村社會福利暨身心障礙發展協會(社照C)","code":"BF0200184","type":"BF","city":"65000","town":"65000150","addr":"新北市五股區五股里民義路一段68號","lng":121.436371,"lat":25.084682,"abc":"C","service":"巷弄長照站","zones":["65000150"],"phone":"02-22915515","owner":"李偉立","start":"20220101","end":"20221231"},{"name":"財團法人伊甸社會福利基金會-坪林水柳腳公共托老中心(社照C)","code":"BD0200036","type":"BD","city":"65000","town":"65000200","addr":"新北市坪林區坪林里坪碇路6號","lng":121.705299,"lat":24.935415,"abc":"C","service":"巷弄長照站","zones":["65000200"],"phone":"0226658373","owner":"成亮","start":"20220101","end":"20221231"},{"name":"新北市私立好家園老人長期照顧中心(養護型)","code":"A10200328","type":"A1","city":"65000","town":"65000110","addr":"新北市汐止區興福里福德路38號2樓","lng":121.635635,"lat":25.067255,"abc":"B","service":"喘息服務","zones":["63000010","63000020","63000030","63000040","63000050","63000060","63000070","63000080","63000090","63000100","63000110","63000120"],"phone":"02-26926777","owner":"李質穎","start":"20210507","end":"20241231","beds":41,"residents":39},{"name":"新北市私立幸福家園老人長期照顧中心(養護型)","code":"A10200144","type":"A1","city":"65000","town":"65000110","addr":"新北市汐止區興福里福德路38號12樓","lng":121.636383,"lat":25.067329,"abc":"B","service":"喘息服務","zones":["63000010","63000020","63000030","63000040","63000050","63000060","63000070","63000080","63000090","63000100","63000110","63000120"],"phone":"02-26924325","owner":"李倩穎","start":"20210507","end":"20241231","beds":42,"residents":45},{"name":"私立三民護理之家","code":"A30200101","type":"A3","city":"65000","town":"65000140","addr":"新北市蘆洲區三民路26巷51號1樓、2樓","lng":121.47805,"lat":25.083403,"abc":"B","service":"喘息服務","zones":["63000010","63000020","63000030","63000040","63000050","63000060","63000070","63000080","63000090","63000100","63000110","63000120"],"phone":"(02)22886211","owner":"楊品羚","start":"20210507","end":"20241231","beds":74,"residents":68},{"name":"新北市豐樂藝術文化愛心關懷協會(社照C)","code":"BF0200187","type":"BF","city":"65000","town":"65000130","addr":"新北市土城區明德里學士路100號","lng":121.450188,"lat":24.979853,"abc":"C","service":"巷弄長照站","zones":["65000130"],"phone":"0987389449","owner":"謝美珠","start":"20220101","end":"20221231"},{"name":"新北市熱心慈善關懷協會(社照C)","code":"BF0200188","type":"BF","city":"65000","town":"65000050","addr":"新北市新莊區海山里瓊泰路211號2樓","lng":121.443077,"lat":25.031794,"abc":"C","service":"巷弄長照站","zones":["65000050"],"phone":"02-2205-8580","owner":"黃王銘","start":"20240101","end":"20241231"},{"name":"仁邦診所","code":"B20200237","type":"B2","city":"65000","town":"65000170","addr":"新北市林口區中山路534號","lng":121.378502,"lat":25.083694,"abc":"B","service":"居家失能個案家庭醫師照護服務","zones":["68000010","68000050","68000070"],"phone":"02-86012201","owner":"羅志煌","start":"20240101","end":"20251231"},{"name":"新北市淡水區新興里辦公處(社照C)","code":"BG0200049","type":"BG","city":"65000","town":"65000100","addr":"新北市淡水區新興里新春街138號","lng":121.441566,"lat":25.181608,"abc":"C","service":"巷弄長照站","zones":["65000100"],"phone":"0915959132","owner":"吳錦泉","start":"20220101","end":"20231231"},{"name":"新北市民俗活動發展協會(社照C)","code":"BF0200190","type":"BF","city":"65000","town":"65000100","addr":"新北市淡水區北投里淡金路二段223號","lng":121.447044,"lat":25.184484,"abc":"C","service":"巷弄長照站","zones":["65000100"],"phone":"0952652587","owner":"黃俊雄","start":"20220101","end":"20231231"},{"name":"新北市三重活躍樂齡協會(社照C)","code":"BF0200189","type":"BF","city":"65000","town":"65000020","addr":"新北市三重區重明里重陽路1段60巷101號1樓","lng":121.484642,"lat":25.058187,"abc":"C","service":"巷弄長照站","zones":["65000020"],"phone":"29891010","owner":"蔡簿","start":"20220101","end":"20231231"},{"name":"永盛里社區關懷據點(社照C)","code":"BF0200053","type":"BF","city":"65000","town":"65000020","addr":"新北市三重區永盛里車路頭街133號","lng":121.484634,"lat":25.076315,"abc":"C","service":"巷弄長照站","zones":["65000020"],"phone":"(02)29826391","owner":"侯錦足","start":"20220101","end":"20231231"},{"name":"新北市大有忘年協會(社照C)","code":"BF0200191","type":"BF","city":"65000","town":"65000020","addr":"新北市三重區二重里疏洪東路2段131號","lng":121.475266,"lat":25.06661,"abc":"C","service":"巷弄長照站","zones":["65000020"],"phone":"29814448","owner":"李訓銀","start":"20220101","end":"20231231"},{"name":"新北市私立聯順居家式服務類長期照顧服務機構-景福里巷弄長照(醫事C)","code":"B10200083","type":"B1","city":"65000","town":"65000030","addr":"新北市中和區景福里捷運路109號1樓","lng":121.507828,"lat":24.990105,"abc":"C","service":"巷弄長照站","zones":["65000010","65000030"],"phone":"(02)2968-5077分機160","owner":"汪秋蓉","start":"20210101","end":"20211231"},{"name":"新北市私立聯順居家式服務類長期照顧服務機構-永安里巷弄長照站(醫事C)","code":"B10200081","type":"B1","city":"65000","town":"65000010","addr":"新北市板橋區永安里萬板路186號1樓","lng":121.476189,"lat":25.023706,"abc":"C","service":"巷弄長照站","zones":["65000010","65000030"],"phone":"(02)29685077分機186","owner":"汪秋蓉","start":"20210101","end":"20211231"},{"name":"新北市私立聯順居家式服務類長期照顧服務機構-漢生里巷弄長照站(醫事C)","code":"B10200082","type":"B1","city":"65000","town":"65000010","addr":"新北市板橋區漢生里文化路一段45巷1弄1號","lng":121.460373,"lat":25.0137,"abc":"C","service":"巷弄長照站","zones":["65000010","65000030"],"phone":"(02)29685077分機29","owner":"汪秋蓉","start":"20210101","end":"20211231"},{"name":"財團法人中華民國佛教慈濟慈善事業基金會新北市私立慈濟蘆洲綜合長照機構-埔墘共修處(醫事C)","code":"1R0200020","type":"1","city":"65000","town":"65000010","addr":"新北市板橋區東丘里中山路二段60巷1弄22號1樓","lng":121.475044,"lat":25.015654,"abc":"C","service":"巷弄長照站","zones":["65000010","65000040","65000080","65000090","65000100","65000130","65000170"],"phone":"(02)2218-7770分機2224","owner":"釋證嚴","start":"20210101","end":"20211231"},{"name":"財團法人中華民國佛教慈濟慈善事業基金會新北市私立慈濟蘆洲綜合長照機構-舊永和聯絡處(醫事C)","code":"1R0200021","type":"1","city":"65000","town":"65000040","addr":"新北市永和區正興里4鄰永和路二段92巷1號4樓","lng":121.515457,"lat":25.011639,"abc":"C","service":"巷弄長照站","zones":["65000010","65000040","65000080","65000090","65000100","65000130","65000170"],"phone":"(02)2218-7770分機2224","owner":"釋證嚴","start":"20210101","end":"20211231"},{"name":"財團法人中華民國佛教慈濟慈善事業基金會新北市私立慈濟蘆洲綜合長照機構-新永和聯絡處(醫事C)","code":"1R0200022","type":"1","city":"65000","town":"65000040","addr":"新北市永和區中溪里中山路一段130號","lng":121.510384,"lat":25.010065,"abc":"C","service":"巷弄長照站","zones":["65000010","65000040","65000080","65000090","65000100","65000130","65000170"],"phone":"(02)2218-7770分機2224","owner":"釋證嚴","start":"20210101","end":"20211231"},{"name":"財團法人中華民國佛教慈濟慈善事業基金會新北市私立慈濟蘆洲綜合長照機構-林口靜思書軒(醫事C)","code":"1R0200023","type":"1","city":"65000","town":"65000170","addr":"新北市林口區西林里佳林路166號2樓","lng":121.383537,"lat":25.076656,"abc":"C","service":"巷弄長照站","zones":["65000010","65000040","65000080","65000090","65000100","65000130","65000170"],"phone":"(02)2218-7770分機2224","owner":"釋證嚴","start":"20210101","end":"20211231"},{"name":"財團法人中華民國佛教慈濟慈善事業基金會新北市私立慈濟蘆洲綜合長照機構-淡水共修處(醫事C)","code":"1R0200027","type":"1","city":"65000","town":"65000100","addr":"新北市淡水區埤島里2鄰中山北路三段102號","lng":121.444405,"lat":25.191002,"abc":"C","service":"巷弄長照站","zones":["65000010","65000040","65000080","65000090","65000100","65000130","65000170"],"phone":"02)2218-7770分機2224","owner":"釋證嚴","start":"20210101","end":"20211231"},{"name":"財團法人中華民國佛教慈濟慈善事業基金會新北市私立慈濟蘆洲綜合長照機構-三峽園區(醫事C)","code":"1R0200025","type":"1","city":"65000","town":"65000090","addr":"新北市三峽區介壽里介壽路一段498號","lng":121.385773,"lat":24.932167,"abc":"C","service":"巷弄長照站","zones":["65000010","65000040","65000080","65000090","65000100","65000130","65000170"],"phone":"(02)2218-7770分機2224","owner":"釋證嚴","start":"20210101","end":"20211231"},{"name":"財團法人中華民國佛教慈濟慈善事業基金會新北市私立慈濟蘆洲綜合長照機構-海山聯絡處(醫事C)","code":"1R0200026","type":"1","city":"65000","town":"65000130","addr":"新北市土城區大安里中央路三段42號5樓之1","lng":121.437294,"lat":24.967976,"abc":"C","service":"巷弄長照站","zones":["65000010","65000040","65000080","65000090","65000100","65000130","65000170"],"phone":"(02)2218-7770分機2224","owner":"釋證嚴","start":"20210101","end":"20211231"},{"name":"財團法人中華民國佛教慈濟慈善事業基金會新北市私立慈濟蘆洲綜合長照機構-鳳鳴共修處(醫事C)","code":"1R0200024","type":"1","city":"65000","town":"65000080","addr":"新北市鶯歌區鳳鳴里永和街184號1樓","lng":121.336311,"lat":24.970455,"abc":"C","service":"巷弄長照站","zones":["65000010","65000040","65000080","65000090","65000100","65000130","65000170"],"phone":"(02)2218-7770分機2224","owner":"釋證嚴","start":"20210101","end":"20211231"},{"name":"齡活股份有限公司附設新北市私立齡活居家長照機構","code":"1X0200044","type":"1","city":"65000","town":"65000010","addr":"新北市板橋區四川路一段97號11樓","lng":121.454208,"lat":25.020164,"abc":"C","service":"巷弄長照站","zones":["65000010"],"phone":"7751-8056","owner":"彭紹宇","start":"20210501","end":"20211231"},{"name":"新北市立聯合醫院-三重重陽據點(醫事C)","code":"B20200082","type":"B2","city":"65000","town":"65000020","addr":"新北市三重區重陽里明志街112、114號","lng":121.490425,"lat":25.063583,"abc":"C","service":"巷弄長照站","zones":["65000020"],"phone":"22575151轉3368","owner":"項正川","start":"20210101","end":"20211231"},{"name":"安加社會企業股份有限公司附設新北市私立安加居家長照機構-三重區信安里(醫事C)","code":"1V0200044","type":"1","city":"65000","town":"65000020","addr":"新北市三重區信安里6鄰正義北路364巷62號1樓","lng":121.51461,"lat":25.010981,"abc":"C","service":"巷弄長照站","zones":["65000020","65000060"],"phone":"0910-288-573","owner":"黃起富","start":"20210501","end":"20211231"},{"name":"安加社會企業股份有限公司附設新北市私立安加居家長照機構-三重區培德里(醫事C)","code":"1V0200045","type":"1","city":"65000","town":"65000020","addr":"新北市三重區培德里17鄰車頭路街4巷5號1樓","lng":121.486969,"lat":25.071611,"abc":"C","service":"巷弄長照站","zones":["65000020","65000060"],"phone":"0910-288-573","owner":"黃起富","start":"20210501","end":"20211231"},{"name":"安加社會企業股份有限公司附設新北市私立安加居家長照機構-新店區新和里(醫事C)","code":"1V0200046","type":"1","city":"65000","town":"65000060","addr":"新北市新店區新和里12鄰新和街120號1樓","lng":121.521263,"lat":24.986507,"abc":"C","service":"巷弄長照站","zones":["65000020","65000060"],"phone":"0910-288-573","owner":"黃起富","start":"20210501","end":"20211231"},{"name":"天賜藥局(醫事C)","code":"B30200032","type":"B3","city":"65000","town":"65000140","addr":"新北市蘆洲區正義里5鄰長興路292號1樓","lng":121.460449,"lat":25.089413,"abc":"C","service":"巷弄長照站","zones":["65000140"],"phone":"02-29856852","owner":"羅雅貞","start":"20210501","end":"20211231"},{"name":"衛生福利部八里療養院-中和區(醫事C)","code":"B20200238","type":"B2","city":"65000","town":"65000030","addr":"新北市中和區南山里南山路4巷3號4樓","lng":121.50248,"lat":24.997513,"abc":"C","service":"巷弄長照站","zones":["65000030"],"phone":"(02)2245-0386","owner":"張介信","start":"20210101","end":"20211231"},{"name":"家嘉藥局(醫事C)","code":"B30200033","type":"B3","city":"65000","town":"65000030","addr":"新北市中和區嘉新里6鄰員山路355號1樓","lng":121.481155,"lat":25.001923,"abc":"C","service":"巷弄長照站","zones":["65000030"],"phone":"(02)8228-1388","owner":"張均儀","start":"20210501","end":"20211231"},{"name":"湖水綠簡單生活有限公司附設新北市私立連城居家長照機構","code":"1R0200012","type":"1","city":"65000","town":"65000030","addr":"新北市中和區中正路689號2樓","lng":121.48494,"lat":24.998104,"abc":"C","service":"巷弄長照站","zones":["65000030"],"phone":"2308-1211","owner":"陳意春","start":"20210501","end":"20211231"},{"name":"金大心股份有限公司附設新北市私立金大心居家長照機構","code":"1V0200005","type":"1","city":"65000","town":"65000050","addr":"新北市新莊區西盛里新樹路515之36號1至4樓","lng":121.432831,"lat":25.010988,"abc":"C","service":"巷弄長照站","zones":["65000050"],"phone":"0988190973","owner":"吳秉珊","start":"20210501","end":"20211231"},{"name":"中英醫療社團法人附設居家護理所","code":"B10200010","type":"B1","city":"65000","town":"65000050","addr":"新北市新莊區恆安里中正路78巷13號","lng":121.458076,"lat":25.038263,"abc":"C","service":"巷弄長照站","zones":["65000050"],"phone":"02-29930313","owner":"吳霈綺","start":"20210101","end":"20211231"},{"name":"聯安診所(醫事C)","code":"B20200193","type":"B2","city":"65000","town":"65000050","addr":"新北市新莊區忠孝里建中街116巷3弄2號","lng":121.445694,"lat":25.036541,"abc":"C","service":"巷弄長照站","zones":["65000050"],"phone":"(02)2998-6191","owner":"施錦泉","start":"20210101","end":"20211231"},{"name":"衛生福利部臺北醫院附設新莊悅心社區長照機構(醫事C)","code":"2A0200002","type":"2","city":"65000","town":"65000050","addr":"新北市新莊區思賢里長青街6號1樓","lng":121.457642,"lat":25.042339,"abc":"C","service":"巷弄長照站","zones":["65000050"],"phone":"(02)2276-1136轉5200","owner":"鄭舜平","start":"20210101","end":"20211231"},{"name":"新北市私立愛迪樂居家長照機構-林口西林據點(醫事C)","code":"1X0200078","type":"1","city":"65000","town":"65000170","addr":"新北市林口區西林里文化一路一段190巷6之2號","lng":121.379761,"lat":25.074444,"abc":"C","service":"巷弄長照站","zones":["65000170"],"phone":"(02)2601-2377","owner":"莊政修","start":"20210101","end":"20211231"},{"name":"微笑長照整合服務股份有限公司附設新北市私立微笑居家長照機構-泰山新明據點(醫事C)","code":"1V0200047","type":"1","city":"65000","town":"65000160","addr":"新北市泰山區新明里民國街48號1樓","lng":121.425812,"lat":25.043703,"abc":"C","service":"巷弄長照站","zones":["65000160"],"phone":"29940060","owner":"趙軒","start":"20210501","end":"20211231"},{"name":"和鄰長照股份有限公司附設新北市私立和鄰居家長照機構-新店中正據點(醫事C)","code":"1V0200048","type":"1","city":"65000","town":"65000060","addr":"新北市新店區中正里華中街42號1樓","lng":121.353844,"lat":24.953234,"abc":"C","service":"巷弄長照站","zones":["65000060","65000070","65000080"],"phone":"7709-1222","owner":"邱青萸","start":"20210101","end":"20211231"},{"name":"和鄰長照股份有限公司附設新北市私立和鄰居家長照機構-鶯歌東鶯據點(醫事C)","code":"1X0200079","type":"1","city":"65000","town":"65000080","addr":"新北市鶯歌區東鶯里文化路235號1樓","lng":121.35659,"lat":24.954784,"abc":"C","service":"巷弄長照站","zones":["65000060","65000070","65000080"],"phone":"02-77091222","owner":"邱青萸","start":"20210101","end":"20211231"},{"name":"和鄰長照股份有限公司附設新北市私立和鄰居家長照機構-樹林樹西據點(醫事C)","code":"1X0200025","type":"1","city":"65000","town":"65000070","addr":"新北市樹林區樹西里啟智街72號1樓","lng":121.419983,"lat":24.992176,"abc":"C","service":"巷弄長照站","zones":["65000060","65000070","65000080"],"phone":"(02)26868495","owner":"邱青萸","start":"20210101","end":"20211231"},{"name":"財團法人伊甸社會服務基金會-鶯歌大湖公共托老中心(醫事C)","code":"BD0200042","type":"BD","city":"65000","town":"65000080","addr":"新北市鶯歌區中湖里大湖路338巷2號","lng":121.346245,"lat":24.971075,"abc":"C","service":"巷弄長照站","zones":["65000080"],"phone":"2677-6759","owner":"成亮","start":"20210401","end":"20211231"},{"name":"財團法人伊甸社會福利基金會(新北市三峽北大公共托老中心)(醫事C)","code":"BD0200046","type":"BD","city":"65000","town":"65000090","addr":"新北市三峽區龍學里學成路396號2樓之1","lng":121.377769,"lat":24.944197,"abc":"C","service":"巷弄長照站","zones":["65000090"],"phone":"(02)8671-3217","owner":"成亮","start":"20210401","end":"20211231"},{"name":"可馨居家護理所-樹林區(醫事C)","code":"B10200096","type":"B1","city":"65000","town":"65000070","addr":"新北市樹林區圳福里千歲街61巷12弄28號","lng":121.427902,"lat":25.199427,"abc":"C","service":"巷弄長照站","zones":["65000070"],"phone":"02-2239-8785、0930866217、0919471279","owner":"余儒","start":"20210101","end":"20211231"},{"name":"新北市私立佳耀居家長照機構-淡水新春據點(醫事C)","code":"1X0200093","type":"1","city":"65000","town":"65000100","addr":"新北市淡水區新春里010鄰中山北路一段275巷16號1樓","lng":121.443336,"lat":25.181454,"abc":"C","service":"巷弄長照站","zones":["65000100"],"phone":"(02)2625-7846","owner":"張瑜玲","start":"20210501","end":"20211231"},{"name":"力健復健科診所(醫事C)","code":"B20200078","type":"B2","city":"65000","town":"65000110","addr":"新北市汐止區智慧里大同路2段265號1樓","lng":121.653214,"lat":25.066196,"abc":"C","service":"巷弄長照站","zones":["65000110"],"phone":"(02)26470755","owner":"楊威","start":"20210101","end":"20211231"},{"name":"愛無限整合服務有限公司附設新北市私立愛無限居家長照機構(醫事C)","code":"1V0200049","type":"1","city":"65000","town":"65000060","addr":"新北市新店區國校里3鄰北宜路一段76號1樓","lng":121.538498,"lat":24.955759,"abc":"C","service":"巷弄長照站","zones":["65000060"],"phone":"(02)8911-6520","owner":"楊書竣","start":"20210501","end":"20211231"},{"name":"新北市私立立穎居家長照機構-烏來忠治據點(醫事C)","code":"1X0200095","type":"1","city":"65000","town":"65000290","addr":"新北市烏來區忠治里新烏路五段98號","lng":121.54718,"lat":24.86586,"abc":"C","service":"巷弄長照站","zones":["65000290"],"phone":"(02)8668-6651","owner":"周惠貞","start":"20210401","end":"20211231"},{"name":"新北市石碇區衛生所(醫事C)","code":"B20200239","type":"B2","city":"65000","town":"65000190","addr":"新北市石碇區中民里011鄰靜安路1段242號","lng":121.657608,"lat":24.991348,"abc":"C","service":"巷弄長照站","zones":["65000190"],"phone":"(02)26631325","owner":"姚智偉","start":"20210501","end":"20211231"},{"name":"新北市貢寮區衛生所(醫事C)","code":"B20200240","type":"B2","city":"65000","town":"65000260","addr":"新北市貢寮區和美里和美街35-2號","lng":121.912712,"lat":25.084078,"abc":"C","service":"巷弄長照站","zones":["65000260"],"phone":"02-24901431","owner":"林中一","start":"20210101","end":"20211231"},{"name":"新北市三芝區衛生所(醫事C)","code":"B20200241","type":"B2","city":"65000","town":"65000210","addr":"新北市三芝區埔坪里民生街31號3樓","lng":121.503563,"lat":25.256401,"abc":"C","service":"巷弄長照站","zones":["65000210"],"phone":"26364850-317","owner":"羅世偉","start":"20210101","end":"20211231"},{"name":"新北市萬里區衛生所-萬里據點(醫事C)","code":"B20200196","type":"B2","city":"65000","town":"65000280","addr":"新北市萬里區萬里里瑪鍊路157號2樓","lng":121.689713,"lat":25.178331,"abc":"C","service":"巷弄長照站","zones":["65000280"],"phone":"02-24921117","owner":"劉尚霖","start":"20210101","end":"20211231"},{"name":"新北市平溪區老人會(社照C)","code":"BF0200192","type":"BF","city":"65000","town":"65000240","addr":"新北市平溪區嶺腳里靜安路二段531號","lng":121.747437,"lat":25.028095,"abc":"C","service":"巷弄長照站","zones":["65000240"],"phone":"24952328","owner":"楊明仁","start":"20230101","end":"20231231"},