{
    "generated": "2026-06-01",
    "source": "supp7.csv",
    "plants": [
        {
            "name": "二坪淨水場",
            "source": "二坪湧泉",
            "level": "town",
            "areas": {
                "county": null,
                "towns": [
                    65000280
                ]
            },
            "lat": 25.179455,
            "lng": 121.65271
        },
        {
            "name": "中幅淨水場",
            "source": "瑪鋉溪",
            "level": "town",
            "areas": {
                "county": "新北市",
                "towns": [
                    65000280
                ]
            },
            "lat": 25.165123,
            "lng": 121.674544
        },
        {
            "name": "六堵淨水場",
            "source": "瑪陵坑溪",
            "level": "town",
            "areas": {
                "county": null,
                "towns": [
                    10017020
                ]
            },
            "lat": 25.09444,
            "lng": 121.70257
        },
        {
            "name": "白雲淨水場",
            "source": "康誥坑溪",
            "level": "unknown",
            "areas": {
                "county": null,
                "towns": []
            },
            "lat": 25.04891,
            "lng": 121.659342
        },
        {
            "name": "安樂淨水場",
            "source": "瑪鋉溪",
            "level": "town",
            "areas": {
                "county": "基隆市",
                "towns": [
                    10017050,
                    10017060
                ]
            },
            "lat": 25.1344,
            "lng": 121.73132
        },
        {
            "name": "員山淨水場",
            "source": "基隆河、蛇形溪",
            "level": "town",
            "areas": {
                "county": "新北市",
                "towns": [
                    65000120
                ]
            },
            "lat": 25.100477,
            "lng": 121.82202
        },
        {
            "name": "貢寮淨水場",
            "source": "雙溪",
            "level": "county",
            "areas": {
                "county": "新北市",
                "towns": [
                    10017010,
                    10017020,
                    10017030,
                    10017040,
                    10017050,
                    10017060,
                    10017070,
                    65000120,
                    65000260
                ]
            },
            "lat": 25.01096,
            "lng": 121.9202
        },
        {
            "name": "新山淨水場",
            "source": "基隆河、新山水庫、東勢溪、瑪鋉溪",
            "level": "county",
            "areas": {
                "county": "新北市",
                "towns": [
                    10017010,
                    10017020,
                    10017040,
                    10017050,
                    10017060,
                    10017070,
                    65000110
                ]
            },
            "lat": 25.13045,
            "lng": 121.72044
        },
        {
            "name": "暖暖淨水場",
            "source": "基隆河、西勢水庫、東勢溪",
            "level": "town",
            "areas": {
                "county": "新北市",
                "towns": [
                    10017010,
                    10017020,
                    10017030,
                    10017040,
                    10017050,
                    10017060,
                    10017070,
                    65000120
                ]
            },
            "lat": 25.09565,
            "lng": 121.73352
        },
        {
            "name": "萬里淨水場",
            "source": "萬里湧泉",
            "level": "unknown",
            "areas": {
                "county": null,
                "towns": []
            },
            "lat": 25.179882,
            "lng": 121.686753
        },
        {
            "name": "小格頭淨水場",
            "source": "烏塗溪",
            "level": "town",
            "areas": {
                "county": "新北市",
                "towns": [
                    65000190
                ]
            },
            "lat": 24.951981,
            "lng": 121.645674
        },
        {
            "name": "平溪淨水場",
            "source": "芊蓁林溪",
            "level": "town",
            "areas": {
                "county": "新北市",
                "towns": [
                    65000240
                ]
            },
            "lat": 25.014271,
            "lng": 121.751257
        },
        {
            "name": "石碇淨水場",
            "source": "烏塗溪",
            "level": "town",
            "areas": {
                "county": "新北市",
                "towns": [
                    65000180,
                    65000190
                ]
            },
            "lat": 25.007253,
            "lng": 121.653712
        },
        {
            "name": "坪林淨水場",
            "source": "北勢溪",
            "level": "town",
            "areas": {
                "county": "新北市",
                "towns": [
                    65000200,
                    65000180,
                    65000190
                ]
            },
            "lat": 24.939093,
            "lng": 121.713246
        },
        {
            "name": "北投子淨水場",
            "source": "北投子湧泉",
            "level": "town",
            "areas": {
                "county": "新北市",
                "towns": [
                    65000100
                ]
            },
            "lat": 25.175018,
            "lng": 121.46478
        },
        {
            "name": "老梅淨水場",
            "source": "老梅溪、四合興圳",
            "level": "town",
            "areas": {
                "county": "新北市",
                "towns": [
                    65000210,
                    65000220
                ]
            },
            "lat": 25.261702,
            "lng": 121.55236
        },
        {
            "name": "湧泉淨水場",
            "source": "雙峻頭湧泉",
            "level": "town",
            "areas": {
                "county": "新北市",
                "towns": [
                    65000100
                ]
            },
            "lat": 25.1764,
            "lng": 121.4657
        },
        {
            "name": "樹興淨水場",
            "source": "公司田溪",
            "level": "town",
            "areas": {
                "county": "新北市",
                "towns": [
                    65000210,
                    65000220
                ]
            },
            "lat": 25.173202,
            "lng": 121.488404
        },
        {
            "name": "興華淨水場",
            "source": "公司田溪",
            "level": "town",
            "areas": {
                "county": "新北市",
                "towns": [
                    65000210,
                    65000220
                ]
            },
            "lat": 25.193827,
            "lng": 121.509245
        },
        {
            "name": "林莊淨水場",
            "source": "頂中股圳、磺溪",
            "level": "unknown",
            "areas": {
                "county": null,
                "towns": []
            },
            "lat": 25.209026,
            "lng": 121.597457
        },
        {
            "name": "烏來淨水場",
            "source": "桶後溪",
            "level": "town",
            "areas": {
                "county": "新北市",
                "towns": [
                    65000290
                ]
            },
            "lat": 24.864943,
            "lng": 121.552708
        },
        {
            "name": "大湳淨水場",
            "source": "石門水庫",
            "level": "town",
            "areas": {
                "county": "桃園市",
                "towns": [
                    65000170,
                    68000010,
                    68000050,
                    68000060,
                    68000070,
                    68000080
                ]
            },
            "lat": 24.9724,
            "lng": 121.2863
        },
        {
            "name": "大溪淨水場",
            "source": "龍眼溪",
            "level": "town",
            "areas": {
                "county": null,
                "towns": [
                    68000030
                ]
            },
            "lat": 24.826389,
            "lng": 121.354889
        },
        {
            "name": "平鎮淨水場",
            "source": "石門水庫",
            "level": "town",
            "areas": {
                "county": "新竹縣",
                "towns": [
                    10004050,
                    10004060,
                    68000010,
                    68000020,
                    68000040,
                    68000060,
                    68000080,
                    68000100,
                    68000120
                ]
            },
            "lat": 24.9008,
            "lng": 121.193682
        },
        {
            "name": "石門淨水場",
            "source": "石門水庫",
            "level": "town",
            "areas": {
                "county": "新竹縣",
                "towns": [
                    10004050,
                    68000020,
                    68000040,
                    68000100,
                    68000110
                ]
            },
            "lat": 24.92781,
            "lng": 121.192137
        },
        {
            "name": "龍潭淨水場",
            "source": "石門水庫",
            "level": "town",
            "areas": {
                "county": "桃園市",
                "towns": [
                    68000030,
                    68000080,
                    68000090,
                    68000100,
                    68000130
                ]
            },
            "lat": 24.92781,
            "lng": 121.238158
        },
        {
            "name": "復興淨水場",
            "source": "詩郎溪",
            "level": "town",
            "areas": {
                "county": null,
                "towns": [
                    68000130
                ]
            },
            "lat": 24.826389,
            "lng": 121.354889
        },
        {
            "name": "第一淨水場",
            "source": "頭前溪(隆恩堰）",
            "level": "town",
            "areas": {
                "county": "新竹市",
                "towns": [
                    10018010,
                    10018020,
                    10018030
                ]
            },
            "lat": 24.797,
            "lng": 120.98785
        },
        {
            "name": "第二淨水場",
            "source": "頭前溪(隆恩堰）",
            "level": "town",
            "areas": {
                "county": "新竹縣",
                "towns": [
                    10004010,
                    10004020,
                    10004050,
                    10004100,
                    10018010,
                    10018020,
                    10018030
                ]
            },
            "lat": 24.80351,
            "lng": 121.00123
        },
        {
            "name": "湳雅淨水場",
            "source": "頭前溪",
            "level": "town",
            "areas": {
                "county": "新竹市",
                "towns": [
                    10018010,
                    10018020,
                    10018030
                ]
            },
            "lat": 24.82433,
            "lng": 120.97693
        },
        {
            "name": "寶山淨水場",
            "source": "寶山水庫、寶二水庫",
            "level": "county",
            "areas": {
                "county": "新竹縣",
                "towns": [
                    10004020,
                    10018010,
                    10018020,
                    10018030
                ]
            },
            "lat": 24.753712,
            "lng": 121.036975
        },
        {
            "name": "員崠淨水場",
            "source": "上坪溪、竹東圳、油羅溪",
            "level": "town",
            "areas": {
                "county": null,
                "towns": [
                    10004020
                ]
            },
            "lat": 24.71465,
            "lng": 121.099688
        },
        {
            "name": "尖石淨水場",
            "source": "地面水(山澗水流入油羅溪)",
            "level": "town",
            "areas": {
                "county": null,
                "towns": [
                    10004120
                ]
            },
            "lat": 24.744366,
            "lng": 121.264096
        },
        {
            "name": "梅花淨水場",
            "source": "地面水(山澗水流入油羅溪)",
            "level": "town",
            "areas": {
                "county": null,
                "towns": [
                    10004120
                ]
            },
            "lat": 24.670386,
            "lng": 121.200052
        },
        {
            "name": "北埔淨水場",
            "source": "大坪溪",
            "level": "town",
            "areas": {
                "county": null,
                "towns": [
                    10004090
                ]
            },
            "lat": 24.671959,
            "lng": 121.06971
        },
        {
            "name": "桃山淨水場",
            "source": "白蘭溪",
            "level": "town",
            "areas": {
                "county": null,
                "towns": [
                    10004130,
                    10004020
                ]
            },
            "lat": 24.602359,
            "lng": 121.106589
        },
        {
            "name": "內灣淨水場",
            "source": "油羅溪",
            "level": "town",
            "areas": {
                "county": null,
                "towns": [
                    10004080
                ]
            },
            "lat": 24.706126,
            "lng": 121.184095
        },
        {
            "name": "新埔淨水場",
            "source": "鳳山溪",
            "level": "town",
            "areas": {
                "county": null,
                "towns": [
                    10004030,
                    10004040
                ]
            },
            "lat": 24.8303,
            "lng": 121.08379
        },
        {
            "name": "明德淨水場",
            "source": "明德水庫",
            "level": "town",
            "areas": {
                "county": null,
                "towns": [
                    10005010,
                    10005120,
                    10005150,
                    10005060
                ]
            },
            "lat": 24.587008,
            "lng": 120.884115
        },
        {
            "name": "後龍溪伏流水取水站",
            "source": "地面水體",
            "level": "town",
            "areas": {
                "county": null,
                "towns": [
                    10005060
                ]
            },
            "lat": 24.581011,
            "lng": 120.846301
        },
        {
            "name": "苗三淨水場",
            "source": "苗三淺井",
            "level": "town",
            "areas": {
                "county": null,
                "towns": [
                    10005010
                ]
            },
            "lat": 24.550211,
            "lng": 120.818159
        },
        {
            "name": "苗四淨水場",
            "source": "苗四淺井",
            "level": "town",
            "areas": {
                "county": null,
                "towns": [
                    10005010
                ]
            },
            "lat": 24.576322,
            "lng": 120.84
        },
        {
            "name": "大湖淨水場",
            "source": "寬口井4口",
            "level": "town",
            "areas": {
                "county": null,
                "towns": [
                    10005080
                ]
            },
            "lat": 24.427649,
            "lng": 120.875566
        },
        {
            "name": "大湖第二淨水場",
            "source": "寬口井1口",
            "level": "town",
            "areas": {
                "county": null,
                "towns": [
                    10005080,
                    10005180
                ]
            },
            "lat": 24.427649,
            "lng": 120.865132
        },
        {
            "name": "東興淨水場",
            "source": "永和山水庫",
            "level": "town",
            "areas": {
                "county": null,
                "towns": [
                    10005040,
                    10005150,
                    10005060
                ]
            },
            "lat": 24.67021,
            "lng": 120.920915
        },
        {
            "name": "三義淨水場",
            "source": "三義淨水場2口深井",
            "level": "town",
            "areas": {
                "county": null,
                "towns": [
                    10005130
                ]
            },
            "lat": 24.4,
            "lng": 120.8
        },
        {
            "name": "中興淨水場",
            "source": "中興寬口井",
            "level": "town",
            "areas": {
                "county": null,
                "towns": [
                    10005100
                ]
            },
            "lat": 24.49598,
            "lng": 120.798242
        },
        {
            "name": "水美淨水場",
            "source": "三義水美深井",
            "level": "town",
            "areas": {
                "county": null,
                "towns": [
                    10005130
                ]
            },
            "lat": 24.4003,
            "lng": 120.7624
        },
        {
            "name": "草寮淨水場",
            "source": "三義草寮深井",
            "level": "town",
            "areas": {
                "county": null,
                "towns": [
                    10005100,
                    10005140
                ]
            },
            "lat": 24.426231,
            "lng": 120.775085
        },
        {
            "name": "裕隆淨水場",
            "source": "三義裕隆2口深井",
            "level": "town",
            "areas": {
                "county": null,
                "towns": [
                    10005130
                ]
            },
            "lat": 24.3785,
            "lng": 120.7489
        },
        {
            "name": "南庄淨水場",
            "source": "南江河",
            "level": "town",
            "areas": {
                "county": null,
                "towns": [
                    10005110,
                    10005160
                ]
            },
            "lat": 24.59789,
            "lng": 121.000843
        },
        {
            "name": "芎林淨水場",
            "source": "頭前溪(竹林橋)",
            "level": "town",
            "areas": {
                "county": null,
                "towns": [
                    10004020,
                    10004070
                ]
            },
            "lat": 24.74996,
            "lng": 121.10126
        },
        {
            "name": "關西淨水場",
            "source": "鳳山溪",
            "level": "town",
            "areas": {
                "county": null,
                "towns": [
                    10004040
                ]
            },
            "lat": 24.78314,
            "lng": 121.1757
        },
        {
            "name": "823九路井",
            "source": "823九路井",
            "level": "town",
            "areas": {
                "county": "臺中市",
                "towns": [
                    66000080
                ]
            },
            "lat": 24.18692,
            "lng": 120.689493
        },
        {
            "name": "823十路井",
            "source": "823十路井",
            "level": "town",
            "areas": {
                "county": "臺中市",
                "towns": [
                    66000080
                ]
            },
            "lat": 24.188144,
            "lng": 120.689569
        },
        {
            "name": "八張犁2-1號井",
            "source": "八張犁2-1號井",
            "level": "town",
            "areas": {
                "county": "臺中市",
                "towns": [
                    66000060
                ]
            },
            "lat": 24.198684,
            "lng": 120.646162
        },
        {
            "name": "八張犁2號井",
            "source": "八張犁2號井",
            "level": "town",
            "areas": {
                "county": "臺中市",
                "towns": [
                    66000060
                ]
            },
            "lat": 24.198757,
            "lng": 120.646063
        },
        {
            "name": "八張犁3號井(新)",
            "source": "八張犁3號井(新)",
            "level": "town",
            "areas": {
                "county": "臺中市",
                "towns": [
                    66000060
                ]
            },
            "lat": 24.199477,
            "lng": 120.643115
        },
        {
            "name": "八張犁6-1號井",
            "source": "八張犁6-1號井",
            "level": "town",
            "areas": {
                "county": "臺中市",
                "towns": [
                    66000060
                ]
            },
            "lat": 24.196598,
            "lng": 120.641785
        },
        {
            "name": "八張犁7號井",
            "source": "八張犁7號井",
            "level": "town",
            "areas": {
                "county": "臺中市",
                "towns": [
                    66000060
                ]
            },
            "lat": 24.196954,
            "lng": 120.648131
        },
        {
            "name": "八張犁8號井",
            "source": "八張犁8號井",
            "level": "town",
            "areas": {
                "county": "臺中市",
                "towns": [
                    66000060
                ]
            },
            "lat": 24.196911,
            "lng": 120.64223
        },
        {
            "name": "三信河南井",
            "source": "三信河南井",
            "level": "town",
            "areas": {
                "county": "臺中市",
                "towns": [
                    66000060
                ]
            },
            "lat": 24.167399,
            "lng": 120.663228
        },
        {
            "name": "三信漢口井",
            "source": "三信漢口井",
            "level": "town",
            "areas": {
                "county": "臺中市",
                "towns": [
                    66000060
                ]
            },
            "lat": 24.16599,
            "lng": 120.663129
        },
        {
            "name": "上楓淨水場",
            "source": "上楓3號井",
            "level": "unknown",
            "areas": {
                "county": null,
                "towns": []
            },
            "lat": 24.238289,
            "lng": 120.672188
        },
        {
            "name": "大里2號井",
            "source": "大里2號井",
            "level": "town",
            "areas": {
                "county": "臺中市",
                "towns": [
                    66000280
                ]
            },
            "lat": 24.094393,
            "lng": 120.729122
        },
        {
            "name": "大里運動公園井",
            "source": "大里運動公園井",
            "level": "town",
            "areas": {
                "county": "臺中市",
                "towns": [
                    66000280
                ]
            },
            "lat": 24.099142,
            "lng": 120.683303
        },
        {
            "name": "大湳2號井",
            "source": "豐原區三豐路二段地下水源",
            "level": "town",
            "areas": {
                "county": "臺中市",
                "towns": [
                    66000090
                ]
            },
            "lat": 24.275941,
            "lng": 120.72242
        },
        {
            "name": "大湳3號井",
            "source": "豐原區三豐路二段地下水源",
            "level": "town",
            "areas": {
                "county": "臺中市",
                "towns": [
                    66000090
                ]
            },
            "lat": 24.272538,
            "lng": 120.72191
        },
        {
            "name": "工業10號井",
            "source": "工業10號井",
            "level": "town",
            "areas": {
                "county": "臺中市",
                "towns": [
                    66000060
                ]
            },
            "lat": 24.155575,
            "lng": 120.638539
        },
        {
            "name": "工業6號井",
            "source": "工業6號井",
            "level": "town",
            "areas": {
                "county": "臺中市",
                "towns": [
                    66000060
                ]
            },
            "lat": 24.165936,
            "lng": 120.627056
        },
        {
            "name": "工學北路井",
            "source": "工學北路井",
            "level": "town",
            "areas": {
                "county": "臺中市",
                "towns": [
                    66000030
                ]
            },
            "lat": 24.119022,
            "lng": 120.661072
        },
        {
            "name": "仁里淨水場",
            "source": "泰安2號井",
            "level": "unknown",
            "areas": {
                "county": null,
                "towns": []
            },
            "lat": 24.31885,
            "lng": 120.74168
        },
        {
            "name": "公正井",
            "source": "公正井",
            "level": "town",
            "areas": {
                "county": "臺中市",
                "towns": [
                    66000040
                ]
            },
            "lat": 24.148757,
            "lng": 120.665125
        },
        {
            "name": "公益井",
            "source": "公益井",
            "level": "town",
            "areas": {
                "county": "臺中市",
                "towns": [
                    66000040
                ]
            },
            "lat": 24.150078,
            "lng": 120.657485
        },
        {
            "name": "公館淨水場",
            "source": "公館1號井、公館2號井、忠義2號井、仁愛1號井",
            "level": "town",
            "areas": {
                "county": null,
                "towns": [
                    66000130
                ]
            },
            "lat": 24.240197,
            "lng": 120.631417
        },
        {
            "name": "日新公園井",
            "source": "日新公園井",
            "level": "town",
            "areas": {
                "county": "臺中市",
                "towns": [
                    66000280
                ]
            },
            "lat": 24.118569,
            "lng": 120.692428
        },
        {
            "name": "水規所井",
            "source": "水規所井",
            "level": "town",
            "areas": {
                "county": "臺中市",
                "towns": [
                    66000260
                ]
            },
            "lat": 24.077089,
            "lng": 120.700554
        },
        {
            "name": "甲南淨水場",
            "source": "地下水",
            "level": "town",
            "areas": {
                "county": null,
                "towns": [
                    66000120
                ]
            },
            "lat": 24.304767,
            "lng": 120.596383
        },
        {
            "name": "光興1號井",
            "source": "光興1號井",
            "level": "town",
            "areas": {
                "county": "臺中市",
                "towns": [
                    66000270
                ]
            },
            "lat": 24.094546,
            "lng": 120.729021
        },
        {
            "name": "光興2號井",
            "source": "光興2號井",
            "level": "unknown",
            "areas": {
                "county": null,
                "towns": []
            },
            "lat": 24.094546,
            "lng": 120.729021
        },
        {
            "name": "竹林1號井淨水場",
            "source": "竹林1號井",
            "level": "town",
            "areas": {
                "county": null,
                "towns": [
                    66000130
                ]
            },
            "lat": 24.243303,
            "lng": 120.571109
        },
        {
            "name": "西寧淨水場",
            "source": "地下水",
            "level": "town",
            "areas": {
                "county": null,
                "towns": [
                    66000120
                ]
            },
            "lat": 24.277497,
            "lng": 120.574819
        },
        {
            "name": "沙鹿11號井淨水場",
            "source": "沙鹿11號井",
            "level": "town",
            "areas": {
                "county": null,
                "towns": [
                    66000130
                ]
            },
            "lat": 24.211788,
            "lng": 120.583153
        },
        {
            "name": "沙鹿12號井淨水場",
            "source": "沙鹿12號井",
            "level": "unknown",
            "areas": {
                "county": null,
                "towns": []
            },
            "lat": 24.232791,
            "lng": 120.58051
        },
        {
            "name": "沙鹿15號井淨水場",
            "source": "沙鹿15號井",
            "level": "unknown",
            "areas": {
                "county": null,
                "towns": []
            },
            "lat": 24.235063,
            "lng": 120.581623
        },
        {
            "name": "沙鹿3號更新井淨水場",
            "source": "沙鹿3號更新井",
            "level": "unknown",
            "areas": {
                "county": null,
                "towns": []
            },
            "lat": 24.232735,
            "lng": 120.581682
        },
        {
            "name": "沙鹿4號更新井淨水場",
            "source": "沙鹿4號更新井",
            "level": "unknown",
            "areas": {
                "county": null,
                "towns": []
            },
            "lat": 24.235175,
            "lng": 120.579865
        },
        {
            "name": "沙鹿5號更新井淨水場",
            "source": "沙鹿5號更新井",
            "level": "unknown",
            "areas": {
                "county": null,
                "towns": []
            },
            "lat": 24.223975,
            "lng": 120.58692
        },
        {
            "name": "沙鹿淨水場",
            "source": "沙鹿2.3.6.8.10.13井",
            "level": "town",
            "areas": {
                "county": null,
                "towns": [
                    66000130
                ]
            },
            "lat": 24.229515,
            "lng": 120.568915
        },
        {
            "name": "坪林1井",
            "source": "坪林1井",
            "level": "unknown",
            "areas": {
                "county": null,
                "towns": []
            },
            "lat": 24.148643,
            "lng": 120.728908
        },
        {
            "name": "坪林2井",
            "source": "坪林2井",
            "level": "unknown",
            "areas": {
                "county": null,
                "towns": []
            },
            "lat": 24.147972,
            "lng": 120.72835
        },
        {
            "name": "坪林3井",
            "source": "坪林3井",
            "level": "unknown",
            "areas": {
                "county": null,
                "towns": []
            },
            "lat": 24.147737,
            "lng": 120.730483
        },
        {
            "name": "坪林4井",
            "source": "坪林4井",
            "level": "unknown",
            "areas": {
                "county": null,
                "towns": []
            },
            "lat": 24.14879,
            "lng": 120.732151
        },
        {
            "name": "忠義淨水場",
            "source": "忠義１號深井",
            "level": "town",
            "areas": {
                "county": null,
                "towns": [
                    66000180
                ]
            },
            "lat": 24.235702,
            "lng": 120.624717
        },
        {
            "name": "明秀淨水場",
            "source": "明秀1.2井",
            "level": "town",
            "areas": {
                "county": null,
                "towns": [
                    66000130
                ]
            },
            "lat": 24.221145,
            "lng": 120.578846
        },
        {
            "name": "東光1號井",
            "source": "東光1號井",
            "level": "unknown",
            "areas": {
                "county": null,
                "towns": []
            },
            "lat": 24.169364,
            "lng": 120.700709
        },
        {
            "name": "東光3號井",
            "source": "東光3號井",
            "level": "unknown",
            "areas": {
                "county": null,
                "towns": []
            },
            "lat": 24.165381,
            "lng": 120.700332
        },
        {
            "name": "東光5號井",
            "source": "東光5號井",
            "level": "unknown",
            "areas": {
                "county": null,
                "towns": []
            },
            "lat": 24.161211,
            "lng": 120.699636
        },
        {
            "name": "東峰14號井",
            "source": "東峰14號井",
            "level": "unknown",
            "areas": {
                "county": null,
                "towns": []
            },
            "lat": 24.124462,
            "lng": 120.684934
        },
        {
            "name": "東峰15號井",
            "source": "東峰15號井",
            "level": "unknown",
            "areas": {
                "county": null,
                "towns": []
            },
            "lat": 24.124911,
            "lng": 120.687761
        },
        {
            "name": "東興井",
            "source": "東興井",
            "level": "unknown",
            "areas": {
                "county": null,
                "towns": []
            },
            "lat": 24.154553,
            "lng": 120.653323
        },
        {
            "name": "長春井",
            "source": "長春井",
            "level": "unknown",
            "areas": {
                "county": null,
                "towns": []
            },
            "lat": 24.130713,
            "lng": 120.679845
        },
        {
            "name": "青海井",
            "source": "青海井",
            "level": "unknown",
            "areas": {
                "county": null,
                "towns": []
            },
            "lat": 24.175848,
            "lng": 120.63753
        },
        {
            "name": "南和忠明井",
            "source": "南和忠明井",
            "level": "unknown",
            "areas": {
                "county": null,
                "towns": []
            },
            "lat": 24.118674,
            "lng": 120.668314
        },
        {
            "name": "南和高工井",
            "source": "南和高工井",
            "level": "unknown",
            "areas": {
                "county": null,
                "towns": []
            },
            "lat": 24.115281,
            "lng": 120.668281
        },
        {
            "name": "美術英才井",
            "source": "美術英才井",
            "level": "unknown",
            "areas": {
                "county": null,
                "towns": []
            },
            "lat": 24.142606,
            "lng": 120.665247
        },
        {
            "name": "英才井(新)",
            "source": "英才井(新)",
            "level": "unknown",
            "areas": {
                "county": null,
                "towns": []
            },
            "lat": 24.155504,
            "lng": 120.671794
        },
        {
            "name": "烏日淨水場",
            "source": "地下水",
            "level": "town",
            "areas": {
                "county": null,
                "towns": [
                    66000230
                ]
            },
            "lat": 24.103673,
            "lng": 120.627408
        },
        {
            "name": "神岡淨水場",
            "source": "神岡2號井、神岡3號井、神岡5號井",
            "level": "town",
            "areas": {
                "county": null,
                "towns": [
                    66000120,
                    66000160
                ]
            },
            "lat": 24.263359,
            "lng": 120.658249
        },
        {
            "name": "訓練所井",
            "source": "訓練所井",
            "level": "unknown",
            "areas": {
                "county": null,
                "towns": []
            },
            "lat": 24.153098,
            "lng": 120.634075
        },
        {
            "name": "清水淨水場",
            "source": "地下水",
            "level": "town",
            "areas": {
                "county": null,
                "towns": [
                    66000120
                ]
            },
            "lat": 24.267739,
            "lng": 120.579361
        },
        {
            "name": "清泉淨水場",
            "source": "地下水",
            "level": "town",
            "areas": {
                "county": null,
                "towns": [
                    66000120
                ]
            },
            "lat": 24.306739,
            "lng": 120.591067
        },
        {
            "name": "許厝淨水場",
            "source": "許厝1號井",
            "level": "town",
            "areas": {
                "county": null,
                "towns": [
                    66000120
                ]
            },
            "lat": 24.280029,
            "lng": 120.608384
        },
        {
            "name": "博愛井",
            "source": "博愛井",
            "level": "unknown",
            "areas": {
                "county": null,
                "towns": []
            },
            "lat": 24.165577,
            "lng": 120.732743
        },
        {
            "name": "喀哩淨水場",
            "source": "地下水",
            "level": "unknown",
            "areas": {
                "county": null,
                "towns": []
            },
            "lat": 24.059167,
            "lng": 120.651521
        },
        {
            "name": "港尾1號井",
            "source": "港尾1號井",
            "level": "unknown",
            "areas": {
                "county": null,
                "towns": []
            },
            "lat": 24.202572,
            "lng": 120.661516
        },
        {
            "name": "港尾2號井",
            "source": "港尾2號井",
            "level": "unknown",
            "areas": {
                "county": null,
                "towns": []
            },
            "lat": 24.202387,
            "lng": 120.660697
        },
        {
            "name": "港尾3號井",
            "source": "港尾3號井",
            "level": "unknown",
            "areas": {
                "county": null,
                "towns": []
            },
            "lat": 24.204639,
            "lng": 120.662381
        },
        {
            "name": "溪南井",
            "source": "溪南井",
            "level": "unknown",
            "areas": {
                "county": null,
                "towns": []
            },
            "lat": 24.159249,
            "lng": 120.738422
        },
        {
            "name": "萬福井",
            "source": "萬福井",
            "level": "unknown",
            "areas": {
                "county": null,
                "towns": []
            },
            "lat": 24.155954,
            "lng": 120.738622
        },
        {
            "name": "寧夏漢口井",
            "source": "寧夏漢口井",
            "level": "unknown",
            "areas": {
                "county": null,
                "towns": []
            },
            "lat": 24.165573,
            "lng": 120.662161
        },
        {
            "name": "福平井",
            "source": "福平井",
            "level": "unknown",
            "areas": {
                "county": null,
                "towns": []
            },
            "lat": 24.12615,
            "lng": 120.724842
        },
        {
            "name": "福星2號井",
            "source": "福星2號井",
            "level": "unknown",
            "areas": {
                "county": null,
                "towns": []
            },
            "lat": 24.172328,
            "lng": 120.648258
        },
        {
            "name": "福星3號井(新)",
            "source": "福星3號井(新)",
            "level": "unknown",
            "areas": {
                "county": null,
                "towns": []
            },
            "lat": 24.171861,
            "lng": 120.649505
        },
        {
            "name": "管線隊井",
            "source": "管線隊井",
            "level": "unknown",
            "areas": {
                "county": null,
                "towns": []
            },
            "lat": 24.146892,
            "lng": 120.687684
        },
        {
            "name": "遠太淨水場",
            "source": "埔子1井",
            "level": "town",
            "areas": {
                "county": null,
                "towns": [
                    66000130
                ]
            },
            "lat": 24.206149,
            "lng": 120.576343
        },
        {
            "name": "樂成一心井",
            "source": "樂成一心井",
            "level": "unknown",
            "areas": {
                "county": null,
                "towns": []
            },
            "lat": 24.136432,
            "lng": 120.702312
        },
        {
            "name": "樂成長福井",
            "source": "樂成長福井",
            "level": "unknown",
            "areas": {
                "county": null,
                "towns": []
            },
            "lat": 24.136489,
            "lng": 120.704087
        },
        {
            "name": "黎明井",
            "source": "黎明井",
            "level": "unknown",
            "areas": {
                "county": null,
                "towns": []
            },
            "lat": 24.153817,
            "lng": 120.625305
        },
        {
            "name": "龍井山頂區淨水場",
            "source": "台中系統",
            "level": "town",
            "areas": {
                "county": null,
                "towns": [
                    66000130
                ]
            },
            "lat": 24.19126,
            "lng": 120.561708
        },
        {
            "name": "嶺東井",
            "source": "嶺東井",
            "level": "unknown",
            "areas": {
                "county": null,
                "towns": []
            },
            "lat": 24.145736,
            "lng": 120.630983
        },
        {
            "name": "舊社淨水場",
            "source": "舊社4號井、后里4號公園井",
            "level": "town",
            "areas": {
                "county": null,
                "towns": [
                    66000150
                ]
            },
            "lat": 24.29828,
            "lng": 120.70932
        },
        {
            "name": "豐原第一淨水場",
            "source": "豐原區豐勢路地下水源",
            "level": "town",
            "areas": {
                "county": null,
                "towns": [
                    66000090,
                    66000170
                ]
            },
            "lat": 24.274555,
            "lng": 120.759101
        },
        {
            "name": "豐原第二淨水場",
            "source": "石岡區明德路地下水源",
            "level": "town",
            "areas": {
                "county": null,
                "towns": [
                    66000090,
                    66000170
                ]
            },
            "lat": 24.274837,
            "lng": 120.762731
        },
        {
            "name": "鯉魚潭淨水場",
            "source": "鯉魚潭水庫",
            "level": "unknown",
            "areas": {
                "county": null,
                "towns": []
            },
            "lat": 24.32214,
            "lng": 120.72755
        },
        {
            "name": "麗園1號井",
            "source": "麗園1號井",
            "level": "unknown",
            "areas": {
                "county": null,
                "towns": []
            },
            "lat": 24.158454,
            "lng": 120.733524
        },
        {
            "name": "麗園2號井",
            "source": "麗園2號井",
            "level": "unknown",
            "areas": {
                "county": null,
                "towns": []
            },
            "lat": 24.159291,
            "lng": 120.733358
        },
        {
            "name": "?子1號井",
            "source": "?子1號井",
            "level": "unknown",
            "areas": {
                "county": null,
                "towns": []
            },
            "lat": 24.168699,
            "lng": 120.732172
        },
        {
            "name": "?子2號井",
            "source": "?子2號井",
            "level": "unknown",
            "areas": {
                "county": null,
                "towns": []
            },
            "lat": 24.166954,
            "lng": 120.731104
        },
        {
            "name": "?興井",
            "source": "?興井",
            "level": "unknown",
            "areas": {
                "county": null,
                "towns": []
            },
            "lat": 24.160172,
            "lng": 120.721175
        },
        {
            "name": "新社淨水場",
            "source": "地下水：馬力埔寬口井。",
            "level": "town",
            "areas": {
                "county": null,
                "towns": [
                    66000190,
                    66000200
                ]
            },
            "lat": 24.218564,
            "lng": 120.807022
        },
        {
            "name": "谷關淨水場",
            "source": "地下水：橫流溪湧泉(八仙山山泉水)。",
            "level": "town",
            "areas": {
                "county": null,
                "towns": [
                    66000290
                ]
            },
            "lat": 24.205781,
            "lng": 121.009279
        },
        {
            "name": "吉峰1號井淨水場",
            "source": "吉峰1號井",
            "level": "town",
            "areas": {
                "county": null,
                "towns": [
                    66000260
                ]
            },
            "lat": 24.07599,
            "lng": 120.71592
        },
        {
            "name": "坑口淨水場",
            "source": "坑口1、3、5、6、7號井",
            "level": "unknown",
            "areas": {
                "county": null,
                "towns": []
            },
            "lat": 24.04604,
            "lng": 120.69279
        },
        {
            "name": "舊正1號井淨水場",
            "source": "舊正1號井",
            "level": "unknown",
            "areas": {
                "county": null,
                "towns": []
            },
            "lat": 24.01523,
            "lng": 120.68811
        },
        {
            "name": "舊正2號井淨水場",
            "source": "舊正2號井",
            "level": "unknown",
            "areas": {
                "county": null,
                "towns": []
            },
            "lat": 24.01487,
            "lng": 120.69136
        },
        {
            "name": "舊正3號井淨水場",
            "source": "舊正3號井",
            "level": "unknown",
            "areas": {
                "county": null,
                "towns": []
            },
            "lat": 24.01719,
            "lng": 120.6957
        },
        {
            "name": "霧峰淨水場",
            "source": "霧峰1號井、霧峰2號井",
            "level": "unknown",
            "areas": {
                "county": null,
                "towns": []
            },
            "lat": 24.06775,
            "lng": 120.70044
        },
        {
            "name": "東勢淨水場",
            "source": "地下水：東勢1、2號寬口井。",
            "level": "town",
            "areas": {
                "county": null,
                "towns": [
                    66000200
                ]
            },
            "lat": 24.257225,
            "lng": 120.825706
        },
        {
            "name": "慶東淨水場",
            "source": "地面水：後池堰取水塔站。\n地下水：後池堰2及3號深井、慶東2及3號寬口井。",
            "level": "town",
            "areas": {
                "county": null,
                "towns": [
                    66000100
                ]
            },
            "lat": 24.2027,
            "lng": 120.8387
        },
        {
            "name": "卓蘭淨水場",
            "source": "地下水：卓蘭1~5號深井、內灣1~2號深井。",
            "level": "town",
            "areas": {
                "county": "苗栗縣",
                "towns": [
                    10005070,
                    10005130,
                    66000100
                ]
            },
            "lat": 24.3048,
            "lng": 120.8304
        },
        {
            "name": "梨山淨水場",
            "source": "地面水：合歡溪。",
            "level": "town",
            "areas": {
                "county": null,
                "towns": [
                    66000290
                ]
            },
            "lat": 24.2583,
            "lng": 121.2622
        },
        {
            "name": "埔里第一淨水場",
            "source": "一淨1號井、一淨4號井、一淨5號井、一淨6號井",
            "level": "town",
            "areas": {
                "county": null,
                "towns": []
            },
            "lat": 23.937222,
            "lng": 120.97
        },
        {
            "name": "埔里第二淨水場",
            "source": "二淨寬口井",
            "level": "town",
            "areas": {
                "county": null,
                "towns": []
            },
            "lat": 23.9691,
            "lng": 120.95
        },
        {
            "name": "埔里第三淨水場",
            "source": "三淨深井、三淨淺井",
            "level": "town",
            "areas": {
                "county": null,
                "towns": []
            },
            "lat": 23.9698,
            "lng": 120.9738
        },
        {
            "name": "埔里第五淨水場",
            "source": "五淨1、2、3、4號井",
            "level": "town",
            "areas": {
                "county": null,
                "towns": []
            },
            "lat": 23.976667,
            "lng": 120.989722
        },
        {
            "name": "籃城淨水場",
            "source": "籃城1號井、籃城2號井、中台2號井、產業微型園區1號井、產業微型園區2號井",
            "level": "town",
            "areas": {
                "county": null,
                "towns": []
            },
            "lat": 23.989059,
            "lng": 120.965647
        },
        {
            "name": "大坪頂淨水場",
            "source": "大坪頂場內深井、水流東深井",
            "level": "town",
            "areas": {
                "county": null,
                "towns": []
            },
            "lat": 24.024895,
            "lng": 120.930372
        },
        {
            "name": "春陽淨水場",
            "source": "濁水溪",
            "level": "town",
            "areas": {
                "county": null,
                "towns": []
            },
            "lat": 24.02655,
            "lng": 121.165373
        },
        {
            "name": "霧社淨水場",
            "source": "已無出水",
            "level": "unknown",
            "areas": {
                "county": null,
                "towns": []
            },
            "lat": 24.02294,
            "lng": 121.142317
        },
        {
            "name": "公林淨水場",
            "source": "山澗水、公林深井",
            "level": "town",
            "areas": {
                "county": null,
                "towns": []
            },
            "lat": 23.85989,
            "lng": 120.959805
        },
        {
            "name": "日月潭淨水場",
            "source": "日月潭水",
            "level": "town",
            "areas": {
                "county": null,
                "towns": []
            },
            "lat": 23.86517,
            "lng": 120.921472
        },
        {
            "name": "東光淨水場",
            "source": "東光深井",
            "level": "town",
            "areas": {
                "county": null,
                "towns": []
            },
            "lat": 23.869612,
            "lng": 120.980639
        },
        {
            "name": "武登淨水場",
            "source": "已無出水",
            "level": "unknown",
            "areas": {
                "county": null,
                "towns": []
            },
            "lat": 23.8398,
            "lng": 120.9032
        },
        {
            "name": "德化淨水場",
            "source": "日月潭水、伊達邵國小租井、德化1井、德化2井",
            "level": "town",
            "areas": {
                "county": null,
                "towns": []
            },
            "lat": 23.8533,
            "lng": 120.9316
        },
        {
            "name": "大肚淨水場",
            "source": "大肚1245井、台紙1.2井",
            "level": "town",
            "areas": {
                "county": null,
                "towns": [
                    66000240
                ]
            },
            "lat": 24.151769,
            "lng": 120.550145
        },
        {
            "name": "福山淨水場",
            "source": "福山1.2.3.4井",
            "level": "town",
            "areas": {
                "county": null,
                "towns": [
                    66000240
                ]
            },
            "lat": 24.126243,
            "lng": 120.553298
        },
        {
            "name": "三興淨水場",
            "source": "三興深井",
            "level": "town",
            "areas": {
                "county": null,
                "towns": [
                    10008010
                ]
            },
            "lat": 23.90568,
            "lng": 120.67859
        },
        {
            "name": "永興淨水場",
            "source": "永興深井",
            "level": "town",
            "areas": {
                "county": null,
                "towns": [
                    10008010
                ]
            },
            "lat": 23.8936,
            "lng": 120.65473
        },
        {
            "name": "南崗淨水場",
            "source": "南崗1、2、3、3-1、4、5、8、9、11、13、15、16、17、18、19號井",
            "level": "town",
            "areas": {
                "county": "彰化縣",
                "towns": []
            },
            "lat": 23.9261,
            "lng": 120.66729
        },
        {
            "name": "炭寮淨水場",
            "source": "炭寮深井",
            "level": "town",
            "areas": {
                "county": "南投縣",
                "towns": [
                    10008060
                ]
            },
            "lat": 23.82732,
            "lng": 120.67577
        },
        {
            "name": "崁腳淨水場",
            "source": "崁腳深井",
            "level": "town",
            "areas": {
                "county": "南投縣",
                "towns": [
                    10008060
                ]
            },
            "lat": 23.83314,
            "lng": 120.6659
        },
        {
            "name": "粗坑淨水場",
            "source": "粗坑取水口(平林溪)",
            "level": "town",
            "areas": {
                "county": "南投縣",
                "towns": [
                    10008080
                ]
            },
            "lat": 23.88363,
            "lng": 120.81754
        },
        {
            "name": "廈新淨水場",
            "source": "廈新深井",
            "level": "town",
            "areas": {
                "county": "南投縣",
                "towns": [
                    10008060
                ]
            },
            "lat": 23.87684,
            "lng": 120.69504
        },
        {
            "name": "新街淨水場",
            "source": "新街1、2、3號井",
            "level": "town",
            "areas": {
                "county": "南投縣",
                "towns": [
                    10008060
                ]
            },
            "lat": 23.87684,
            "lng": 120.69504
        },
        {
            "name": "嘉和淨水場",
            "source": "嘉和1、2、3號井、寬口井",
            "level": "town",
            "areas": {
                "county": "南投縣",
                "towns": [
                    10008010,
                    10008080
                ]
            },
            "lat": 23.895,
            "lng": 120.688227
        },
        {
            "name": "嘉和第二淨水場",
            "source": "嘉和5、6、7號井",
            "level": "town",
            "areas": {
                "county": null,
                "towns": [
                    10008010
                ]
            },
            "lat": 23.89798,
            "lng": 120.67912
        },
        {
            "name": "水里淨水場",
            "source": "水里溪",
            "level": "unknown",
            "areas": {
                "county": null,
                "towns": []
            },
            "lat": 23.815378,
            "lng": 120.855577
        },
        {
            "name": "坪頂埔淨水場",
            "source": "集集淨水場支援",
            "level": "town",
            "areas": {
                "county": null,
                "towns": []
            },
            "lat": 23.774267,
            "lng": 120.683496
        },
        {
            "name": "集集淨水場",
            "source": "水里溪",
            "level": "unknown",
            "areas": {
                "county": null,
                "towns": []
            },
            "lat": 23.82676,
            "lng": 120.788363
        },
        {
            "name": "瑞竹淨水場",
            "source": "瑞竹寬口井",
            "level": "town",
            "areas": {
                "county": null,
                "towns": []
            },
            "lat": 23.660142,
            "lng": 120.663561
        },
        {
            "name": "信義淨水場",
            "source": "水里溪，由水里淨水場供水",
            "level": "unknown",
            "areas": {
                "county": null,
                "towns": []
            },
            "lat": 23.690026,
            "lng": 120.860925
        },
        {
            "name": "大甲第一淨水場",
            "source": "溫寮溪地面水、大甲3、4號井",
            "level": "town",
            "areas": {
                "county": null,
                "towns": [
                    66000110
                ]
            },
            "lat": 24.33928,
            "lng": 120.62683
        },
        {
            "name": "大安淨水場",
            "source": "大安1、2號井",
            "level": "town",
            "areas": {
                "county": null,
                "towns": [
                    66000220,
                    63000030
                ]
            },
            "lat": 24.35818,
            "lng": 120.58556
        },
        {
            "name": "日南淨水場",
            "source": "日南6、7號井",
            "level": "town",
            "areas": {
                "county": null,
                "towns": [
                    66000110
                ]
            },
            "lat": 24.39923,
            "lng": 120.65948
        },
        {
            "name": "頂店淨水場",
            "source": "頂店1、2號井",
            "level": "town",
            "areas": {
                "county": null,
                "towns": [
                    66000110
                ]
            },
            "lat": 24.35268,
            "lng": 120.62931
        },
        {
            "name": "外埔淨水場",
            "source": "因水質不合格，未出水",
            "level": "unknown",
            "areas": {
                "county": null,
                "towns": []
            },
            "lat": 24.33138,
            "lng": 120.65847
        },
        {
            "name": "林子頭淨水場",
            "source": "地下水",
            "level": "unknown",
            "areas": {
                "county": null,
                "towns": []
            },
            "lat": 23.970317,
            "lng": 120.672902
        },
        {
            "name": "草屯第一淨水場",
            "source": "鳥嘴潭地面水",
            "level": "unknown",
            "areas": {
                "county": null,
                "towns": []
            },
            "lat": 23.981313,
            "lng": 120.693158
        },
        {
            "name": "草屯第二淨水場",
            "source": "地下水",
            "level": "town",
            "areas": {
                "county": null,
                "towns": [
                    10007090
                ]
            },
            "lat": 23.986479,
            "lng": 120.679326
        },
        {
            "name": "草屯第三淨水場",
            "source": "地下水",
            "level": "unknown",
            "areas": {
                "county": null,
                "towns": []
            },
            "lat": 23.978277,
            "lng": 120.675168
        },
        {
            "name": "草屯第四淨水場",
            "source": "地下水",
            "level": "unknown",
            "areas": {
                "county": null,
                "towns": []
            },
            "lat": 23.97778,
            "lng": 120.707223
        },
        {
            "name": "營盤口淨水場",
            "source": "地下水、南投所支援",
            "level": "town",
            "areas": {
                "county": null,
                "towns": [
                    10008010,
                    10008080
                ]
            },
            "lat": 23.94064,
            "lng": 120.682724
        },
        {
            "name": "坪頂淨水場",
            "source": "瑞竹淨水場支援",
            "level": "town",
            "areas": {
                "county": null,
                "towns": []
            },
            "lat": 23.67665,
            "lng": 120.675964
        },
        {
            "name": "鹿谷淨水場",
            "source": "北勢溪地面水",
            "level": "town",
            "areas": {
                "county": null,
                "towns": [
                    10008070
                ]
            },
            "lat": 23.734467,
            "lng": 120.762911
        },
        {
            "name": "民和淨水場",
            "source": "由民和淨水場深井供水",
            "level": "unknown",
            "areas": {
                "county": null,
                "towns": []
            },
            "lat": 23.79422,
            "lng": 120.92981
        },
        {
            "name": "人倫淨水場",
            "source": "人倫取水口抽水站",
            "level": "unknown",
            "areas": {
                "county": null,
                "towns": []
            },
            "lat": 23.77995,
            "lng": 120.895756
        },
        {
            "name": "羅娜淨水場",
            "source": "羅娜取水口抽水站",
            "level": "unknown",
            "areas": {
                "county": null,
                "towns": []
            },
            "lat": 23.59817,
            "lng": 120.862889
        },
        {
            "name": "國姓大旗尾淨水場",
            "source": "北港溪(主要)、長流溪(備用)",
            "level": "town",
            "areas": {
                "county": null,
                "towns": []
            },
            "lat": 24.044342,
            "lng": 120.872039
        },
        {
            "name": "大林第一淨水場",
            "source": "地下水",
            "level": "town",
            "areas": {
                "county": "嘉義縣",
                "towns": [
                    10010040,
                    10010060
                ]
            },
            "lat": 23.605484,
            "lng": 120.461825
        },
        {
            "name": "公園淨水場",
            "source": "八掌溪水系八掌溪",
            "level": "county",
            "areas": {
                "county": "嘉義市",
                "towns": []
            },
            "lat": 23.484084,
            "lng": 120.477013
        },
        {
            "name": "水上淨水場",
            "source": "高屏溪水系 支流:楠梓仙溪石水山山澗水",
            "level": "county",
            "areas": {
                "county": "嘉義縣",
                "towns": []
            },
            "lat": 23.422362,
            "lng": 120.386811
        },
        {
            "name": "石弄淨水場",
            "source": "八掌溪水系支流赤蘭溪支流石?溪上游無名溝",
            "level": "town",
            "areas": {
                "county": "嘉義縣",
                "towns": [
                    10010130
                ]
            },
            "lat": 23.406193,
            "lng": 120.559302
        },
        {
            "name": "竹崎淨水場",
            "source": "朴子溪引水源支流牛稠溪",
            "level": "town",
            "areas": {
                "county": "嘉義縣",
                "towns": [
                    10010160,
                    10010140
                ]
            },
            "lat": 23.516563,
            "lng": 120.594364
        },
        {
            "name": "新港淨水場",
            "source": "地下水",
            "level": "town",
            "areas": {
                "county": "嘉義縣",
                "towns": [
                    10010060,
                    10010070
                ]
            },
            "lat": 23.556506,
            "lng": 120.37711
        },
        {
            "name": "觸口淨水場",
            "source": "八掌溪水系八掌溪",
            "level": "town",
            "areas": {
                "county": "嘉義縣",
                "towns": [
                    10010130
                ]
            },
            "lat": 23.776338,
            "lng": 120.640002
        },
        {
            "name": "蘭潭淨水場",
            "source": "蘭潭水庫取水站",
            "level": "town",
            "areas": {
                "county": "嘉義市",
                "towns": [
                    10020010
                ]
            },
            "lat": 23.470724,
            "lng": 120.475435
        },
        {
            "name": "大埔淨水場",
            "source": "曾文溪水系支流龍蛟溪(大坑內坑上流大埔給水站)",
            "level": "town",
            "areas": {
                "county": "嘉義縣",
                "towns": [
                    10010170
                ]
            },
            "lat": 23.300211,
            "lng": 120.598063
        },
        {
            "name": "三條崙淨水場",
            "source": "地下水井",
            "level": "town",
            "areas": {
                "county": "雲林縣",
                "towns": [
                    10009180
                ]
            },
            "lat": 23.652285,
            "lng": 120.159217
        },
        {
            "name": "大北勢淨水場",
            "source": "大北勢1號井＼大北勢2號井＼大北勢3號井＼大北勢4號井",
            "level": "town",
            "areas": {
                "county": "雲林縣",
                "towns": [
                    10009010
                ]
            },
            "lat": 23.72475,
            "lng": 120.51134
        },
        {
            "name": "水林淨水場",
            "source": "地下水",
            "level": "town",
            "areas": {
                "county": "雲林縣",
                "towns": [
                    10009200
                ]
            },
            "lat": 23.571461,
            "lng": 120.248749
        },
        {
            "name": "半天寮淨水場",
            "source": "北港溪水系支流三疊溪(梅山鄉自來水)",
            "level": "county",
            "areas": {
                "county": "雲林縣",
                "towns": []
            },
            "lat": 23.567259,
            "lng": 120.568278
        },
        {
            "name": "古坑淨水場",
            "source": "地下水",
            "level": "town",
            "areas": {
                "county": "雲林縣",
                "towns": [
                    10009010,
                    10009070
                ]
            },
            "lat": 23.650303,
            "lng": 120.560723
        },
        {
            "name": "石榴淨水場",
            "source": "地下水",
            "level": "town",
            "areas": {
                "county": "雲林縣",
                "towns": [
                    10009010
                ]
            },
            "lat": 23.715306,
            "lng": 120.592957
        },
        {
            "name": "西螺淨水場",
            "source": "地下水一般水源",
            "level": "town",
            "areas": {
                "county": "雲林縣",
                "towns": [
                    10009040
                ]
            },
            "lat": 23.798787,
            "lng": 120.466075
        },
        {
            "name": "拔拉腳第二淨水場",
            "source": "地下水",
            "level": "town",
            "areas": {
                "county": "雲林縣",
                "towns": [
                    10009190
                ]
            },
            "lat": 23.581487,
            "lng": 120.195338
        },
        {
            "name": "林內淨水場",
            "source": "濁水溪水系 支流:濁水溪(集集攔河堰)",
            "level": "county",
            "areas": {
                "county": "雲林縣",
                "towns": []
            },
            "lat": 23.752408,
            "lng": 120.595883
        },
        {
            "name": "阿丹淨水場",
            "source": "地下水",
            "level": "town",
            "areas": {
                "county": null,
                "towns": [
                    10009020,
                    10009080
                ]
            },
            "lat": 23.641604,
            "lng": 120.522702
        },
        {
            "name": "崁腳淨水場",
            "source": "地下水",
            "level": "town",
            "areas": {
                "county": "雲林縣",
                "towns": [
                    10009070
                ]
            },
            "lat": 23.610361,
            "lng": 120.537798
        },
        {
            "name": "埤仔頭淨水場",
            "source": "地下水",
            "level": "town",
            "areas": {
                "county": "雲林縣",
                "towns": [
                    10009010
                ]
            },
            "lat": 23.703009,
            "lng": 120.573314
        },
        {
            "name": "麥寮第一淨水場",
            "source": "地下水井",
            "level": "town",
            "areas": {
                "county": null,
                "towns": [
                    10009130
                ]
            },
            "lat": 23.750478,
            "lng": 120.248706
        },
        {
            "name": "湖山淨水場",
            "source": "湖山水庫",
            "level": "county",
            "areas": {
                "county": "雲林縣",
                "towns": []
            },
            "lat": 23.70916,
            "lng": 120.591416
        },
        {
            "name": "番社淨水場",
            "source": "地下水",
            "level": "county",
            "areas": {
                "county": "雲林縣",
                "towns": []
            },
            "lat": 23.784493,
            "lng": 120.359171
        },
        {
            "name": "阿里山淨水場",
            "source": "高屏溪水系 支流:楠梓仙溪石水山山澗水",
            "level": "town",
            "areas": {
                "county": "嘉義縣",
                "towns": [
                    10010180
                ]
            },
            "lat": 23.512752,
            "lng": 120.812438
        },
        {
            "name": "石棹淨水場",
            "source": "石桌湖底溪取水口",
            "level": "town",
            "areas": {
                "county": null,
                "towns": [
                    10010140
                ]
            },
            "lat": 23.473825,
            "lng": 120.700263
        },
        {
            "name": "達邦淨水場",
            "source": "曾文溪水系曾文溪支流櫻花溪",
            "level": "town",
            "areas": {
                "county": "嘉義縣",
                "towns": [
                    10010180
                ]
            },
            "lat": 23.449005,
            "lng": 120.752227
        },
        {
            "name": "樂野淨水場",
            "source": "曾文溪引水源 支流:山澗水",
            "level": "town",
            "areas": {
                "county": "嘉義縣",
                "towns": [
                    10010160,
                    10010140,
                    10010180
                ]
            },
            "lat": 23.480935,
            "lng": 120.714447
        },
        {
            "name": "山上淨水場",
            "source": "曾文溪水系曾文溪(玉峰堰)",
            "level": "unknown",
            "areas": {
                "county": null,
                "towns": []
            },
            "lat": 23.101509,
            "lng": 120.365756
        },
        {
            "name": "白河淨水場",
            "source": "急水溪水系急水溪支流白水溪白河水庫",
            "level": "town",
            "areas": {
                "county": "臺南市",
                "towns": [
                    67000030,
                    67000060
                ]
            },
            "lat": 23.35162,
            "lng": 120.425948
        },
        {
            "name": "南化淨水場",
            "source": "曾文溪水系曾文溪支流後堀溪南化水庫",
            "level": "county",
            "areas": {
                "county": "臺南市",
                "towns": []
            },
            "lat": 23.084421,
            "lng": 120.503763
        },
        {
            "name": "烏山頭淨水場",
            "source": "曾文溪水系曾文溪支流大埔溪曾文水庫",
            "level": "town",
            "areas": {
                "county": "臺南市",
                "towns": [
                    67000340,
                    67000010,
                    67000020,
                    67000030,
                    67000040,
                    67000050,
                    67000060,
                    67000070,
                    67000080,
                    67000090,
                    67000100,
                    67000110,
                    67000120,
                    67000130,
                    67000140,
                    67000190,
                    67000330,
                    67000210,
                    67000150,
                    67000160,
                    67000170,
                    67000350,
                    67000360,
                    67000370
                ]
            },
            "lat": 23.207301,
            "lng": 120.366411
        },
        {
            "name": "曾文第一淨水場",
            "source": "曾文淨水場取水口",
            "level": "town",
            "areas": {
                "county": "臺南市",
                "towns": [
                    67000340,
                    67000190,
                    67000330,
                    67000210,
                    67000350,
                    67000360,
                    67000370
                ]
            },
            "lat": 23.155857,
            "lng": 120.340043
        },
        {
            "name": "曾文第二淨水場",
            "source": "曾文淨水場取水口",
            "level": "town",
            "areas": {
                "county": "臺南市",
                "towns": [
                    67000340,
                    67000190,
                    67000330,
                    67000210,
                    67000350,
                    67000360,
                    67000370
                ]
            },
            "lat": 23.155815,
            "lng": 120.34352
        },
        {
            "name": "潭頂淨水場",
            "source": "曾文水庫、烏山頭水庫聯合運用",
            "level": "town",
            "areas": {
                "county": "臺南市",
                "towns": [
                    67000320,
                    67000340,
                    67000180,
                    67000330,
                    67000200,
                    67000220,
                    67000270,
                    67000280,
                    67000290,
                    67000300,
                    67000310,
                    67000370
                ]
            },
            "lat": 23.076906,
            "lng": 120.320037
        },
        {
            "name": "鏡面淨水場",
            "source": "曾文溪水系曾文溪支流菜寮溪(鏡面水庫)",
            "level": "town",
            "areas": {
                "county": "高雄市",
                "towns": [
                    64000350
                ]
            },
            "lat": 23.058505,
            "lng": 120.487087
        },
        {
            "name": "楠玉淨水場",
            "source": "曾文溪水系 曾文溪支流劍文溪",
            "level": "town",
            "areas": {
                "county": "臺南市",
                "towns": [
                    67000110,
                    67000230,
                    67000240
                ]
            },
            "lat": 23.223217,
            "lng": 120.498839
        },
        {
            "name": "大泉淨水場",
            "source": "大泉伏流水",
            "level": "town",
            "areas": {
                "county": "高雄市",
                "towns": [
                    64000310,
                    64000320
                ]
            },
            "lat": 22.69,
            "lng": 121.43
        },
        {
            "name": "坪頂淨水場",
            "source": "高屏溪水系高屏溪(竹子寮取水站)",
            "level": "town",
            "areas": {
                "county": "高雄市",
                "towns": [
                    64000050,
                    64000060,
                    64000070,
                    64000030,
                    64000040,
                    64000120,
                    64000150,
                    64000180
                ]
            },
            "lat": 22.67986,
            "lng": 120.406579
        },
        {
            "name": "拷潭淨水場",
            "source": "地下水",
            "level": "town",
            "areas": {
                "county": "高雄市",
                "towns": [
                    64000110,
                    64000090,
                    64000120,
                    64000140,
                    64000130
                ]
            },
            "lat": 22.590966,
            "lng": 120.399308
        },
        {
            "name": "翁公園淨水場",
            "source": "翁公園淨水場12口井、高屏溪、南化水庫",
            "level": "town",
            "areas": {
                "county": "高雄市",
                "towns": [
                    64000120,
                    64000140
                ]
            },
            "lat": 22.604609,
            "lng": 120.432395
        },
        {
            "name": "港西淨水場",
            "source": "---",
            "level": "unknown",
            "areas": {
                "county": null,
                "towns": []
            },
            "lat": 22.504797,
            "lng": 120.461358
        },
        {
            "name": "路竹淨水場",
            "source": "阿公店水庫",
            "level": "town",
            "areas": {
                "county": "高雄市",
                "towns": [
                    64000240,
                    64000250,
                    64000270
                ]
            },
            "lat": 22.828369,
            "lng": 120.262002
        },
        {
            "name": "鳳山淨水場(一期)",
            "source": "高屏溪",
            "level": "town",
            "areas": {
                "county": "高雄市",
                "towns": [
                    64000100,
                    64000110,
                    64000090
                ]
            },
            "lat": 22.545449,
            "lng": 120.391913
        },
        {
            "name": "鳳山淨水場(二期)",
            "source": "鳳山水庫(東港溪)",
            "level": "town",
            "areas": {
                "county": "高雄市",
                "towns": [
                    64000100,
                    64000110,
                    64000090
                ]
            },
            "lat": 22.545449,
            "lng": 120.391913
        },
        {
            "name": "澄清湖淨水場",
            "source": "澄清湖水庫",
            "level": "town",
            "areas": {
                "county": "高雄市",
                "towns": [
                    64000010,
                    64000050,
                    64000060,
                    64000070,
                    64000080,
                    64000090,
                    64000020,
                    64000030
                ]
            },
            "lat": 22.654108,
            "lng": 120.355353
        },
        {
            "name": "嶺口淨水場",
            "source": "手巾寮14口井",
            "level": "town",
            "areas": {
                "county": "高雄市",
                "towns": [
                    64000040,
                    64000190,
                    64000210,
                    64000220,
                    64000230
                ]
            },
            "lat": 22.773785,
            "lng": 120.443208
        },
        {
            "name": "手巾寮淨水場",
            "source": "手巾寮6口井",
            "level": "town",
            "areas": {
                "county": null,
                "towns": [
                    64000300,
                    64000340,
                    64000350
                ]
            },
            "lat": 22.870027,
            "lng": 120.49937
        },
        {
            "name": "茂林淨水場",
            "source": "茂林2口井",
            "level": "town",
            "areas": {
                "county": "高雄市",
                "towns": [
                    64000320,
                    64000360
                ]
            },
            "lat": 22.885633,
            "lng": 120.663326
        },
        {
            "name": "美濃淨水場",
            "source": "美濃3口井",
            "level": "town",
            "areas": {
                "county": "高雄市",
                "towns": [
                    64000310
                ]
            },
            "lat": 22.887869,
            "lng": 120.536542
        },
        {
            "name": "廣興淨水場",
            "source": "廣興2口井",
            "level": "town",
            "areas": {
                "county": "高雄市",
                "towns": [
                    64000310
                ]
            },
            "lat": 22.91736,
            "lng": 120.572632
        },
        {
            "name": "甲仙淨水場",
            "source": "旗山溪、鹽桑溪",
            "level": "town",
            "areas": {
                "county": "高雄市",
                "towns": [
                    64000330
                ]
            },
            "lat": 23.086443,
            "lng": 120.591272
        },
        {
            "name": "六龜淨水場",
            "source": "荖濃溪",
            "level": "town",
            "areas": {
                "county": "高雄市",
                "towns": [
                    64000320
                ]
            },
            "lat": 22.992777,
            "lng": 120.639067
        },
        {
            "name": "新威淨水場",
            "source": "荖濃溪",
            "level": "town",
            "areas": {
                "county": null,
                "towns": [
                    64000320
                ]
            },
            "lat": 22.933937,
            "lng": 120.644554
        },
        {
            "name": "吉貝淨水場",
            "source": "吉貝7口深井",
            "level": "town",
            "areas": {
                "county": "澎湖縣",
                "towns": [
                    10016030
                ]
            },
            "lat": 23.745113,
            "lng": 119.612861
        },
        {
            "name": "木梓淨水場",
            "source": "旗山溪",
            "level": "town",
            "areas": {
                "county": "高雄市",
                "towns": [
                    64000340
                ]
            },
            "lat": 23.018454,
            "lng": 120.555174
        },
        {
            "name": "成功淨水場",
            "source": "成功、興仁、東衛水庫",
            "level": "town",
            "areas": {
                "county": "澎湖縣",
                "towns": [
                    10016010,
                    10016020
                ]
            },
            "lat": 23.573894,
            "lng": 119.619232
        },
        {
            "name": "成功鹽井淡化廠",
            "source": "成功鹽井淡化廠",
            "level": "town",
            "areas": {
                "county": "澎湖縣",
                "towns": [
                    10016010,
                    10016020
                ]
            },
            "lat": 23.573894,
            "lng": 119.619232
        },
        {
            "name": "馬公10號深井",
            "source": "馬公10號深井",
            "level": "town",
            "areas": {
                "county": null,
                "towns": [
                    10016010
                ]
            },
            "lat": 23.568528,
            "lng": 119.57775
        },
        {
            "name": "馬公16號深井",
            "source": "馬公16號深井",
            "level": "town",
            "areas": {
                "county": null,
                "towns": [
                    10016010
                ]
            },
            "lat": 23.569611,
            "lng": 119.564333
        },
        {
            "name": "馬公19號深井",
            "source": "馬公19號深井",
            "level": "town",
            "areas": {
                "county": null,
                "towns": [
                    10016010
                ]
            },
            "lat": 23.577889,
            "lng": 119.571139
        },
        {
            "name": "馬公22號深井",
            "source": "馬公22號深井",
            "level": "town",
            "areas": {
                "county": null,
                "towns": [
                    10016010
                ]
            },
            "lat": 23.582472,
            "lng": 119.573194
        },
        {
            "name": "馬公23號深井",
            "source": "馬公23號深井",
            "level": "town",
            "areas": {
                "county": null,
                "towns": [
                    10016010
                ]
            },
            "lat": 23.555444,
            "lng": 119.591722
        },
        {
            "name": "馬公27號深井",
            "source": "馬公27號深井",
            "level": "town",
            "areas": {
                "county": null,
                "towns": [
                    10016010
                ]
            },
            "lat": 23.565778,
            "lng": 119.581806
        },
        {
            "name": "馬公28號深井",
            "source": "馬公28號深井",
            "level": "town",
            "areas": {
                "county": null,
                "towns": [
                    10016010
                ]
            },
            "lat": 23.574667,
            "lng": 119.601694
        },
        {
            "name": "馬公32號深井",
            "source": "馬公32號深井",
            "level": "town",
            "areas": {
                "county": null,
                "towns": [
                    10016010
                ]
            },
            "lat": 23.570056,
            "lng": 119.58325
        },
        {
            "name": "馬公38號深井",
            "source": "馬公38號深井",
            "level": "town",
            "areas": {
                "county": null,
                "towns": [
                    10016010
                ]
            },
            "lat": 23.559,
            "lng": 119.592776
        },
        {
            "name": "馬公42號深井",
            "source": "馬公42號深井",
            "level": "town",
            "areas": {
                "county": null,
                "towns": [
                    10016010
                ]
            },
            "lat": 23.583333,
            "lng": 119.580667
        },
        {
            "name": "馬公46號深井",
            "source": "馬公46號深井",
            "level": "town",
            "areas": {
                "county": null,
                "towns": [
                    10016010
                ]
            },
            "lat": 23.552194,
            "lng": 119.609306
        },
        {
            "name": "馬公49號深井",
            "source": "馬公49號深井",
            "level": "town",
            "areas": {
                "county": null,
                "towns": [
                    10016010
                ]
            },
            "lat": 23.558278,
            "lng": 119.601806
        },
        {
            "name": "馬公56號深井",
            "source": "馬公56號深井",
            "level": "town",
            "areas": {
                "county": null,
                "towns": [
                    10016010
                ]
            },
            "lat": 23.555833,
            "lng": 119.587444
        },
        {
            "name": "馬公57號深井",
            "source": "馬公57號深井",
            "level": "town",
            "areas": {
                "county": null,
                "towns": [
                    10016010
                ]
            },
            "lat": 23.563417,
            "lng": 119.586528
        },
        {
            "name": "馬公58號深井",
            "source": "馬公58號深井",
            "level": "town",
            "areas": {
                "county": null,
                "towns": [
                    10016010
                ]
            },
            "lat": 23.553556,
            "lng": 119.592222
        },
        {
            "name": "馬公59號深井",
            "source": "馬公59號深井",
            "level": "town",
            "areas": {
                "county": null,
                "towns": [
                    10016010
                ]
            },
            "lat": 23.034014,
            "lng": 119.35242
        },
        {
            "name": "馬公60號深井",
            "source": "馬公60號深井",
            "level": "town",
            "areas": {
                "county": null,
                "towns": [
                    10016010
                ]
            },
            "lat": 23.555,
            "lng": 119.594278
        },
        {
            "name": "馬公62號深井",
            "source": "馬公62號深井",
            "level": "town",
            "areas": {
                "county": null,
                "towns": [
                    10016010
                ]
            },
            "lat": 23.559417,
            "lng": 119.597417
        },
        {
            "name": "馬公63號深井",
            "source": "馬公63號深井",
            "level": "town",
            "areas": {
                "county": null,
                "towns": [
                    10016010
                ]
            },
            "lat": 23.548056,
            "lng": 119.630778
        },
        {
            "name": "馬公7號深井",
            "source": "馬公7號深井",
            "level": "town",
            "areas": {
                "county": null,
                "towns": [
                    10016010
                ]
            },
            "lat": 23.564806,
            "lng": 119.585889
        },
        {
            "name": "馬公8號深井",
            "source": "馬公8號深井",
            "level": "town",
            "areas": {
                "county": null,
                "towns": [
                    10016010
                ]
            },
            "lat": 23.5605,
            "lng": 119.585611
        },
        {
            "name": "馬公34號深井",
            "source": "馬公34號深井",
            "level": "town",
            "areas": {
                "county": null,
                "towns": [
                    10016010
                ]
            },
            "lat": 23.558565,
            "lng": 119.581027
        },
        {
            "name": "馬公第1海水淡化廠(10，000CMD)",
            "source": "海水",
            "level": "town",
            "areas": {
                "county": null,
                "towns": [
                    10016010,
                    10016020
                ]
            },
            "lat": 23.548139,
            "lng": 119.629833
        },
        {
            "name": "馬公第1海水淡化廠(3，000CMD)",
            "source": "海水",
            "level": "town",
            "areas": {
                "county": null,
                "towns": [
                    10016010,
                    10016020
                ]
            },
            "lat": 23.548194,
            "lng": 119.630444
        },
        {
            "name": "馬公第2海水淡化廠(4，000CMD)",
            "source": "海水",
            "level": "town",
            "areas": {
                "county": null,
                "towns": [
                    10016010,
                    10016020
                ]
            },
            "lat": 23.548667,
            "lng": 119.633305
        },
        {
            "name": "馬公第2海水淡化廠(6，000CMD)",
            "source": "海水",
            "level": "town",
            "areas": {
                "county": null,
                "towns": [
                    10016010,
                    10016020
                ]
            },
            "lat": 23.547995,
            "lng": 119.632708
        },
        {
            "name": "湖西3號深井",
            "source": "湖西3號深井",
            "level": "town",
            "areas": {
                "county": null,
                "towns": [
                    10016020
                ]
            },
            "lat": 23.593917,
            "lng": 119.613278
        },
        {
            "name": "澎南1號深井",
            "source": "澎南1號深井",
            "level": "town",
            "areas": {
                "county": null,
                "towns": [
                    10016010
                ]
            },
            "lat": 23.533417,
            "lng": 119.602028
        },
        {
            "name": "澎南2號深井",
            "source": "澎南2號深井",
            "level": "town",
            "areas": {
                "county": null,
                "towns": [
                    10016010
                ]
            },
            "lat": 23.522583,
            "lng": 119.600111
        },
        {
            "name": "澎南3號深井",
            "source": "澎南3號深井",
            "level": "town",
            "areas": {
                "county": null,
                "towns": [
                    10016010
                ]
            },
            "lat": 23.525528,
            "lng": 119.595417
        },
        {
            "name": "澎南4號深井",
            "source": "澎南4號深井",
            "level": "town",
            "areas": {
                "county": null,
                "towns": [
                    10016010
                ]
            },
            "lat": 23.524778,
            "lng": 119.586028
        },
        {
            "name": "澎南7號深井",
            "source": "澎南7號深井",
            "level": "town",
            "areas": {
                "county": null,
                "towns": [
                    10016010
                ]
            },
            "lat": 23.529417,
            "lng": 119.590222
        },
        {
            "name": "澎南8號深井",
            "source": "澎南8號深井",
            "level": "town",
            "areas": {
                "county": null,
                "towns": [
                    10016010
                ]
            },
            "lat": 23.534611,
            "lng": 119.597111
        },
        {
            "name": "民生淨水場",
            "source": "旗山溪支流",
            "level": "town",
            "areas": {
                "county": "高雄市",
                "towns": [
                    64000380
                ]
            },
            "lat": 23.266788,
            "lng": 120.720626
        },
        {
            "name": "寶來淨水場",
            "source": "寶來溪",
            "level": "town",
            "areas": {
                "county": "高雄市",
                "towns": [
                    64000320
                ]
            },
            "lat": 23.107198,
            "lng": 120.700344
        },
        {
            "name": "多納淨水場",
            "source": "多納1口井",
            "level": "town",
            "areas": {
                "county": "高雄市",
                "towns": [
                    64000360
                ]
            },
            "lat": 22.88563,
            "lng": 120.663359
        },
        {
            "name": "白沙淨水場",
            "source": "白沙26口深井",
            "level": "town",
            "areas": {
                "county": "澎湖縣",
                "towns": [
                    10016030
                ]
            },
            "lat": 23.666634,
            "lng": 119.595726
        },
        {
            "name": "白沙鹽井淡化廠",
            "source": "赤崁地下水庫",
            "level": "town",
            "areas": {
                "county": "澎湖縣",
                "towns": [
                    10016030
                ]
            },
            "lat": 23.666634,
            "lng": 119.595726
        },
        {
            "name": "將軍鹽井淡化廠",
            "source": "烏溝水塘",
            "level": "town",
            "areas": {
                "county": "澎湖縣",
                "towns": [
                    10016050
                ]
            },
            "lat": 23.365949,
            "lng": 119.527008
        },
        {
            "name": "望安海水淡化廠",
            "source": "望安海水淡化廠",
            "level": "town",
            "areas": {
                "county": "澎湖縣",
                "towns": [
                    10016050
                ]
            },
            "lat": 23.362966,
            "lng": 119.497494
        },
        {
            "name": "望安淨水場",
            "source": "西安水庫",
            "level": "town",
            "areas": {
                "county": "澎湖縣",
                "towns": [
                    10016050
                ]
            },
            "lat": 23.363642,
            "lng": 119.496862
        },
        {
            "name": "西嶼海水淡化廠",
            "source": "西嶼海水淡化廠",
            "level": "town",
            "areas": {
                "county": "澎湖縣",
                "towns": [
                    10016040
                ]
            },
            "lat": 23.612207,
            "lng": 119.510411
        },
        {
            "name": "西嶼淨水場含西嶼鹽井水淡化廠",
            "source": "小池水庫",
            "level": "town",
            "areas": {
                "county": "澎湖縣",
                "towns": [
                    10016040
                ]
            },
            "lat": 23.612207,
            "lng": 119.510411
        },
        {
            "name": "七美淨水場含七美鹽井水淡化廠",
            "source": "七美6口深井、七美水庫",
            "level": "town",
            "areas": {
                "county": "澎湖縣",
                "towns": [
                    10016060
                ]
            },
            "lat": 23.20978,
            "lng": 119.433854
        },
        {
            "name": "吉貝海淡廠",
            "source": "海水",
            "level": "town",
            "areas": {
                "county": "澎湖縣",
                "towns": [
                    10016030
                ]
            },
            "lat": 23.745506,
            "lng": 119.620876
        },
        {
            "name": "大溪淨水場",
            "source": "大溪溪",
            "level": "town",
            "areas": {
                "county": null,
                "towns": [
                    10002050,
                    10002040
                ]
            },
            "lat": 24.941431,
            "lng": 121.891911
        },
        {
            "name": "圳頭淨水場",
            "source": "圳頭3口深井及五十溪",
            "level": "town",
            "areas": {
                "county": null,
                "towns": [
                    10002070
                ]
            },
            "lat": 24.749813,
            "lng": 121.669803
        },
        {
            "name": "枕山淨水場",
            "source": "枕山1口深井",
            "level": "town",
            "areas": {
                "county": null,
                "towns": [
                    10002070
                ]
            },
            "lat": 24.771067,
            "lng": 121.714104
        },
        {
            "name": "金面淨水場",
            "source": "雪隧取水口",
            "level": "town",
            "areas": {
                "county": null,
                "towns": [
                    10002050,
                    10002040
                ]
            },
            "lat": 24.852719,
            "lng": 121.805116
        },
        {
            "name": "匏崙淨水場",
            "source": "匏崙深井",
            "level": "town",
            "areas": {
                "county": null,
                "towns": [
                    10002050
                ]
            },
            "lat": 24.805032,
            "lng": 121.713769
        },
        {
            "name": "深溝淨水場",
            "source": "深溝5口淺井及粗坑溪",
            "level": "town",
            "areas": {
                "county": null,
                "towns": [
                    10002010,
                    10002050,
                    10002070,
                    10002040,
                    10002060
                ]
            },
            "lat": 24.720457,
            "lng": 121.705485
        },
        {
            "name": "龍潭淨水場",
            "source": "龍潭2口深井",
            "level": "town",
            "areas": {
                "county": null,
                "towns": [
                    10002010,
                    10002050,
                    10002060
                ]
            },
            "lat": 24.780478,
            "lng": 121.730196
        },
        {
            "name": "丸山淨水場",
            "source": "丸山3口淺井",
            "level": "unknown",
            "areas": {
                "county": null,
                "towns": []
            },
            "lat": 24.641486,
            "lng": 121.758555
        },
        {
            "name": "大隱淨水場",
            "source": "大隱1口深井",
            "level": "town",
            "areas": {
                "county": null,
                "towns": []
            },
            "lat": 24.657342,
            "lng": 121.713667
        },