{
    "type": "FeatureCollection",
    "features": [
        {
            "type": "Feature",
            "properties": {
                "town": "玉里鎮",
                "name": "雀居民宿",
                "date": "10\/3起",
                "contact": "0927-096-925",
                "address": "花蓮縣玉里鎮忠孝路97-1號",
                "notes": "救災志工",
                "geocoded": true,
                "autocomplete_address": "花蓮縣玉里鎮中城里２鄰忠孝路９７之１號",
                "original_address": "花蓮縣玉里鎮忠孝路97-1號",
                "full_address": "花蓮縣玉里鎮忠孝路97-1號",
                "row_number": 3
            },
            "geometry": {
                "type": "Point",
                "coordinates": [
                    121.321037,
                    23.324224
                ]
            }
        },
        {
            "type": "Feature",
            "properties": {
                "town": "玉里鎮",
                "name": "黃璟嚴(住家)",
                "contact": "0933-512-551",
                "room_info": "兩間大通鋪(一間容納5-6人)",
                "address": "花蓮縣玉里鎮高寮68-2號",
                "fee": "災民優先",
                "geocoded": true,
                "autocomplete_address": "花蓮縣玉里鎮觀音里１４鄰高寮２６８之２號",
                "original_address": "花蓮縣玉里鎮高寮68-2號",
                "full_address": "花蓮縣玉里鎮高寮68-2號",
                "row_number": 4
            },
            "geometry": {
                "type": "Point",
                "coordinates": [
                    121.388456,
                    23.380309
                ]
            }
        },
        {
            "type": "Feature",
            "properties": {
                "town": "玉里鎮",
                "name": "迴家民宿",
                "contact": "0955-340-956",
                "room_info": "八間房間",
                "address": "花蓮縣玉里鎮中城里大同路192號",
                "fee": "災民優先",
                "source": "民宿老闆娘threads",
                "geocoded": true,
                "autocomplete_address": "花蓮縣玉里鎮中城里２２鄰大同路１９２號",
                "original_address": "花蓮縣玉里鎮中城里大同路192號",
                "full_address": "花蓮縣玉里鎮中城里大同路192號",
                "row_number": 5
            },
            "geometry": {
                "type": "Point",
                "coordinates": [
                    121.312337,
                    23.33048
                ]
            }
        },
        {
            "type": "Feature",
            "properties": {
                "town": "玉里鎮",
                "name": "玉里東好民宿",
                "contact": "08-63753898",
                "room_info": "一間房間",
                "address": "花蓮縣玉里鎮仁愛路一段199",
                "fee": "災民優先",
                "geocoded": true,
                "autocomplete_address": "花蓮縣玉里鎮中城里８鄰仁愛路一段１９９號",
                "original_address": "花蓮縣玉里鎮仁愛路一段199",
                "full_address": "花蓮縣玉里鎮仁愛路一段199",
                "row_number": 6
            },
            "geometry": {
                "type": "Point",
                "coordinates": [
                    121.318472,
                    23.332103
                ]
            }
        },
        {
            "type": "Feature",
            "properties": {
                "town": "光復鄉",
                "name": "欣綠石頭屋民宿",
                "contact": "0905-393-047",
                "room_info": "四人房5間、八人房1間",
                "address": "花蓮縣光復鄉大全街60號",
                "fee": "災民優先",
                "geocoded": true,
                "autocomplete_address": "花蓮縣光復鄉大全村３鄰大全街６０號",
                "original_address": "花蓮縣光復鄉大全街60號",
                "full_address": "花蓮縣光復鄉大全街60號",
                "row_number": 7
            },
            "geometry": {
                "type": "Point",
                "coordinates": [
                    121.40925,
                    23.656428
                ]
            }
        },
        {
            "type": "Feature",
            "properties": {
                "town": "吉安鄉",
                "name": "小窩活動共享空間",
                "date": "9\/26-28",
                "contact": "FB私訊",
                "address": "吉安鄉民治路242號後巷",
                "source": "threads",
                "geocoded": true,
                "autocomplete_address": "花蓮縣吉安鄉民治路２５９巷和民治路２５９巷２９弄交叉路口",
                "original_address": "吉安鄉民治路242號後巷",
                "full_address": "花蓮縣吉安鄉民治路242號後巷",
                "row_number": 8
            },
            "geometry": {
                "type": "Point",
                "coordinates": [
                    121.588646,
                    23.979528
                ]
            }
        },
        {
            "type": "Feature",
            "properties": {
                "town": "吉安鄉",
                "name": "山緹民宿",
                "contact": "0932-520-949",
                "address": "吉安鄉南華村福昌路801巷12號",
                "geocoded": true,
                "autocomplete_address": "花蓮縣吉安鄉南華村１３鄰福昌路８０１巷１２號",
                "original_address": "吉安鄉南華村福昌路801巷12號",
                "full_address": "花蓮縣吉安鄉南華村福昌路801巷12號",
                "row_number": 9
            },
            "geometry": {
                "type": "Point",
                "coordinates": [
                    121.54883,
                    23.961675
                ]
            }
        },
        {
            "type": "Feature",
            "properties": {
                "town": "吉安鄉",
                "name": "隨心所寓民宿",
                "date": "9\/24–25",
                "contact": "03-8549737",
                "room_info": "雙人房 2 間",
                "address": "花蓮縣吉安鄉慶北一街239號",
                "source": "花蓮國際民宿協會",
                "geocoded": true,
                "autocomplete_address": "花蓮縣吉安鄉慶豐村３９鄰慶北一街２３９號",
                "original_address": "花蓮縣吉安鄉慶北一街239號",
                "full_address": "花蓮縣吉安鄉慶北一街239號",
                "row_number": 10
            },
            "geometry": {
                "type": "Point",
                "coordinates": [
                    121.563138,
                    23.982732
                ]
            }
        },
        {
            "type": "Feature",
            "properties": {
                "town": "吉安鄉",
                "name": "呼吸民宿",
                "date": "9\/24–26",
                "contact": "0932-654-870",
                "room_info": "三間房間",
                "address": "花蓮縣吉安鄉吉祥三街22-2號",
                "fee": "災民優先",
                "geocoded": true,
                "autocomplete_address": "花蓮縣吉安鄉宜昌村９鄰吉祥三街２２之２號",
                "original_address": "花蓮縣吉安鄉吉祥三街22-2號",
                "full_address": "花蓮縣吉安鄉吉祥三街22-2號",
                "row_number": 11
            },
            "geometry": {
                "type": "Point",
                "coordinates": [
                    121.584919,
                    23.974892
                ]
            }
        },
        {
            "type": "Feature",
            "properties": {
                "town": "吉安鄉",
                "name": "田埔教會",
                "contact": "0912-989-411",
                "room_info": "暫時收容、人數請電洽",
                "address": "吉安鄉文化七街57號1樓",
                "fee": "災民優先",
                "geocoded": true,
                "autocomplete_address": "花蓮縣吉安鄉南昌村１５鄰文化七街５７號",
                "original_address": "吉安鄉文化七街57號1樓",
                "full_address": "花蓮縣吉安鄉文化七街57號1樓",
                "row_number": 12
            },
            "geometry": {
                "type": "Point",
                "coordinates": [
                    121.580322,
                    23.97058
                ]
            }
        },
        {
            "type": "Feature",
            "properties": {
                "town": "吉安鄉",
                "name": "娜荳蘭社福中心",
                "contact": "0912-989-411",
                "room_info": "暫時收容、人數請電洽",
                "address": "吉安鄉吉興路一段76號一樓",
                "fee": "災民優先",
                "geocoded": true,
                "autocomplete_address": "花蓮縣吉安鄉稻香村１１鄰吉興路一段２３７巷６號",
                "original_address": "吉安鄉吉興路一段76號一樓",
                "full_address": "花蓮縣吉安鄉吉興路一段76號一樓",
                "row_number": 13
            },
            "geometry": {
                "type": "Point",
                "coordinates": [
                    121.573671,
                    23.964429
                ]
            }
        },
        {
            "type": "Feature",
            "properties": {
                "town": "吉安鄉",
                "name": "山之小羊",
                "date": "9\/24-25、10\/1-2",
                "contact": "0905-663-796",
                "room_info": "人數請電洽",
                "address": "花蓮縣吉安鄉中正路二段206巷8-12號",
                "fee": "災民優先",
                "geocoded": true,
                "autocomplete_address": "花蓮縣吉安鄉仁和村３６鄰中正路二段２０６巷１２號",
                "original_address": "花蓮縣吉安鄉中正路二段206巷8-12號",
                "full_address": "花蓮縣吉安鄉中正路二段206巷8-12號",
                "row_number": 14
            },
            "geometry": {
                "type": "Point",
                "coordinates": [
                    121.584326,
                    23.958293
                ]
            }
        },
        {
            "type": "Feature",
            "properties": {
                "town": "吉安鄉",
                "name": "愛在幸福渡假莊園民宿",
                "contact": "0939-525-147",
                "room_info": "房間數量請電洽",
                "address": "花蓮縣吉安鄉吉興路三段986號",
                "fee": "災民優先",
                "geocoded": true,
                "autocomplete_address": "花蓮縣吉安鄉干城村７鄰吉興路三段９８６號",
                "original_address": "花蓮縣吉安鄉吉興路三段986號",
                "full_address": "花蓮縣吉安鄉吉興路三段986號",
                "row_number": 15
            },
            "geometry": {
                "type": "Point",
                "coordinates": [
                    121.556348,
                    23.938989
                ]
            }
        },
        {
            "type": "Feature",
            "properties": {
                "town": "吉安鄉",
                "name": "汐沐民宿- 海景Villa",
                "contact": "03-9566862\n03-9108509",
                "room_info": "房間數量請電洽",
                "address": "花蓮縣吉安鄉名人103號",
                "fee": "災民優先",
                "geocoded": true,
                "autocomplete_address": "花蓮縣吉安鄉東昌村３７鄰名人１０３號",
                "original_address": "花蓮縣吉安鄉名人103號",
                "full_address": "花蓮縣吉安鄉名人103號",
                "row_number": 16
            },
            "geometry": {
                "type": "Point",
                "coordinates": [
                    121.604856,
                    23.955974
                ]
            }
        },
        {
            "type": "Feature",
            "properties": {
                "town": "吉安鄉",
                "name": "融舍Villa",
                "contact": "0925-100-381",
                "room_info": "房間數量請電洽",
                "address": "花蓮縣吉安鄉光華村永華二街49號",
                "fee": "災民優先",
                "geocoded": true,
                "autocomplete_address": "花蓮縣吉安鄉光華村８鄰永華二街４９號",
                "original_address": "花蓮縣吉安鄉光華村永華二街49號",
                "full_address": "花蓮縣吉安鄉光華村永華二街49號",
                "row_number": 17
            },
            "geometry": {
                "type": "Point",
                "coordinates": [
                    121.57988,
                    23.940734
                ]
            }
        },
        {
            "type": "Feature",
            "properties": {
                "town": "吉安鄉",
                "name": "風眠會館",
                "contact": "0905-663-796",
                "address": "花蓮縣吉安鄉舊村四街301號",
                "fee": "災民優先",
                "geocoded": true,
                "autocomplete_address": "花蓮縣吉安鄉福興村１９鄰舊村四街３０１號",
                "original_address": "花蓮縣吉安鄉舊村四街301號",
                "full_address": "花蓮縣吉安鄉舊村四街301號",
                "row_number": 18
            },
            "geometry": {
                "type": "Point",
                "coordinates": [
                    121.559463,
                    23.962219
                ]
            }
        },
        {
            "type": "Feature",
            "properties": {
                "town": "吉安鄉",
                "name": "半山度民宿",
                "contact": "0905-663-796",
                "address": "花蓮縣吉安鄉文化二街120巷21弄12號",
                "fee": "災民優先",
                "geocoded": true,
                "autocomplete_address": "花蓮縣吉安鄉南昌村２３鄰文化二街１２０巷２１弄１２號",
                "original_address": "花蓮縣吉安鄉文化二街120巷21弄12號",
                "full_address": "花蓮縣吉安鄉文化二街120巷21弄12號",
                "row_number": 19
            },
            "geometry": {
                "type": "Point",
                "coordinates": [
                    121.579985,
                    23.967971
                ]
            }
        },
        {
            "type": "Feature",
            "properties": {
                "town": "吉安鄉",
                "name": "娜吉瑪民宿",
                "contact": "0916-292-733",
                "room_info": "2間房",
                "address": "花蓮縣吉安鄉華城九街105號",
                "fee": "災民優先",
                "geocoded": true,
                "autocomplete_address": "花蓮縣吉安鄉光華村９鄰華城九街１０５號",
                "original_address": "花蓮縣吉安鄉華城九街105號",
                "full_address": "花蓮縣吉安鄉華城九街105號",
                "row_number": 20
            },
            "geometry": {
                "type": "Point",
                "coordinates": [
                    121.576573,
                    23.932858
                ]
            }
        },
        {
            "type": "Feature",
            "properties": {
                "town": "吉安鄉",
                "name": "海泱民宿",
                "contact": "0912-522-611",
                "room_info": "5間房",
                "address": "花蓮縣吉安鄉中正路二段186巷25號",
                "fee": "災民優先",
                "geocoded": true,
                "autocomplete_address": "花蓮縣吉安鄉仁和村３６鄰中正路二段１８６巷２５號",
                "original_address": "花蓮縣吉安鄉中正路二段186巷25號",
                "full_address": "花蓮縣吉安鄉中正路二段186巷25號",
                "row_number": 21
            },
            "geometry": {
                "type": "Point",
                "coordinates": [
                    121.585282,
                    23.959173
                ]
            }
        },
        {
            "type": "Feature",
            "properties": {
                "town": "吉安鄉",
                "name": "小敏民宿",
                "contact": "0972-147-183",
                "room_info": "4間房",
                "address": "花蓮縣吉安鄉舊村六街137號",
                "fee": "災民優先",
                "geocoded": true,
                "autocomplete_address": "花蓮縣吉安鄉福興村１４鄰舊村六街１３７號",
                "original_address": "花蓮縣吉安鄉舊村六街137號",
                "full_address": "花蓮縣吉安鄉舊村六街137號",
                "row_number": 22
            },
            "geometry": {
                "type": "Point",
                "coordinates": [
                    121.561545,
                    23.966234
                ]
            }
        },
        {
            "type": "Feature",
            "properties": {
                "town": "吉安鄉",
                "name": "森林中民宿",
                "date": "9\/27-10\/3",
                "contact": "Line: @treetree",
                "address": "花蓮縣吉安鄉知卡宣大道一段36號",
                "geocoded": true,
                "autocomplete_address": "花蓮縣吉安鄉仁安村１８鄰知卡宣大道一段３６號",
                "original_address": "花蓮縣吉安鄉知卡宣大道一段36號",
                "full_address": "花蓮縣吉安鄉知卡宣大道一段36號",
                "row_number": 23
            },
            "geometry": {
                "type": "Point",
                "coordinates": [
                    121.593949,
                    23.941834
                ]
            }
        },
        {
            "type": "Feature",
            "properties": {
                "town": "吉安鄉",
                "name": "皇家溪畔",
                "date": "9\/24–26",
                "contact": "0922-652-000",
                "room_info": "雙人房 2 間、四人房 2 間",
                "address": "花蓮縣吉安鄉吉祥十二街6號",
                "source": "花蓮國際民宿協會",
                "geocoded": true,
                "autocomplete_address": "花蓮縣吉安鄉宜昌村２５鄰吉祥十二街６號",
                "original_address": "花蓮縣吉安鄉吉祥十二街6號",
                "full_address": "花蓮縣吉安鄉吉祥十二街6號",
                "row_number": 24
            },
            "geometry": {
                "type": "Point",
                "coordinates": [
                    121.584446,
                    23.975781
                ]
            }
        },
        {
            "type": "Feature",
            "properties": {
                "town": "吉安鄉",
                "name": "皇家溪畔民宿",
                "date": "9\/27-9\/28",
                "contact": "0922-652-000",
                "room_info": "提供12人",
                "address": "花蓮縣吉安鄉吉祥十二街6號",
                "geocoded": true,
                "autocomplete_address": "花蓮縣吉安鄉宜昌村２５鄰吉祥十二街６號",
                "original_address": "花蓮縣吉安鄉吉祥十二街6號",
                "full_address": "花蓮縣吉安鄉吉祥十二街6號",
                "row_number": 25
            },
            "geometry": {
                "type": "Point",
                "coordinates": [
                    121.584446,
                    23.975781
                ]
            }
        },
        {
            "type": "Feature",
            "properties": {
                "town": "吉安鄉",
                "name": "教授的家民宿",
                "date": "9\/24–26",
                "contact": "0972-782-008",
                "room_info": "雙人房 1 間、四人房 1 間、三人房 2 間",
                "address": "花蓮縣吉安鄉吉豐路一段16巷11號973",
                "source": "花蓮國際民宿協會",
                "geocoded": true,
                "autocomplete_address": "花蓮縣吉安鄉仁里村２０鄰吉豐路一段１６巷１１號",
                "original_address": "花蓮縣吉安鄉吉豐路一段16巷11號973",
                "full_address": "花蓮縣吉安鄉吉豐路一段16巷11號973",
                "row_number": 26
            },
            "geometry": {
                "type": "Point",
                "coordinates": [
                    121.588012,
                    23.964896
                ]
            }
        },
        {
            "type": "Feature",
            "properties": {
                "town": "吉安鄉",
                "name": "晨曉家",
                "date": "~9\/28",
                "contact": "0915-755-779",
                "room_info": "雙人房、四人房",
                "address": "花蓮縣吉安鄉吉昌二街246巷5號",
                "source": "花蓮國際民宿協會",
                "geocoded": true,
                "autocomplete_address": "花蓮縣吉安鄉吉安村２２鄰吉昌二街２４６巷５號",
                "original_address": "花蓮縣吉安鄉吉昌二街246巷5號",
                "full_address": "花蓮縣吉安鄉吉昌二街246巷5號",
                "row_number": 27
            },
            "geometry": {
                "type": "Point",
                "coordinates": [
                    121.562162,
                    23.971153
                ]
            }
        },
        {
            "type": "Feature",
            "properties": {
                "town": "吉安鄉",
                "name": "森林中民宿",
                "date": "9\/26-10\/3",
                "contact": "Line: @treetree",
                "room_info": "四人房兩間（免費提供\/不選房型）",
                "address": "花蓮縣吉安鄉知卡宣大道一段36號",
                "source": "threads",
                "notes": "通往光復的台鐵單程車程約30-50分鐘",
                "geocoded": true,
                "autocomplete_address": "花蓮縣吉安鄉仁安村１８鄰知卡宣大道一段３６號",
                "original_address": "花蓮縣吉安鄉知卡宣大道一段36號",
                "full_address": "花蓮縣吉安鄉知卡宣大道一段36號",
                "row_number": 28
            },
            "geometry": {
                "type": "Point",
                "coordinates": [
                    121.593949,
                    23.941834
                ]
            }
        },
        {
            "type": "Feature",
            "properties": {
                "town": "吉安鄉",
                "name": "愛分享",
                "date": "9\/24–9\/25",
                "contact": "0987-136-397",
                "room_info": "雙人房 2 間",
                "address": "花蓮縣吉安鄉北昌二街6巷12弄1號",
                "source": "花蓮國際民宿協會",
                "geocoded": true,
                "autocomplete_address": "花蓮縣吉安鄉北昌村６鄰北昌二街６巷１２弄１號",
                "original_address": "花蓮縣吉安鄉北昌二街6巷12弄1號",
                "full_address": "花蓮縣吉安鄉北昌二街6巷12弄1號",
                "row_number": 29
            },
            "geometry": {
                "type": "Point",
                "coordinates": [
                    121.595154,
                    23.98573
                ]
            }
        },
        {
            "type": "Feature",
            "properties": {
                "town": "吉安鄉",
                "name": "溫蒂花園民宿",
                "date": "9\/27-9\/29",
                "contact": "0937-164-537",
                "room_info": "提供8人",
                "address": "花蓮縣吉安鄉明義六街25號",
                "geocoded": true,
                "autocomplete_address": "花蓮縣吉安鄉太昌村１４鄰明義六街２５號",
                "original_address": "花蓮縣吉安鄉明義六街25號",
                "full_address": "花蓮縣吉安鄉明義六街25號",
                "row_number": 30
            },
            "geometry": {
                "type": "Point",
                "coordinates": [
                    121.559066,
                    23.996193
                ]
            }
        },
        {
            "type": "Feature",
            "properties": {
                "town": "吉安鄉",
                "name": "遊山水民宿",
                "date": "9\/29-10\/9",
                "contact": "0909-018-882\nLine: @bva6531t",
                "address": "吉安鄉仁和村中正路二段",
                "geocoded": true,
                "autocomplete_address": "花蓮縣吉安鄉仁和村１鄰中正路二段６號",
                "original_address": "吉安鄉仁和村中正路二段",
                "full_address": "花蓮縣吉安鄉仁和村中正路二段",
                "row_number": 31
            },
            "geometry": {
                "type": "Point",
                "coordinates": [
                    121.589597,
                    23.964135
                ]
            }
        },
        {
            "type": "Feature",
            "properties": {
                "town": "吉安鄉",
                "name": "稻•彩虹包棟民宿",
                "contact": "0936602410王小姐",
                "room_info": "免費提供救災人員、受災戶10間房間免費住宿",
                "address": "吉安鄉吉興路3段539號",
                "source": "threads @tingjin0221",
                "geocoded": true,
                "autocomplete_address": "花蓮縣吉安鄉永興村２０鄰吉興路三段５３９號",
                "original_address": "吉安鄉吉興路3段539號",
                "full_address": "花蓮縣吉安鄉吉興路3段539號",
                "row_number": 32
            },
            "geometry": {
                "type": "Point",
                "coordinates": [
                    121.562658,
                    23.947657
                ]
            }
        },
        {
            "type": "Feature",
            "properties": {
                "town": "吉安鄉",
                "name": "隨心所寓",
                "date": "9\/24–9\/26",
                "contact": "0939-983-625",
                "room_info": "四人房 4 間",
                "address": "花蓮縣吉安鄉慶北一街239號",
                "source": "花蓮國際民宿協會",
                "geocoded": true,
                "autocomplete_address": "花蓮縣吉安鄉慶豐村３９鄰慶北一街２３９號",
                "original_address": "花蓮縣吉安鄉慶北一街239號",
                "full_address": "花蓮縣吉安鄉慶北一街239號",
                "row_number": 33
            },
            "geometry": {
                "type": "Point",
                "coordinates": [
                    121.563138,
                    23.982732
                ]
            }
        },
        {
            "type": "Feature",
            "properties": {
                "town": "吉安鄉",
                "name": "檜木居民宿",
                "date": "9\/29-10\/3",
                "contact": "03-8546535",
                "room_info": "兩間房間（每人基本限住兩晚，特殊情況可討論。）",
                "address": "花蓮縣吉安鄉慈惠一街58號",
                "source": "檜木居 Cypresshouse",
                "geocoded": true,
                "autocomplete_address": "花蓮縣吉安鄉勝安村２３鄰慈惠一街５８號",
                "original_address": "花蓮縣吉安鄉慈惠一街58號",
                "full_address": "花蓮縣吉安鄉慈惠一街58號",
                "row_number": 34
            },
            "geometry": {
                "type": "Point",
                "coordinates": [
                    121.58519,
                    23.976178
                ]
            }
        },
        {
            "type": "Feature",
            "properties": {
                "town": "吉安鄉",
                "name": "藍天普悠瑪民宿",
                "date": "9\/29~10\/3",
                "contact": "0919345086",
                "room_info": "雙人房3間、四人房4間、六人房2間",
                "address": "花蓮縣吉安鄉太昌路433號",
                "source": "花蓮國際民宿協會",
                "geocoded": true,
                "autocomplete_address": "花蓮縣吉安鄉太昌村７鄰太昌路４３３號",
                "original_address": "花蓮縣吉安鄉太昌路433號",
                "full_address": "花蓮縣吉安鄉太昌路433號",
                "row_number": 35
            },
            "geometry": {
                "type": "Point",
                "coordinates": [
                    121.566377,
                    23.991879
                ]
            }
        },
        {
            "type": "Feature",
            "properties": {
                "town": "吉安鄉",
                "name": "No.Six 花蓮六號民宿",
                "contact": "Line: @sixbnb",
                "room_info": "需直接聯繫店家帳號詢問空房",
                "address": "花蓮縣吉安鄉明義五街80巷6號",
                "source": "threads:@chillhualien",
                "notes": "花蓮火車站附近後站館-沐青文旅，或吉安館，需再確認",
                "geocoded": true,
                "autocomplete_address": "花蓮縣吉安鄉太昌村１２鄰明義五街８０巷６號",
                "original_address": "花蓮縣吉安鄉明義五街80巷6號",
                "full_address": "花蓮縣吉安鄉明義五街80巷6號",
                "row_number": 36
            },
            "geometry": {
                "type": "Point",
                "coordinates": [
                    121.563268,
                    23.993335
                ]
            }
        },
        {
            "type": "Feature",
            "properties": {
                "town": "其他縣市",
                "name": "鹿野結米家",
                "date": "9\/28-10\/3",
                "contact": "0910-696-072",
                "room_info": "背包混合房上下鋪床位每日6位",
                "address": "台東縣鹿野鄉和平路15巷1號",
                "source": "鹿野結米家",
                "geocoded": true,
                "autocomplete_address": "臺東縣鹿野鄉鹿野村３鄰和平路１５巷１號",
                "original_address": "台東縣鹿野鄉和平路15巷1號",
                "full_address": "花蓮縣台東縣鹿野鄉和平路15巷1號",
                "row_number": 37
            },
            "geometry": {
                "type": "Point",
                "coordinates": [
                    121.13567,
                    22.893521
                ]
            }
        },
        {
            "type": "Feature",
            "properties": {
                "town": "其他縣市",
                "name": "台東照間民宿",
                "date": "9\/29-10\/9",
                "contact": "Line: @terumahouse",
                "room_info": "兩大床四人房、上下舖四人房、兩小床雙人房、一大床雙人房",
                "address": "台東縣台東市樂利路27巷15號",
                "geocoded": true,
                "autocomplete_address": "臺東縣臺東市岩灣里１３鄰樂利路２７巷１５號",
                "original_address": "台東縣台東市樂利路27巷15號",
                "full_address": "花蓮縣台東縣台東市樂利路27巷15號",
                "row_number": 38
            },
            "geometry": {
                "type": "Point",
                "coordinates": [
                    121.127408,
                    22.798248
                ]
            }
        },
        {
            "type": "Feature",
            "properties": {
                "town": "其他縣市",
                "name": "宜蘭南澳 星光碧后民宿",
                "date": "9\/27-10\/2",
                "contact": "Line: @925tljey",
                "room_info": "背包房床位（男女混合）",
                "address": "宜蘭縣南澳鄉碧候村自治巷2號",
                "notes": "到光復需先到花蓮再轉車。離光復雖然比較遠，但可以作為從北台灣到花蓮去程或回程的中繼站",
                "geocoded": true,
                "autocomplete_address": "宜蘭縣南澳鄉碧候村８鄰碧候路自治巷２號",
                "original_address": "宜蘭縣南澳鄉碧候村自治巷2號",
                "full_address": "花蓮縣宜蘭縣南澳鄉碧候村自治巷2號",
                "row_number": 39
            },
            "geometry": {
                "type": "Point",
                "coordinates": [
                    121.785906,
                    24.473941
                ]
            }
        },
        {
            "type": "Feature",
            "properties": {
                "town": "其他縣市",
                "name": "月光祝福民宿",
                "date": "45927",
                "contact": "Line: @383zkqtl",
                "room_info": "志工免費背包床位（需提前預約，依空房情況安排）",
                "address": "台東縣成功鎮豐田路65號",
                "source": "threads",
                "notes": "⚠️我們家雖然距離光復有段距離（開車近2小時\/90公里）\n但如果有交通工具，\n很適合做為前泊或結束幫忙之後安心好眠的地方。\n(統一以官方line訊息回覆為準)",
                "geocoded": true,
                "autocomplete_address": "臺東縣成功鎮信義里２５鄰豐田路６５號",
                "original_address": "台東縣成功鎮豐田路65號",
                "full_address": "花蓮縣台東縣成功鎮豐田路65號",
                "row_number": 40
            },
            "geometry": {
                "type": "Point",
                "coordinates": [
                    121.336791,
                    23.04871
                ]
            }
        },
        {
            "type": "Feature",
            "properties": {
                "town": "其他縣市",
                "name": "台東旅食盒子",
                "date": "9\/24-9\/28",
                "contact": "0911-800-683",
                "room_info": "上下舖共6床",
                "address": "台東縣長濱鄉樟原村樟原15號",
                "fee": "災民優先",
                "geocoded": true,
                "autocomplete_address": "臺東縣長濱鄉樟原村２鄰樟原１５號",
                "original_address": "台東縣長濱鄉樟原村樟原15號",
                "full_address": "花蓮縣台東縣長濱鄉樟原村樟原15號",
                "row_number": 41
            },
            "geometry": {
                "type": "Point",
                "coordinates": [
                    121.483099,
                    23.413433
                ]
            }
        },
        {
            "type": "Feature",
            "properties": {
                "town": "其他縣市",
                "name": "台東小心沙發SUP背包客",
                "date": "9\/24-9\/27",
                "contact": "0909-010-857",
                "room_info": "上下舖共6床",
                "address": "台東縣成功鎮美山路55號",
                "fee": "災民優先",
                "geocoded": true,
                "autocomplete_address": "臺東縣成功鎮忠孝里２鄰美山路５５號",
                "original_address": "台東縣成功鎮美山路55號",
                "full_address": "花蓮縣台東縣成功鎮美山路55號",
                "row_number": 42
            },
            "geometry": {
                "type": "Point",
                "coordinates": [
                    121.397237,
                    23.150914
                ]
            }
        },
        {
            "type": "Feature",
            "properties": {
                "town": "其他縣市",
                "name": "台東鹿野結米家背包客棧",
                "date": "即日起至9\/30",
                "contact": "0910-696-072",
                "room_info": "上下舖共6床",
                "address": "台東縣鹿野鄉和平路15巷1號",
                "fee": "災民優先",
                "geocoded": true,
                "autocomplete_address": "臺東縣鹿野鄉鹿野村３鄰和平路１５巷１號",
                "original_address": "台東縣鹿野鄉和平路15巷1號",
                "full_address": "花蓮縣台東縣鹿野鄉和平路15巷1號",
                "row_number": 43
            },
            "geometry": {
                "type": "Point",
                "coordinates": [
                    121.13567,
                    22.893521
                ]
            }
        },
        {
            "type": "Feature",
            "properties": {
                "town": "其他縣市",
                "name": "台東晃晃46圖書適",
                "date": "9\/29-10\/7(10\/2除外)",
                "contact": "0914-073-170",
                "room_info": "四人房",
                "address": "台東市漢陽南路139-1號",
                "fee": "災民優先",
                "geocoded": true,
                "autocomplete_address": "花蓮縣花蓮市民政里１鄰中美路１３９之１號",
                "original_address": "台東市漢陽南路139-1號",
                "full_address": "花蓮縣台東市漢陽南路139-1號",
                "row_number": 44
            },
            "geometry": {
                "type": "Point",
                "coordinates": [
                    121.62765,
                    23.993785
                ]
            }
        },
        {
            "type": "Feature",
            "properties": {
                "town": "花蓮市",
                "name": "小羊房",
                "date": "9\/27-10\/3",
                "contact": "Line: @cozybnb",
                "address": "花蓮縣花蓮市延平街148巷5號",
                "notes": "9\/30 前已額滿",
                "geocoded": true,
                "autocomplete_address": "花蓮縣花蓮市國魂里１８鄰延平街１４８巷５號",
                "original_address": "花蓮縣花蓮市延平街148巷5號",
                "full_address": "花蓮縣花蓮市延平街148巷5號",
                "row_number": 45
            },
            "geometry": {
                "type": "Point",
                "coordinates": [
                    121.598995,
                    23.986101
                ]
            }
        },
        {
            "type": "Feature",
            "properties": {
                "town": "花蓮市",
                "name": "國廣興大飯店",
                "date": "即日起到10\/5",
                "contact": "03-833-8882",
                "room_info": "每日開放 15間房",
                "address": "花蓮縣花蓮市國聯五路223號",
                "fee": "救難隊優先",
                "source": "https:\/\/www.facebook.com\/share\/p\/19hehBQbCp\/",
                "geocoded": true,
                "autocomplete_address": "花蓮縣花蓮市國聯里３３鄰國聯五路２２３號",
                "original_address": "花蓮縣花蓮市國聯五路223號",
                "full_address": "花蓮縣花蓮市國聯五路223號",
                "row_number": 46
            },
            "geometry": {
                "type": "Point",
                "coordinates": [
                    121.604351,
                    23.995179
                ]
            }
        },
        {
            "type": "Feature",
            "properties": {
                "town": "花蓮市",
                "name": "小旅行迷你公寓背包客棧",
                "date": "9\/25-10\/3",
                "contact": "LINE: @mini103",
                "address": "花蓮縣花蓮市國聯一路103號",
                "source": "https:\/\/www.facebook.com\/share\/v\/16vSY2TuJ7\/",
                "notes": "每人限住兩晚",
                "geocoded": true,
                "autocomplete_address": "花蓮縣花蓮市國聯里２３鄰國聯一路１０３號",
                "original_address": "花蓮縣花蓮市國聯一路103號",
                "full_address": "花蓮縣花蓮市國聯一路103號",
                "row_number": 47
            },
            "geometry": {
                "type": "Point",
                "coordinates": [
                    121.602639,
                    23.991001
                ]
            }
        },
        {
            "type": "Feature",
            "properties": {
                "town": "花蓮市",
                "name": "云花民宿",
                "date": "~10\/8",
                "contact": "LINE: @mini103",
                "room_info": "雙人房 5 間",
                "address": "花蓮縣花蓮市主工里2鄰中正路475號",
                "source": "花蓮國際民宿協會",
                "geocoded": true,
                "autocomplete_address": "花蓮縣花蓮市主工里２鄰中正路４７５號",
                "original_address": "花蓮縣花蓮市主工里2鄰中正路475號",
                "full_address": "花蓮縣花蓮市主工里2鄰中正路475號",
                "row_number": 48
            },
            "geometry": {
                "type": "Point",
                "coordinates": [
                    121.60542,
                    23.976084
                ]
            }
        },
        {
            "type": "Feature",
            "properties": {
                "town": "花蓮市",
                "name": "五葉松民宿",
                "date": "9\/29~10\/2",
                "contact": "0926-898-168",
                "room_info": "四人房1間、雙人房1間",
                "address": "花蓮縣花蓮市介林三街25號",
                "source": "花蓮國際民宿協會",
                "geocoded": true,
                "autocomplete_address": "花蓮縣花蓮市國興里１９鄰介林三街２５號",
                "original_address": "花蓮縣花蓮市介林三街25號",
                "full_address": "花蓮縣花蓮市介林三街25號",
                "row_number": 49
            },
            "geometry": {
                "type": "Point",
                "coordinates": [
                    121.571675,
                    23.994771
                ]
            }
        },
        {
            "type": "Feature",
            "properties": {
                "town": "花蓮市",
                "name": "今古安民宿",
                "contact": "0928-877333",
                "room_info": "五間房間",
                "address": "花蓮縣花蓮市重慶路353巷30號",
                "geocoded": true,
                "autocomplete_address": "花蓮縣花蓮市主計里３鄰重慶路３５３巷３０號",
                "original_address": "花蓮縣花蓮市重慶路353巷30號",
                "full_address": "花蓮縣花蓮市重慶路353巷30號",
                "row_number": 50
            },
            "geometry": {
                "type": "Point",
                "coordinates": [
                    121.608183,
                    23.972644
                ]
            }
        },
        {
            "type": "Feature",
            "properties": {
                "town": "花蓮市",
                "name": "日暘民宿",
                "contact": "0928-299567",
                "address": "花蓮縣花蓮市海濱街16號",
                "geocoded": true,
                "autocomplete_address": "花蓮縣花蓮市民主里１２鄰海濱街１６號",
                "original_address": "花蓮縣花蓮市海濱街16號",
                "full_address": "花蓮縣花蓮市海濱街16號",
                "row_number": 51
            },
            "geometry": {
                "type": "Point",
                "coordinates": [
                    121.614146,
                    23.972149
                ]
            }
        },
        {
            "type": "Feature",
            "properties": {
                "town": "花蓮市",
                "name": "艾米爾民宿",
                "contact": "0905-723686",
                "address": "花蓮縣花蓮市國興二街100號",
                "geocoded": true,
                "autocomplete_address": "花蓮縣花蓮市國聯里１４鄰國興二街１００號",
                "original_address": "花蓮縣花蓮市國興二街100號",
                "full_address": "花蓮縣花蓮市國興二街100號",
                "row_number": 52
            },
            "geometry": {
                "type": "Point",
                "coordinates": [
                    121.602467,
                    23.99026
                ]
            }
        },
        {
            "type": "Feature",
            "properties": {
                "town": "花蓮市",
                "name": "找一家民宿",
                "date": "9\/27-9\/28",
                "contact": "03-8511728",
                "room_info": "提供8人",
                "address": "花蓮縣花蓮市仁和街7號",
                "notes": "@mini103\/ 0987-238150",
                "geocoded": true,
                "autocomplete_address": "花蓮縣花蓮市主權里５鄰仁和街７號",
                "original_address": "花蓮縣花蓮市仁和街7號",
                "full_address": "花蓮縣花蓮市仁和街7號",
                "row_number": 53
            },
            "geometry": {
                "type": "Point",
                "coordinates": [
                    121.591956,
                    23.975133
                ]
            }
        },
        {
            "type": "Feature",
            "properties": {
                "town": "花蓮市",
                "name": "貝拉利亞民宿",
                "contact": "0921-868258",
                "address": "花蓮縣花蓮市民族路57號",
                "geocoded": true,
                "autocomplete_address": "花蓮縣花蓮市民運里１鄰民族路５７號",
                "original_address": "花蓮縣花蓮市民族路57號",
                "full_address": "花蓮縣花蓮市民族路57號",
                "row_number": 54
            },
            "geometry": {
                "type": "Point",
                "coordinates": [
                    121.630081,
                    23.995773
                ]
            }
        },
        {
            "type": "Feature",
            "properties": {
                "town": "花蓮市",
                "name": "朋友的家",
                "date": "9\/27-10\/2",
                "contact": "0978161109",
                "room_info": "雙人房1間、四人房1間",
                "address": "花蓮縣花蓮市國興四街6號",
                "source": "Threads:@ting_eeeee",
                "geocoded": true,
                "autocomplete_address": "花蓮縣花蓮市國聯里１９鄰國興四街６號",
                "original_address": "花蓮縣花蓮市國興四街6號",
                "full_address": "花蓮縣花蓮市國興四街6號",
                "row_number": 55
            },
            "geometry": {
                "type": "Point",
                "coordinates": [
                    121.604861,
                    23.989531
                ]
            }
        },
        {
            "type": "Feature",
            "properties": {
                "town": "花蓮市",
                "name": "洄瀾窩青年旅舍",
                "date": "9\/25-9\/30",
                "contact": "Line: @wowhostel",
                "address": "花蓮市國聯一路83號",
                "geocoded": true,
                "autocomplete_address": "花蓮縣花蓮市國聯里２４鄰國聯一路８３號",
                "original_address": "花蓮市國聯一路83號",
                "full_address": "花蓮縣花蓮市國聯一路83號",
                "row_number": 56
            },
            "geometry": {
                "type": "Point",
                "coordinates": [
                    121.603058,
                    23.991671
                ]
            }
        },
        {
            "type": "Feature",
            "properties": {
                "town": "花蓮市",
                "name": "洞潤雅舍民宿",
                "contact": "0922-888659",
                "address": "花蓮市國聯一路78號",
                "geocoded": true,
                "autocomplete_address": "花蓮縣花蓮市國聯里２４鄰國聯一路７９號",
                "original_address": "花蓮市國聯一路78號",
                "full_address": "花蓮縣花蓮市國聯一路78號",
                "row_number": 57
            },
            "geometry": {
                "type": "Point",
                "coordinates": [
                    121.603221,
                    23.991914
                ]
            }
        },
        {
            "type": "Feature",
            "properties": {
                "town": "花蓮市",
                "name": "茉白民宿",
                "date": "9\/24–9\/25",
                "contact": "0972-244-710",
                "room_info": "四人房 3 間",
                "address": "花蓮縣花蓮市北濱街8號",
                "source": "花蓮國際民宿協會",
                "geocoded": true,
                "autocomplete_address": "花蓮縣花蓮市民主里８鄰北濱街８號",
                "original_address": "花蓮縣花蓮市北濱街8號",
                "full_address": "花蓮縣花蓮市北濱街8號",
                "row_number": 58
            },
            "geometry": {
                "type": "Point",
                "coordinates": [
                    121.613786,
                    23.97323
                ]
            }
        },
        {
            "type": "Feature",
            "properties": {
                "town": "花蓮市",
                "name": "彩色窩民宿",
                "date": "9\/30-10\/2",
                "contact": "0918 228 870",
                "room_info": "雙人房1間、四人房1間",
                "address": "花蓮縣花蓮市仁和街8號",
                "source": "花蓮國際民宿協會",
                "geocoded": true,
                "autocomplete_address": "花蓮縣花蓮市主權里５鄰仁和街８號",
                "original_address": "花蓮縣花蓮市仁和街8號",
                "full_address": "花蓮縣花蓮市仁和街8號",
                "row_number": 59
            },
            "geometry": {
                "type": "Point",
                "coordinates": [
                    121.591977,
                    23.975175
                ]
            }
        },
        {
            "type": "Feature",
            "properties": {
                "town": "花蓮市",
                "name": "捷樂",
                "date": "9\/24–9\/25",
                "contact": "0927-820-319",
                "room_info": "四人房 1 間、雙人房 1 間",
                "address": "花蓮縣花蓮市復興街33-15號",
                "source": "花蓮國際民宿協會",
                "geocoded": true,
                "autocomplete_address": "花蓮縣花蓮市民生里７鄰復興街３３之１５號",
                "original_address": "花蓮縣花蓮市復興街33-15號",
                "full_address": "花蓮縣花蓮市復興街33-15號",
                "row_number": 60
            },
            "geometry": {
                "type": "Point",
                "coordinates": [
                    121.609308,
                    23.977893
                ]
            }
        },
        {
            "type": "Feature",
            "properties": {
                "town": "花蓮市",
                "name": "椰風時尚二館民宿",
                "date": "9\/27-9\/28",
                "contact": "0939983625",
                "room_info": "提供12人",
                "address": "花蓮縣花蓮市林森路361巷4弄10號",
                "geocoded": true,
                "autocomplete_address": "花蓮縣花蓮市國華里９鄰林森路３６１巷４弄１０號",
                "original_address": "花蓮縣花蓮市林森路361巷4弄10號",
                "full_address": "花蓮縣花蓮市林森路361巷4弄10號",
                "row_number": 61
            },
            "geometry": {
                "type": "Point",
                "coordinates": [
                    121.603781,
                    23.982198
                ]
            }
        },
        {
            "type": "Feature",
            "properties": {
                "town": "花蓮市",
                "name": "窩二樓",
                "contact": "0906-165-765",
                "room_info": "1️⃣ #想預訂床位的志工 (9\/27-28額滿)\n2️⃣ #不一定非要睡床的志工(9\/27-28額滿)\n3️⃣只想洗個澡的志工(12:00-20:00)",
                "address": "花蓮縣花蓮市國聯一路125號",
                "fee": "300",
                "source": "WorldInn 窩二樓小客棧FB\n9\/27-28 已額滿",
                "geocoded": true,
                "autocomplete_address": "花蓮縣花蓮市國聯里１４鄰國聯一路１２５號",
                "original_address": "花蓮縣花蓮市國聯一路125號",
                "full_address": "花蓮縣花蓮市國聯一路125號",
                "row_number": 62
            },
            "geometry": {
                "type": "Point",
                "coordinates": [
                    121.602145,
                    23.990507
                ]
            }
        },
        {
            "type": "Feature",
            "properties": {
                "town": "花蓮市",
                "name": "綠道74",
                "date": "9\/24-25",
                "room_info": "四人房2間",
                "address": "花蓮縣花蓮市信義街74號",
                "source": "花蓮國際民宿協會",
                "geocoded": true,
                "autocomplete_address": "花蓮縣花蓮市主工里１４鄰信義街７４號",
                "original_address": "花蓮縣花蓮市信義街74號",
                "full_address": "花蓮縣花蓮市信義街74號",
                "row_number": 63
            },
            "geometry": {
                "type": "Point",
                "coordinates": [
                    121.601938,
                    23.977354
                ]
            }
        },
        {
            "type": "Feature",
            "properties": {
                "town": "花蓮市",
                "name": "翼想旅宿",
                "date": "10／15前",
                "contact": "line [@winwing]\n@bzt5459i",
                "room_info": "雙人套房",
                "address": "花蓮縣花蓮市國盛里15鄰國盛一街54號",
                "fee": "不限平假日住宿一律收$600成本費，十月中秋連假期間也只收$1200",
                "source": "fb",
                "notes": "清潔費及水電成本（個人衛生用品請自備）",
                "geocoded": true,
                "autocomplete_address": "花蓮縣花蓮市國盛里１５鄰國盛一街５４號",
                "original_address": "花蓮縣花蓮市國盛里15鄰國盛一街54號",
                "full_address": "花蓮縣花蓮市國盛里15鄰國盛一街54號",
                "row_number": 64
            },
            "geometry": {
                "type": "Point",
                "coordinates": [
                    121.606545,
                    23.990204
                ]
            }
        },
        {
            "type": "Feature",
            "properties": {
                "town": "花蓮市",
                "name": "花蓮旅充人文青年旅館",
                "date": "至10\/3(視情況可能延長)",
                "contact": "私訊粉專",
                "address": "花蓮縣花蓮市富國路138號",
                "source": "fb",
                "geocoded": true,
                "autocomplete_address": "花蓮縣花蓮市國富里２１鄰富國路１３８號",
                "original_address": "花蓮縣花蓮市富國路138號",
                "full_address": "花蓮縣花蓮市富國路138號",
                "row_number": 65
            },
            "geometry": {
                "type": "Point",
                "coordinates": [
                    121.594034,
                    23.989622
                ]
            }
        },
        {
            "type": "Feature",
            "properties": {
                "town": "新城鄉",
                "name": "小魚的家民宿",
                "contact": "0935 977 060",
                "address": "花蓮縣新城鄉新城村中正路23巷23號",
                "source": "fb",
                "geocoded": true,
                "autocomplete_address": "花蓮縣新城鄉新城村９鄰中正路２３巷２３號",
                "original_address": "花蓮縣新城鄉新城村中正路23巷23號",
                "full_address": "花蓮縣新城鄉新城村中正路23巷23號",
                "row_number": 66
            },
            "geometry": {
                "type": "Point",
                "coordinates": [
                    121.647055,
                    24.125616
                ]
            }
        },
        {
            "type": "Feature",
            "properties": {
                "town": "富里鄉",
                "name": "美諦斯民宿",
                "date": "9\/27-9\/30",
                "contact": "03-8831678",
                "address": "花蓮縣富里鄉和平街181號",
                "geocoded": true,
                "autocomplete_address": "花蓮縣富里鄉富里村８鄰和平街１８１號",
                "original_address": "花蓮縣富里鄉和平街181號",
                "full_address": "花蓮縣富里鄉和平街181號",
                "row_number": 67
            },
            "geometry": {
                "type": "Point",
                "coordinates": [
                    121.247872,
                    23.176175
                ]
            }
        },
        {
            "type": "Feature",
            "properties": {
                "town": "富里鄉",
                "name": "德德的家民宿",
                "contact": "0933-487282",
                "room_info": "免費提供救災人員住宿，三人雅房*1、雙人雅房*2",
                "address": "花蓮縣富里鄉安靜街6號",
                "geocoded": true,
                "autocomplete_address": "花蓮縣富里鄉東里村９鄰安靜街６號",
                "original_address": "花蓮縣富里鄉安靜街6號",
                "full_address": "花蓮縣富里鄉安靜街6號",
                "row_number": 68
            },
            "geometry": {
                "type": "Point",
                "coordinates": [
                    121.304552,
                    23.266995
                ]
            }
        },
        {
            "type": "Feature",
            "properties": {
                "town": "新城鄉",
                "name": "航道民宿",
                "date": "9\/27-9\/28",
                "contact": "0989707863",
                "room_info": "提供12人",
                "address": "花蓮縣新城鄉嘉里二街112-1號",
                "geocoded": true,
                "autocomplete_address": "花蓮縣新城鄉嘉里村２７鄰嘉里二街１１２之１號",
                "original_address": "花蓮縣新城鄉嘉里二街112-1號",
                "full_address": "花蓮縣新城鄉嘉里二街112-1號",
                "row_number": 69
            },
            "geometry": {
                "type": "Point",
                "coordinates": [
                    121.607895,
                    24.02001
                ]
            }
        },
        {
            "type": "Feature",
            "properties": {
                "town": "瑞穗鄉",
                "name": "瑞穗淖心工坊",
                "contact": "0905-148321",
                "address": "花蓮縣瑞穗鄉中山路三段89號",
                "fee": "災民優先",
                "geocoded": true,
                "autocomplete_address": "花蓮縣瑞穗鄉瑞良村９鄰中山路三段８９號",
                "original_address": "花蓮縣瑞穗鄉中山路三段89號",
                "full_address": "花蓮縣瑞穗鄉中山路三段89號",
                "row_number": 70
            },
            "geometry": {
                "type": "Point",
                "coordinates": [
                    121.396595,
                    23.491426
                ]
            }
        },
        {
            "type": "Feature",
            "properties": {
                "town": "瑞穗鄉",
                "name": "瑞峰溫原民宿",
                "contact": "0933 485 246",
                "room_info": "四人雅房４間、六人雅房1間、八人雅房1間",
                "address": "花蓮縣瑞穗鄉溫泉路三段2巷36-1號",
                "fee": "1人\/$600",
                "geocoded": true,
                "autocomplete_address": "花蓮縣瑞穗鄉瑞祥村１２鄰温泉路三段２巷３６之１號",
                "original_address": "花蓮縣瑞穗鄉溫泉路三段2巷36-1號",
                "full_address": "花蓮縣瑞穗鄉溫泉路三段2巷36-1號",
                "row_number": 71
            },
            "geometry": {
                "type": "Point",
                "coordinates": [
                    121.350804,
                    23.490513
                ]
            }
        },
        {
            "type": "Feature",
            "properties": {
                "town": "瑞穗鄉",
                "name": "穗花田渡假莊園",
                "contact": "0928-077776",
                "room_info": "六間(可容納20-25人)",
                "address": "花蓮縣瑞穗鄉溫泉路一段23巷一弄16號",
                "fee": "災民優先",
                "geocoded": true,
                "autocomplete_address": "花蓮縣瑞穗鄉瑞穗村１９鄰温泉路一段２３巷１弄１６號",
                "original_address": "花蓮縣瑞穗鄉溫泉路一段23巷一弄16號",
                "full_address": "花蓮縣瑞穗鄉溫泉路一段23巷一弄16號",
                "row_number": 72
            },
            "geometry": {
                "type": "Point",
                "coordinates": [
                    121.371301,
                    23.500241
                ]
            }
        },
        {
            "type": "Feature",
            "properties": {
                "town": "瑞穗鄉",
                "name": "美浸瑞穗福音中心",
                "contact": "0909-483333",
                "room_info": "可10-15人",
                "address": "花蓮縣瑞穗鄉中正南路一段71號",
                "fee": "災民優先",
                "geocoded": true,
                "autocomplete_address": "花蓮縣瑞穗鄉瑞穗村２鄰中正南路一段７１號",
                "original_address": "花蓮縣瑞穗鄉中正南路一段71號",
                "full_address": "花蓮縣瑞穗鄉中正南路一段71號",
                "row_number": 73
            },
            "geometry": {
                "type": "Point",
                "coordinates": [
                    121.377578,
                    23.495001
                ]
            }
        },
        {
            "type": "Feature",
            "properties": {
                "town": "瑞穗鄉",
                "name": "瑞穗百香果民宿",
                "contact": "0928-613518",
                "room_info": "四人房1間、雙人房1間",
                "address": "瑞美村中興路57號",
                "fee": "災民優先",
                "geocoded": true,
                "autocomplete_address": "花蓮縣瑞穗鄉瑞美村７鄰中興路５７號",
                "original_address": "瑞美村中興路57號",
                "full_address": "花蓮縣瑞美村中興路57號",
                "row_number": 74
            },
            "geometry": {
                "type": "Point",
                "coordinates": [
                    121.380191,
                    23.494696
                ]
            }
        },
        {
            "type": "Feature",
            "properties": {
                "town": "瑞穗鄉",
                "name": "松邑莊園宿舍",
                "contact": "0987719996",
                "room_info": "三間房",
                "address": "花蓮縣瑞穗鄉溫泉路三段2巷37號",
                "geocoded": true,
                "autocomplete_address": "花蓮縣瑞穗鄉瑞祥村１２鄰温泉路三段２巷３７號",
                "original_address": "花蓮縣瑞穗鄉溫泉路三段2巷37號",
                "full_address": "花蓮縣瑞穗鄉溫泉路三段2巷37號",
                "row_number": 75
            },
            "geometry": {
                "type": "Point",
                "coordinates": [
                    121.351415,
                    23.485365
                ]
            }
        },
        {
            "type": "Feature",
            "properties": {
                "town": "瑞穗鄉",
                "name": "虎爺溫泉",
                "date": "未知",
                "contact": "0911275926 林執行長",
                "room_info": "未知",
                "address": "花蓮縣瑞穗鄉祥北路二段101-5號•03 887 5505",
                "fee": "災民優先",
                "source": "threads",
                "notes": "缺枕頭、缺枕頭150個",
                "geocoded": true,
                "autocomplete_address": "花蓮縣瑞穗鄉瑞祥村３鄰祥北路二段１０１之５號",
                "original_address": "花蓮縣瑞穗鄉祥北路二段101-5號•03 887 5505",
                "full_address": "花蓮縣瑞穗鄉祥北路二段101-5號•03 887 5505",
                "row_number": 76
            },
            "geometry": {
                "type": "Point",
                "coordinates": [
                    121.361365,
                    23.500196
                ]
            }
        },
        {
            "type": "Feature",
            "properties": {
                "town": "瑞穗鄉",
                "name": "幽勝美地民宿",
                "contact": "0928538889",
                "room_info": "一間四人房",
                "address": "花蓮縣瑞穗鄉中山路三段111之6號",
                "geocoded": true,
                "autocomplete_address": "花蓮縣瑞穗鄉瑞良村９鄰中山路三段１１１之６號",
                "original_address": "花蓮縣瑞穗鄉中山路三段111之6號",
                "full_address": "花蓮縣瑞穗鄉中山路三段111之6號",
                "row_number": 77
            },
            "geometry": {
                "type": "Point",
                "coordinates": [
                    121.39786,
                    23.49044
                ]
            }
        },
        {
            "type": "Feature",
            "properties": {
                "town": "瑞穗鄉",
                "name": "瑞比森林",
                "contact": "0912019506",
                "room_info": "兩間房",
                "address": "花蓮縣瑞穗鄉中興路63巷9號",
                "geocoded": true,
                "autocomplete_address": "花蓮縣瑞穗鄉瑞美村７鄰中興路６３巷９號",
                "original_address": "花蓮縣瑞穗鄉中興路63巷9號",
                "full_address": "花蓮縣瑞穗鄉中興路63巷9號",
                "row_number": 78
            },
            "geometry": {
                "type": "Point",
                "coordinates": [
                    121.380436,
                    23.494375
                ]
            }
        },
        {
            "type": "Feature",
            "properties": {
                "town": "瑞穗鄉",
                "name": "農妹子",
                "contact": "03-8872838",
                "room_info": "兩間房",
                "address": "花蓮縣瑞穗鄉國光南路60巷72號",
                "geocoded": true,
                "autocomplete_address": "花蓮縣瑞穗鄉瑞美村６鄰國光南路６０巷７２號",
                "original_address": "花蓮縣瑞穗鄉國光南路60巷72號",
                "full_address": "花蓮縣瑞穗鄉國光南路60巷72號",
                "row_number": 79
            },
            "geometry": {
                "type": "Point",
                "coordinates": [
                    121.379532,
                    23.494502
                ]
            }
        },
        {
            "type": "Feature",
            "properties": {
                "town": "瑞穗鄉",
                "name": "養和屋",
                "contact": "0965-857-377",
                "room_info": "三間房",
                "address": "花蓮縣瑞穗鄉中正北路一段36號",
                "geocoded": true,
                "autocomplete_address": "花蓮縣瑞穗鄉瑞穗村１１鄰中正北路一段３６號",
                "original_address": "花蓮縣瑞穗鄉中正北路一段36號",
                "full_address": "花蓮縣瑞穗鄉中正北路一段36號",
                "row_number": 80
            },
            "geometry": {
                "type": "Point",
                "coordinates": [
                    121.377343,
                    23.498363
                ]
            }
        },
        {
            "type": "Feature",
            "properties": {
                "town": "萬榮鄉",
                "name": "馬遠基督長老教會",
                "date": "即日起至9\/28",
                "contact": "0915-780-615",
                "room_info": "可容納66人",
                "address": "花蓮縣萬榮鄉馬遠村4鄰84號",
                "fee": "災民優先",
                "geocoded": true,
                "autocomplete_address": "花蓮縣萬榮鄉馬遠村４鄰馬遠８４號",
                "original_address": "花蓮縣萬榮鄉馬遠村4鄰84號",
                "full_address": "花蓮縣萬榮鄉馬遠村4鄰84號",
                "row_number": 81
            },
            "geometry": {
                "type": "Point",
                "coordinates": [
                    121.361013,
                    23.578215
                ]
            }
        },
        {
            "type": "Feature",
            "properties": {
                "town": "壽豐鄉",
                "name": "五味屋240志工之家",
                "date": "即日起",
                "contact": "0930-131-555 曾店長",
                "room_info": "4人上下舖2間",
                "address": "花蓮縣壽豐鄉中山路240號",
                "notes": "有客廳，有廚房可以自己煮食\n靠近豐田車站，往返光復火車可通",
                "geocoded": true,
                "autocomplete_address": "花蓮縣壽豐鄉豐裡村７鄰中山路２４０號",
                "original_address": "花蓮縣壽豐鄉中山路240號",
                "full_address": "花蓮縣壽豐鄉中山路240號",
                "row_number": 82
            },
            "geometry": {
                "type": "Point",
                "coordinates": [
                    121.505784,
                    23.842491
                ]
            }
        },
        {
            "type": "Feature",
            "properties": {
                "town": "壽豐鄉",
                "name": "五味屋外婆的家",
                "date": "即日起",
                "contact": "0930-131-555 曾店長",
                "room_info": "四人雅房1間(兩張雙人床)、大通鋪1間(8大人)",
                "address": "花蓮縣壽豐鄉四維路1之6號",
                "notes": "有客廳，有廚房可以自己煮食\n靠近豐田車站，往返光復火車可通",
                "geocoded": true,
                "autocomplete_address": "花蓮縣壽豐鄉豐裡村１２鄰四維路１之６號",
                "original_address": "花蓮縣壽豐鄉四維路1之6號",
                "full_address": "花蓮縣壽豐鄉四維路1之6號",
                "row_number": 83
            },
            "geometry": {
                "type": "Point",
                "coordinates": [
                    121.499862,
                    23.846597
                ]
            }
        },
        {
            "type": "Feature",
            "properties": {
                "town": "壽豐鄉",
                "name": "雲上太陽",
                "date": "9\/24–25",
                "contact": "Line: @cloudsun",
                "room_info": "四人房 5 間",
                "address": "花蓮縣壽豐鄉中正路261巷48號",
                "source": "花蓮國際民宿協會",
                "geocoded": true,
                "autocomplete_address": "花蓮縣壽豐鄉志學村９鄰中正路２６１巷４８號",
                "original_address": "花蓮縣壽豐鄉中正路261巷48號",
                "full_address": "花蓮縣壽豐鄉中正路261巷48號",
                "row_number": 84
            },
            "geometry": {
                "type": "Point",
                "coordinates": [
                    121.537422,
                    23.907356
                ]
            }
        },
        {
            "type": "Feature",
            "properties": {
                "town": "壽豐鄉",
                "name": "順泰旅店",
                "contact": "0939-393-092",
                "address": "花蓮縣壽豐鄉中山路215號",
                "geocoded": true,
                "autocomplete_address": "花蓮縣壽豐鄉豐裡村２鄰中山路２１５號",
                "original_address": "花蓮縣壽豐鄉中山路215號",
                "full_address": "花蓮縣壽豐鄉中山路215號",
                "row_number": 85
            },
            "geometry": {
                "type": "Point",
                "coordinates": [
                    121.503872,
                    23.843785
                ]
            }
        },
        {
            "type": "Feature",
            "properties": {
                "town": "壽豐鄉",
                "name": "小雨蛙民宿",
                "date": "9\/24-25",
                "contact": "03-865-3808",
                "room_info": "四人房7間",
                "address": "花蓮縣壽豐鄉魚塘路36號",
                "fee": "災民優先",
                "geocoded": true,
                "autocomplete_address": "花蓮縣壽豐鄉豐山村５鄰魚塘３６號",
                "original_address": "花蓮縣壽豐鄉魚塘路36號",
                "full_address": "花蓮縣壽豐鄉魚塘路36號",
                "row_number": 86
            },
            "geometry": {
                "type": "Point",
                "coordinates": [
                    121.492282,
                    23.858352
                ]
            }
        },
        {
            "type": "Feature",
            "properties": {
                "town": "壽豐鄉",
                "name": "聽見蝸牛",
                "date": "9\/24-25",
                "contact": "0989-226-348",
                "room_info": "雙人房、四人房",
                "address": "花蓮縣壽豐鄉豐坪路三段1411巷165弄16號",
                "fee": "災民優先",
                "geocoded": true,
                "autocomplete_address": "花蓮縣壽豐鄉平和村２５鄰豐坪路三段１４１１巷１６５弄１６號",
                "original_address": "花蓮縣壽豐鄉豐坪路三段1411巷165弄16號",
                "full_address": "花蓮縣壽豐鄉豐坪路三段1411巷165弄16號",
                "row_number": 87
            },
            "geometry": {
                "type": "Point",
                "coordinates": [
                    121.562138,
                    23.905558
                ]
            }
        },
        {
            "type": "Feature",
            "properties": {
                "town": "壽豐鄉",
                "name": "依山午民宿",
                "contact": "0975-737-169",
                "address": "花蓮縣壽豐鄉中山路101巷17號",
                "fee": "災民優先",
                "geocoded": true,
                "autocomplete_address": "花蓮縣壽豐鄉豐山村２５鄰中山路１０１巷１７號",
                "original_address": "花蓮縣壽豐鄉中山路101巷17號",
                "full_address": "花蓮縣壽豐鄉中山路101巷17號",
                "row_number": 88
            },
            "geometry": {
                "type": "Point",
                "coordinates": [
                    121.493008,
                    23.847394
                ]
            }
        },
        {
            "type": "Feature",
            "properties": {
                "town": "壽豐鄉",
                "name": "鯉魚潭湖畔46民宿",
                "contact": "0970-162-909",
                "room_info": "五間房間",
                "address": "花蓮縣壽豐鄉池南路一段46號",
                "fee": "災民優先",
                "geocoded": true,
                "autocomplete_address": "花蓮縣壽豐鄉池南村１鄰池南路一段４６號",
                "original_address": "花蓮縣壽豐鄉池南路一段46號",
                "full_address": "花蓮縣壽豐鄉池南路一段46號",
                "row_number": 89
            },
            "geometry": {
                "type": "Point",
                "coordinates": [
                    121.505758,
                    23.92907
                ]
            }
        },
        {
            "type": "Feature",
            "properties": {
                "town": "壽豐鄉",
                "name": "星空說渡假民宿",
                "contact": "0912-828-275",
                "room_info": "5",
                "address": "花蓮縣壽豐鄉中山路三段158巷12號",
                "fee": "災民優先",
                "geocoded": true,
                "autocomplete_address": "花蓮縣壽豐鄉志學村１０鄰中山路三段１５８巷１２號",
                "original_address": "花蓮縣壽豐鄉中山路三段158巷12號",
                "full_address": "花蓮縣壽豐鄉中山路三段158巷12號",
                "row_number": 90
            },
            "geometry": {
                "type": "Point",
                "coordinates": [
                    121.533719,
                    23.911485
                ]
            }
        },
        {
            "type": "Feature",
            "properties": {
                "town": "鳳林鎮",
                "name": "芳草古樹花園",
                "date": "9\/29-10\/2",
                "contact": "0910-265-272\nLine: @fangshuh",
                "address": "鳳林鎮中和路71號",
                "geocoded": true,
                "autocomplete_address": "花蓮縣鳳林鎮大榮里１９鄰中和路７１號",
                "original_address": "鳳林鎮中和路71號",
                "full_address": "花蓮縣鳳林鎮中和路71號",
                "row_number": 91
            },
            "geometry": {
                "type": "Point",
                "coordinates": [
                    121.45411,
                    23.746488
                ]
            }
        },
        {
            "type": "Feature",
            "properties": {
                "town": "鳳林鎮",
                "name": "賽斯村（已額滿）",
                "date": "9\/27-10\/8",
                "contact": "038764797\nLine: @seth899",
                "address": "鳳林鎮鳳凰路300號",
                "geocoded": true,
                "autocomplete_address": "花蓮縣鳳林鎮鳳義里９鄰鳳凰路３００號",
                "original_address": "鳳林鎮鳳凰路300號",
                "full_address": "花蓮縣鳳林鎮鳳凰路300號",
                "row_number": 92
            },
            "geometry": {
                "type": "Point",
                "coordinates": [
                    121.43003,
                    23.756934
                ]
            }
        },
        {
            "type": "Feature",
            "properties": {
                "town": "鳳林鎮",
                "name": "馬瑞診所",
                "contact": "0988-821-012",
                "room_info": "林醫師自家二樓",
                "address": "花蓮縣鳳林鎮長橋路58號",
                "fee": "災民優先",
                "geocoded": true,
                "autocomplete_address": "花蓮縣鳳林鎮長橋里１４鄰長橋路５８號",
                "original_address": "花蓮縣鳳林鎮長橋路58號",
                "full_address": "花蓮縣鳳林鎮長橋路58號",
                "row_number": 93
            },
            "geometry": {
                "type": "Point",
                "coordinates": [
                    121.420394,
                    23.71213
                ]
            }
        },
        {
            "type": "Feature",
            "properties": {
                "town": "鳳林鎮",
                "name": "橄欖樹農坊民宿",
                "contact": "0937-587-677",
                "room_info": "四人房2間",
                "address": "花蓮縣鳳林鎮永豐路37號",
                "fee": "災民優先",
                "geocoded": true,
                "autocomplete_address": "花蓮縣鳳林鎮林榮里１４鄰永豐路３７號",
                "original_address": "花蓮縣鳳林鎮永豐路37號",
                "full_address": "花蓮縣鳳林鎮永豐路37號",
                "row_number": 94
            },
            "geometry": {
                "type": "Point",
                "coordinates": [
                    121.477252,
                    23.799461
                ]
            }
        },
        {
            "type": "Feature",
            "properties": {
                "town": "鳳林鎮",
                "name": "後山.我的家民宿",
                "contact": "0955-883-189",
                "room_info": "2",
                "address": "鳳林鎮永豐路31號",
                "fee": "災民優先",
                "geocoded": true,
                "autocomplete_address": "花蓮縣鳳林鎮林榮里１４鄰永豐路３１號",
                "original_address": "鳳林鎮永豐路31號",
                "full_address": "花蓮縣鳳林鎮永豐路31號",
                "row_number": 95
            },
            "geometry": {
                "type": "Point",
                "coordinates": [
                    121.476462,
                    23.799507
                ]
            }
        },
        {
            "type": "Feature",
            "properties": {
                "town": "豐濱鄉",
                "name": "貓公部落",
                "date": "9\/28開始",
                "contact": "0960-620-259",
                "room_info": "四個床位，上下舖",
                "address": "花蓮縣豐濱鄉豐濱村三民路81號（近豐濱7-11）",
                "source": "threads",
                "notes": "入住順序：1. 馬太鞍災民2. 救災志工（物資整理、清淤等等）",
                "geocoded": true,
                "autocomplete_address": "花蓮縣豐濱鄉豐濱村２鄰三民路１１號",
                "original_address": "花蓮縣豐濱鄉豐濱村三民路81號（近豐濱7-11）",
                "full_address": "花蓮縣豐濱鄉豐濱村三民路81號（近豐濱7-11）",
                "row_number": 96
            },
            "geometry": {
                "type": "Point",
                "coordinates": [
                    121.522796,
                    23.601365
                ]
            }
        },
        {
            "type": "Feature",
            "properties": {
                "town": "豐濱鄉",
                "name": "朋友+ 共享空間",
                "date": "9\/28起",
                "contact": "0960-620-259",
                "address": "豐濱鄉三民路81號",
                "geocoded": true,
                "autocomplete_address": "花蓮縣豐濱鄉豐濱村２鄰三民路４巷１號",
                "original_address": "豐濱鄉三民路81號",
                "full_address": "花蓮縣豐濱鄉三民路81號",
                "row_number": 97
            },
            "geometry": {
                "type": "Point",
                "coordinates": [
                    121.523298,
                    23.600579
                ]
            }
        },
        {
            "type": "Feature",
            "properties": {
                "town": "豐濱鄉",
                "name": "原菓子",
                "contact": "0978-979-517",
                "room_info": "一間4床",
                "address": "花蓮縣豐濱鄉民權街20號",
                "fee": "災民優先",
                "geocoded": true,
                "autocomplete_address": "花蓮縣豐濱鄉豐濱村９鄰民權街２０號",
                "original_address": "花蓮縣豐濱鄉民權街20號",
                "full_address": "花蓮縣豐濱鄉民權街20號",
                "row_number": 98
            },
            "geometry": {
                "type": "Point",
                "coordinates": [
                    121.521424,
                    23.597633
                ]
            }
        },
        {
            "type": "Feature",
            "properties": {
                "town": "豐濱鄉",
                "name": "下鄉行動",
                "contact": "0920-373-643",
                "address": "花蓮縣豐濱鄉靜浦村8鄰靜浦301號1樓",
                "fee": "災民優先",
                "geocoded": true,
                "autocomplete_address": "花蓮縣豐濱鄉靜浦村８鄰靜浦３０８號之１",
                "original_address": "花蓮縣豐濱鄉靜浦村8鄰靜浦301號1樓",
                "full_address": "花蓮縣豐濱鄉靜浦村8鄰靜浦301號1樓",
                "row_number": 99
            },
            "geometry": {
                "type": "Point",
                "coordinates": [
                    121.497988,
                    23.458658
                ]
            }
        },
        {
            "type": "Feature",
            "properties": {
                "town": "豐濱鄉",
                "name": "新太平洋1號店",
                "date": "9\/24-10\/1",
                "contact": "0958-040-504\n0979-608-869",
                "room_info": "大通鋪6床",
                "address": "花蓮縣豐濱鄉靜浦村靜浦8-1號",
                "fee": "災民優先",
                "geocoded": true,
                "autocomplete_address": "花蓮縣豐濱鄉靜浦村１０鄰靜浦８之１號",
                "original_address": "花蓮縣豐濱鄉靜浦村靜浦8-1號",
                "full_address": "花蓮縣豐濱鄉靜浦村靜浦8-1號",
                "row_number": 100
            },
            "geometry": {
                "type": "Point",
                "coordinates": [
                    121.488407,
                    23.466137
                ]
            }
        },
        {
            "type": "Feature",
            "properties": {
                "town": "豐濱鄉",
                "name": "橘舍民宿",
                "date": "即日起至10\/2",
                "contact": "0977-456-625",
                "room_info": "雙人房1間、三人房1間",
                "address": "花蓮縣豐濱鄉三民路59-1號",
                "fee": "災民優先",
                "geocoded": true,
                "autocomplete_address": "花蓮縣豐濱鄉豐濱村５鄰三民路５９之１號",
                "original_address": "花蓮縣豐濱鄉三民路59-1號",
                "full_address": "花蓮縣豐濱鄉三民路59-1號",
                "row_number": 101
            },
            "geometry": {
                "type": "Point",
                "coordinates": [
                    121.52191,
                    23.598262
                ]
            }
        },
        {
            "type": "Feature",
            "properties": {
                "town": "豐濱鄉",
                "name": "朋友＋共享空間",
                "contact": "0906-620-259",
                "room_info": "上下舖共4床",
                "address": "花蓮縣豐濱鄉三民路81號",
                "fee": "災民優先",
                "geocoded": true,
                "autocomplete_address": "花蓮縣豐濱鄉豐濱村２鄰三民路４巷１號",
                "original_address": "花蓮縣豐濱鄉三民路81號",
                "full_address": "花蓮縣豐濱鄉三民路81號",
                "row_number": 102
            },
            "geometry": {
                "type": "Point",
                "coordinates": [
                    121.523298,
                    23.600579
                ]
            }
        },
        {
            "type": "Feature",
            "properties": {
                "town": "豐濱鄉",
                "name": "高山森林基地",
                "date": "即日起至10\/1",
                "contact": "Line: @jsp5182x\n0933-991-926",
                "room_info": "雅房1間(上下舖)",
                "address": "花蓮縣豐濱鄉磯崎6號",
                "fee": "災民優先",
                "notes": "為員工宿舍，希望是伴侶或女性",
                "geocoded": true,
                "autocomplete_address": "花蓮縣豐濱鄉磯崎村３鄰磯崎６號",
                "original_address": "花蓮縣豐濱鄉磯崎6號",
                "full_address": "花蓮縣豐濱鄉磯崎6號",
                "row_number": 103
            },
            "geometry": {
                "type": "Point",
                "coordinates": [
                    121.54768,
                    23.703589
                ]
            }
        },
        {
            "type": "Feature",
            "properties": {
                "town": "豐濱鄉",
                "name": "眺浪園區．浪洄瀾潛",
                "contact": "0930-596-580",
                "address": "花蓮縣豐濱鄉港口村47-1號",
                "fee": "災民優先",
                "geocoded": true,
                "autocomplete_address": "花蓮縣豐濱鄉港口村３鄰石梯坪４７之１號",
                "original_address": "花蓮縣豐濱鄉港口村47-1號",
                "full_address": "花蓮縣豐濱鄉港口村47-1號",
                "row_number": 104
            },
            "geometry": {
                "type": "Point",
                "coordinates": [
                    121.509248,
                    23.481592
                ]
            }
        },
        {
            "type": "Feature",
            "properties": {
                "town": "豐濱鄉",
                "name": "嘎嘎烏賴賴",
                "date": "9\/24-10\/12",
                "contact": "0925-372-576",
                "room_info": "上下舖共4床",
                "address": "花蓮縣豐濱鄉港口村9鄰大港口11號",
                "fee": "災民優先",
                "geocoded": true,
                "autocomplete_address": "花蓮縣豐濱鄉港口村９鄰大港口１１號",
                "original_address": "花蓮縣豐濱鄉港口村9鄰大港口11號",
                "full_address": "花蓮縣豐濱鄉港口村9鄰大港口11號",
                "row_number": 105
            },
            "geometry": {
                "type": "Point",
                "coordinates": [
                    121.49955,
                    23.469942
                ]
            }
        }
    ],
    "metadata": {
        "created_at": "2025-09-27 12:34:32",
        "source_sheet": "【災民志工相關】優待住宿(災民志工)",
        "total_rows_processed": 103,
        "geocoded_features": 103,
        "geocoding_success_rate": "100%"
    }
}